{"pagination": {"start_page": 41, "items_on_page": 25, "items_per_page": 25, "total_result": 4343}, "links": [{"href": "https://api.sncf.com/v1/coverage/sncf/stop_areas/{stop_areas.id}", "type": "stop_areas", "rel": "stop_areas", "templated": true}, {"href": "https://api.sncf.com/v1/coverage/sncf/stop_areas/{stop_areas.id}/route_schedules", "type": "route_schedules", "rel": "route_schedules", "templated": true}, {"href": "https://api.sncf.com/v1/coverage/sncf/stop_areas/{stop_areas.id}/stop_schedules", "type": "stop_schedules", "rel": "stop_schedules", "templated": true}, {"href": "https://api.sncf.com/v1/coverage/sncf/stop_areas/{stop_areas.id}/arrivals", "type": "arrivals", "rel": "arrivals", "templated": true}, {"href": "https://api.sncf.com/v1/coverage/sncf/stop_areas/{stop_areas.id}/departures", "type": "departures", "rel": "departures", "templated": true}, {"href": "https://api.sncf.com/v1/coverage/sncf/stop_areas/{stop_areas.id}/places_nearby", "type": "places_nearby", "rel": "places_nearby", "templated": true}, {"href": "https://api.sncf.com/v1/coverage/sncf/stop_areas/{stop_areas.id}/journeys", "type": "journey", "rel": "journeys", "templated": true}, {"href": "https://api.sncf.com/v1/coverage/sncf/stop_areas/{stop_areas.id}/traffic_reports", "type": "disruption", "rel": "disruptions", "templated": true}, {"href": "https://api.sncf.com/v1/coverage/sncf/stop_areas?start_page=40", "type": "previous", "templated": false}, {"href": "https://api.sncf.com/v1/coverage/sncf/stop_areas?start_page=42", "type": "next", "templated": false}, {"href": "https://api.sncf.com/v1/coverage/sncf/stop_areas?start_page=173", "type": "last", "templated": false}, {"href": "https://api.sncf.com/v1/coverage/sncf/stop_areas", "type": "first", "templated": false}], "disruptions": [], "feed_publishers": [], "context": {"timezone": "Europe/Paris", "current_datetime": "20200210T135433"}, "stop_areas": [{"codes": [{"type": "CR-CI-CH", "value": "0087-481804-BV"}, {"type": "CR-CI-CH", "value": "0087-481804-BV"}, {"type": "UIC8", "value": "87481804"}, {"type": "external_code", "value": "OCE87481804"}], "name": "Cou\u00e9ron", "links": [], "coord": {"lat": "47.221924", "lon": "-1.723519"}, "label": "Cou\u00e9ron (Cou\u00ebron)", "administrative_regions": [{"insee": "44047", "name": "Cou\u00ebron", "level": 8, "coord": {"lat": "47.2115054", "lon": "-1.7271466"}, "label": "Cou\u00ebron (44220)", "id": "admin:fr:44047", "zip_code": "44220"}], "timezone": "Europe/Paris", "id": "stop_area:OCE:SA:87481804"}, {"codes": [{"type": "CR-CI-CH", "value": "0087-313544-00"}, {"type": "CR-CI-CH", "value": "0087-313544-00"}, {"type": "UIC8", "value": "87313544"}, {"type": "external_code", "value": "OCE87313544"}], "name": "Cramoisy", "links": [], "coord": {"lat": "49.256509", "lon": "2.404882"}, "label": "Cramoisy (Cramoisy)", "administrative_regions": [{"insee": "60173", "name": "Cramoisy", "level": 8, "coord": {"lat": "49.2556979", "lon": "2.4014491"}, "label": "Cramoisy (60660)", "id": "admin:fr:60173", "zip_code": "60660"}], "timezone": "Europe/Paris", "id": "stop_area:OCE:SA:87313544"}, {"codes": [{"type": "CR-CI-CH", "value": "0087-216184-00"}, {"type": "CR-CI-CH", "value": "0087-216184-00"}, {"type": "UIC8", "value": "87216184"}, {"type": "external_code", "value": "OCE87216184"}], "name": "Crancey RN", "links": [], "coord": {"lat": "48.514439", "lon": "3.639442"}, "label": "Crancey RN (Crancey)", "administrative_regions": [{"insee": "10114", "name": "Crancey", "level": 8, "coord": {"lat": "48.517205", "lon": "3.6372028"}, "label": "Crancey (10100)", "id": "admin:fr:10114", "zip_code": "10100"}], "timezone": "Europe/Paris", "id": "stop_area:OCE:SA:87216184"}, {"codes": [{"type": "CR-CI-CH", "value": "0087-613232-00"}, {"type": "CR-CI-CH", "value": "0087-613232-00"}, {"type": "UIC8", "value": "87613232"}, {"type": "external_code", "value": "OCE87613232"}], "name": "Cransac", "links": [], "coord": {"lat": "44.523063", "lon": "2.270767"}, "label": "Cransac (Cransac)", "administrative_regions": [{"insee": "12083", "name": "Cransac", "level": 8, "coord": {"lat": "44.5247252", "lon": "2.2810378"}, "label": "Cransac (12110)", "id": "admin:fr:12083", "zip_code": "12110"}], "timezone": "Europe/Paris", "id": "stop_area:OCE:SA:87613232"}, {"codes": [{"type": "CR-CI-CH", "value": "0087-683649-BV"}, {"type": "CR-CI-CH", "value": "0087-683649-BV"}, {"type": "UIC8", "value": "87683649"}, {"type": "external_code", "value": "OCE87683649"}], "name": "Cravant-Bazarnes", "links": [], "coord": {"lat": "47.678581", "lon": "3.681465"}, "label": "Cravant-Bazarnes (Bazarnes)", "administrative_regions": [{"insee": "89030", "name": "Bazarnes", "level": 8, "coord": {"lat": "47.66041", "lon": "3.66217"}, "label": "Bazarnes (89460)", "id": "admin:fr:89030", "zip_code": "89460"}], "timezone": "Europe/Paris", "id": "stop_area:OCE:SA:87683649"}, {"codes": [{"type": "CR-CI-CH", "value": "0087-276006-BV"}, {"type": "CR-CI-CH", "value": "0087-276006-BV"}, {"type": "UIC8", "value": "87276006"}, {"type": "external_code", "value": "OCE87276006"}], "name": "Creil", "links": [], "coord": {"lat": "49.263769", "lon": "2.46918"}, "label": "Creil (Creil)", "administrative_regions": [{"insee": "60175", "name": "Creil", "level": 8, "coord": {"lat": "49.2607914", "lon": "2.4733771"}, "label": "Creil (60100)", "id": "admin:fr:60175", "zip_code": "60100"}], "timezone": "Europe/Paris", "id": "stop_area:OCE:SA:87276006"}, {"codes": [{"type": "CR-CI-CH", "value": "0087-635805-HR"}, {"type": "CR-CI-CH", "value": "0087-635805-HR"}, {"type": "UIC8", "value": "87635805"}, {"type": "external_code", "value": "OCE87635805"}], "name": "Cremanvillers", "links": [], "coord": {"lat": "48.009221", "lon": "6.716263"}, "label": "Cremanvillers (Vagney)", "administrative_regions": [{"insee": "88486", "name": "Vagney", "level": 8, "coord": {"lat": "48.0091314", "lon": "6.7172863"}, "label": "Vagney (88120)", "id": "admin:fr:88486", "zip_code": "88120"}], "timezone": "Europe/Paris", "id": "stop_area:OCE:SA:87635805"}, {"codes": [{"type": "CR-CI-CH", "value": "0087-761783-BV"}, {"type": "CR-CI-CH", "value": "0087-761783-BV"}, {"type": "UIC8", "value": "87761783"}, {"type": "external_code", "value": "OCE87761783"}], "name": "Crest", "links": [], "coord": {"lat": "44.730187", "lon": "5.01611"}, "label": "Crest (Crest)", "administrative_regions": [{"insee": "26108", "name": "Crest", "level": 8, "coord": {"lat": "44.7282675", "lon": "5.0236641"}, "label": "Crest (26400)", "id": "admin:fr:26108", "zip_code": "26400"}], "timezone": "Europe/Paris", "id": "stop_area:OCE:SA:87761783"}, {"codes": [{"type": "CR-CI-CH", "value": "0087-608802-BV"}, {"type": "CR-CI-CH", "value": "0087-608802-BV"}, {"type": "UIC8", "value": "87608802"}, {"type": "external_code", "value": "OCE87608802"}], "name": "Creteil-Pompadour", "links": [], "coord": {"lat": "48.773101", "lon": "2.436141"}, "label": "Creteil-Pompadour (Cr\u00e9teil)", "administrative_regions": [{"insee": "94028", "name": "Cr\u00e9teil", "level": 8, "coord": {"lat": "48.7771486", "lon": "2.4530731"}, "label": "Cr\u00e9teil (94000)", "id": "admin:fr:94028", "zip_code": "94000"}], "timezone": "Europe/Paris", "id": "stop_area:OCE:SA:87608802"}, {"codes": [{"type": "CR-CI-CH", "value": "0087-694109-00"}, {"type": "CR-CI-CH", "value": "0087-694109-00"}, {"type": "UIC8", "value": "87694109"}, {"type": "external_code", "value": "OCE87694109"}], "name": "Creusot - TGV (le)", "links": [], "coord": {"lat": "46.765309", "lon": "4.499388"}, "label": "Creusot - TGV (le) (\u00c9cuisses)", "administrative_regions": [{"insee": "71187", "name": "\u00c9cuisses", "level": 8, "coord": {"lat": "46.7565885", "lon": "4.5382451"}, "label": "\u00c9cuisses (71210)", "id": "admin:fr:71187", "zip_code": "71210"}], "timezone": "Europe/Paris", "id": "stop_area:OCE:SA:87694109"}, {"codes": [{"type": "CR-CI-CH", "value": "0087-406736-00"}, {"type": "CR-CI-CH", "value": "0087-406736-00"}, {"type": "UIC8", "value": "87406736"}, {"type": "external_code", "value": "OCE87406736"}], "name": "Creutzwald G.R.", "links": [], "coord": {"lat": "49.207778", "lon": "6.697198"}, "label": "Creutzwald G.R. (Creutzwald)", "administrative_regions": [{"insee": "57160", "name": "Creutzwald", "level": 8, "coord": {"lat": "49.19959", "lon": "6.6893987"}, "label": "Creutzwald (57150)", "id": "admin:fr:57160", "zip_code": "57150"}], "timezone": "Europe/Paris", "id": "stop_area:OCE:SA:87406736"}, {"codes": [{"type": "CR-CI-CH", "value": "0085-010124-BV"}, {"type": "UIC8", "value": "85010124"}, {"type": "external_code", "value": "OCE85010124"}], "name": "Creux-de-Genthod", "links": [], "coord": {"lat": "46.263757", "lon": "6.161314"}, "label": "Creux-de-Genthod (Genthod)", "administrative_regions": [{"insee": "", "name": "Genthod", "level": 8, "coord": {"lat": "46.2635931913", "lon": "6.16174105929456"}, "label": "Genthod (1294)", "id": "admin:osm:relation:1685487", "zip_code": "1294"}], "timezone": "Europe/Paris", "id": "stop_area:OCE:SA:85010124"}, {"codes": [{"type": "CR-CI-CH", "value": "0087-396226-00"}, {"type": "CR-CI-CH", "value": "0087-396226-00"}, {"type": "UIC8", "value": "87396226"}, {"type": "external_code", "value": "OCE87396226"}], "name": "Criss\u00e9", "links": [], "coord": {"lat": "48.16796", "lon": "-0.06561599999999999"}, "label": "Criss\u00e9 (Criss\u00e9)", "administrative_regions": [{"insee": "72109", "name": "Criss\u00e9", "level": 8, "coord": {"lat": "48.1685132", "lon": "-0.0602119"}, "label": "Criss\u00e9 (72140)", "id": "admin:fr:72109", "zip_code": "72140"}], "timezone": "Europe/Paris", "id": "stop_area:OCE:SA:87396226"}, {"codes": [{"type": "CR-CI-CH", "value": "0087-286716-00"}, {"type": "CR-CI-CH", "value": "0087-286716-00"}, {"type": "UIC8", "value": "87286716"}, {"type": "external_code", "value": "OCE87286716"}], "name": "Croix Wasquehal", "links": [], "coord": {"lat": "50.678545", "lon": "3.138095"}, "label": "Croix Wasquehal (Wasquehal)", "administrative_regions": [{"insee": "59646", "name": "Wasquehal", "level": 8, "coord": {"lat": "50.6691577", "lon": "3.1312447"}, "label": "Wasquehal (59290)", "id": "admin:fr:59646", "zip_code": "59290"}], "timezone": "Europe/Paris", "id": "stop_area:OCE:SA:87286716"}, {"codes": [{"type": "CR-CI-CH", "value": "0087-281055-00"}, {"type": "CR-CI-CH", "value": "0087-281055-00"}, {"type": "UIC8", "value": "87281055"}, {"type": "external_code", "value": "OCE87281055"}], "name": "Croix l'Allumette", "links": [], "coord": {"lat": "50.686837", "lon": "3.151232"}, "label": "Croix l'Allumette (Croix)", "administrative_regions": [{"insee": "59163", "name": "Croix", "level": 8, "coord": {"lat": "50.6802124", "lon": "3.1564365"}, "label": "Croix (59170)", "id": "admin:fr:59163", "zip_code": "59170"}], "timezone": "Europe/Paris", "id": "stop_area:OCE:SA:87281055"}, {"codes": [{"type": "CR-CI-CH", "value": "0087-753491-00"}, {"type": "CR-CI-CH", "value": "0087-753491-00"}, {"type": "UIC8", "value": "87753491"}, {"type": "external_code", "value": "OCE87753491"}], "name": "Croix-Sainte", "links": [], "coord": {"lat": "43.409101", "lon": "5.019683"}, "label": "Croix-Sainte (Martigues)", "administrative_regions": [{"insee": "13056", "name": "Martigues", "level": 8, "coord": {"lat": "43.4057279", "lon": "5.0548176"}, "label": "Martigues (13500)", "id": "admin:fr:13056", "zip_code": "13500"}], "timezone": "Europe/Paris", "id": "stop_area:OCE:SA:87753491"}, {"codes": [{"type": "CR-CI-CH", "value": "0087-672600-00"}, {"type": "CR-CI-CH", "value": "0087-672600-00"}, {"type": "UIC8", "value": "87672600"}, {"type": "external_code", "value": "OCE87672600"}], "name": "Croix-du-Prince", "links": [], "coord": {"lat": "43.285611", "lon": "-0.379148"}, "label": "Croix-du-Prince (Juran\u00e7on)", "administrative_regions": [{"insee": "64284", "name": "Juran\u00e7on", "level": 8, "coord": {"lat": "43.2871825", "lon": "-0.3896425"}, "label": "Juran\u00e7on (64110)", "id": "admin:fr:64284", "zip_code": "64110"}], "timezone": "Europe/Paris", "id": "stop_area:OCE:SA:87672600"}, {"codes": [{"type": "CR-CI-CH", "value": "0087-756338-00"}, {"type": "CR-CI-CH", "value": "0087-756338-00"}, {"type": "UIC8", "value": "87756338"}, {"type": "external_code", "value": "OCE87756338"}], "name": "Cros-de-Cagnes", "links": [], "coord": {"lat": "43.660466", "lon": "7.167112"}, "label": "Cros-de-Cagnes (Cagnes-sur-Mer)", "administrative_regions": [{"insee": "6027", "name": "Cagnes-sur-Mer", "level": 8, "coord": {"lat": "43.6612012", "lon": "7.1513834"}, "label": "Cagnes-sur-Mer (06800)", "id": "admin:fr:6027", "zip_code": "06800"}], "timezone": "Europe/Paris", "id": "stop_area:OCE:SA:87756338"}, {"codes": [{"type": "CR-CI-CH", "value": "0087-271874-00"}, {"type": "CR-CI-CH", "value": "0087-271874-00"}, {"type": "UIC8", "value": "87271874"}, {"type": "external_code", "value": "OCE87271874"}], "name": "Crouy", "links": [], "coord": {"lat": "49.403745", "lon": "3.357268"}, "label": "Crouy (Crouy)", "administrative_regions": [{"insee": "2243", "name": "Crouy", "level": 8, "coord": {"lat": "49.4025", "lon": "3.36"}, "label": "Crouy (02880)", "id": "admin:fr:2243", "zip_code": "02880"}], "timezone": "Europe/Paris", "id": "stop_area:OCE:SA:87271874"}, {"codes": [{"type": "CR-CI-CH", "value": "0087-116640-00"}, {"type": "CR-CI-CH", "value": "0087-116640-00"}, {"type": "UIC8", "value": "87116640"}, {"type": "external_code", "value": "OCE87116640"}], "name": "Crouy-sur-Ourcq", "links": [], "coord": {"lat": "49.09153", "lon": "3.062922"}, "label": "Crouy-sur-Ourcq (Crouy-sur-Ourcq)", "administrative_regions": [{"insee": "77148", "name": "Crouy-sur-Ourcq", "level": 8, "coord": {"lat": "49.0906177", "lon": "3.0753978"}, "label": "Crouy-sur-Ourcq (77840)", "id": "admin:fr:77148", "zip_code": "77840"}], "timezone": "Europe/Paris", "id": "stop_area:OCE:SA:87116640"}, {"codes": [{"type": "CR-CI-CH", "value": "0087-116772-00"}, {"type": "CR-CI-CH", "value": "0087-116772-00"}, {"type": "UIC8", "value": "87116772"}, {"type": "external_code", "value": "OCE87116772"}], "name": "Cr\u00e9cy-la-Chapelle", "links": [], "coord": {"lat": "48.859541", "lon": "2.905727"}, "label": "Cr\u00e9cy-la-Chapelle (Cr\u00e9cy-la-Chapelle)", "administrative_regions": [{"insee": "77142", "name": "Cr\u00e9cy-la-Chapelle", "level": 8, "coord": {"lat": "48.8578447", "lon": "2.9086092"}, "label": "Cr\u00e9cy-la-Chapelle (77580)", "id": "admin:fr:77142", "zip_code": "77580"}], "timezone": "Europe/Paris", "id": "stop_area:OCE:SA:87116772"}, {"codes": [{"type": "CR-CI-CH", "value": "0087-723502-00"}, {"type": "CR-CI-CH", "value": "0087-723502-00"}, {"type": "UIC8", "value": "87723502"}, {"type": "external_code", "value": "OCE87723502"}], "name": "Cr\u00e9pieux-la-Pape", "links": [], "coord": {"lat": "45.803921", "lon": "4.892737"}, "label": "Cr\u00e9pieux-la-Pape (Rillieux-la-Pape)", "administrative_regions": [{"insee": "69286", "name": "Rillieux-la-Pape", "level": 8, "coord": {"lat": "45.823514", "lon": "4.8994366"}, "label": "Rillieux-la-Pape (69140)", "id": "admin:fr:69286", "zip_code": "69140"}], "timezone": "Europe/Paris", "id": "stop_area:OCE:SA:87723502"}, {"codes": [{"type": "CR-CI-CH", "value": "0087-296152-BV"}, {"type": "CR-CI-CH", "value": "0087-296152-BV"}, {"type": "UIC8", "value": "87296152"}, {"type": "external_code", "value": "OCE87296152"}], "name": "Cr\u00e9py-Couvron", "links": [], "coord": {"lat": "49.623301", "lon": "3.51649"}, "label": "Cr\u00e9py-Couvron (Cr\u00e9py)", "administrative_regions": [{"insee": "2238", "name": "Cr\u00e9py", "level": 8, "coord": {"lat": "49.605", "lon": "3.5147222"}, "label": "Cr\u00e9py (02870)", "id": "admin:fr:2238", "zip_code": "02870"}], "timezone": "Europe/Paris", "id": "stop_area:OCE:SA:87296152"}, {"codes": [{"type": "CR-CI-CH", "value": "0087-271593-00"}, {"type": "CR-CI-CH", "value": "0087-271593-00"}, {"type": "UIC8", "value": "87271593"}, {"type": "external_code", "value": "OCE87271593"}], "name": "Cr\u00e9py-en-Valois", "links": [], "coord": {"lat": "49.231257", "lon": "2.88644"}, "label": "Cr\u00e9py-en-Valois (Cr\u00e9py-en-Valois)", "administrative_regions": [{"insee": "60176", "name": "Cr\u00e9py-en-Valois", "level": 8, "coord": {"lat": "49.2358509", "lon": "2.8900507"}, "label": "Cr\u00e9py-en-Valois (60800)", "id": "admin:fr:60176", "zip_code": "60800"}], "timezone": "Europe/Paris", "id": "stop_area:OCE:SA:87271593"}, {"codes": [{"type": "CR-CI-CH", "value": "0087-725713-00"}, {"type": "CR-CI-CH", "value": "0087-725713-00"}, {"type": "UIC8", "value": "87725713"}, {"type": "external_code", "value": "OCE87725713"}], "name": "Cr\u00eaches-sur-Sa\u00f4ne", "links": [], "coord": {"lat": "46.246615", "lon": "4.783901"}, "label": "Cr\u00eaches-sur-Sa\u00f4ne (Cr\u00eaches-sur-Sa\u00f4ne)", "administrative_regions": [{"insee": "71150", "name": "Cr\u00eaches-sur-Sa\u00f4ne", "level": 8, "coord": {"lat": "46.246363", "lon": "4.7867962"}, "label": "Cr\u00eaches-sur-Sa\u00f4ne (71680)", "id": "admin:fr:71150", "zip_code": "71680"}], "timezone": "Europe/Paris", "id": "stop_area:OCE:SA:87725713"}]}