{"pagination": {"start_page": 18, "items_on_page": 25, "items_per_page": 25, "total_result": 4343}, "links": [{"href": "https://api.sncf.com/v1/coverage/sncf/stop_areas/{stop_areas.id}", "type": "stop_areas", "rel": "stop_areas", "templated": true}, {"href": "https://api.sncf.com/v1/coverage/sncf/stop_areas/{stop_areas.id}/route_schedules", "type": "route_schedules", "rel": "route_schedules", "templated": true}, {"href": "https://api.sncf.com/v1/coverage/sncf/stop_areas/{stop_areas.id}/stop_schedules", "type": "stop_schedules", "rel": "stop_schedules", "templated": true}, {"href": "https://api.sncf.com/v1/coverage/sncf/stop_areas/{stop_areas.id}/arrivals", "type": "arrivals", "rel": "arrivals", "templated": true}, {"href": "https://api.sncf.com/v1/coverage/sncf/stop_areas/{stop_areas.id}/departures", "type": "departures", "rel": "departures", "templated": true}, {"href": "https://api.sncf.com/v1/coverage/sncf/stop_areas/{stop_areas.id}/places_nearby", "type": "places_nearby", "rel": "places_nearby", "templated": true}, {"href": "https://api.sncf.com/v1/coverage/sncf/stop_areas/{stop_areas.id}/journeys", "type": "journey", "rel": "journeys", "templated": true}, {"href": "https://api.sncf.com/v1/coverage/sncf/stop_areas/{stop_areas.id}/traffic_reports", "type": "disruption", "rel": "disruptions", "templated": true}, {"href": "https://api.sncf.com/v1/coverage/sncf/stop_areas?start_page=17", "type": "previous", "templated": false}, {"href": "https://api.sncf.com/v1/coverage/sncf/stop_areas?start_page=19", "type": "next", "templated": false}, {"href": "https://api.sncf.com/v1/coverage/sncf/stop_areas?start_page=173", "type": "last", "templated": false}, {"href": "https://api.sncf.com/v1/coverage/sncf/stop_areas", "type": "first", "templated": false}], "disruptions": [], "feed_publishers": [], "context": {"timezone": "Europe/Paris", "current_datetime": "20200210T135430"}, "stop_areas": [{"codes": [{"type": "CR-CI-CH", "value": "0087-381152-00"}, {"type": "CR-CI-CH", "value": "0087-381152-00"}, {"type": "UIC8", "value": "87381152"}, {"type": "external_code", "value": "OCE87381152"}], "name": "Boissy-l'Aillerie", "links": [], "coord": {"lat": "49.075774", "lon": "2.025357"}, "label": "Boissy-l'Aillerie (Boissy-l'Aillerie)", "administrative_regions": [{"insee": "95078", "name": "Boissy-l'Aillerie", "level": 8, "coord": {"lat": "49.0770562", "lon": "2.0291683"}, "label": "Boissy-l'Aillerie (95650)", "id": "admin:fr:95078", "zip_code": "95650"}], "timezone": "Europe/Paris", "id": "stop_area:OCE:SA:87381152"}, {"codes": [{"type": "CR-CI-CH", "value": "0087-182709-BV"}, {"type": "CR-CI-CH", "value": "0087-182709-BV"}, {"type": "UIC8", "value": "87182709"}, {"type": "external_code", "value": "OCE87182709"}], "name": "Bollwiller", "links": [], "coord": {"lat": "47.856726", "lon": "7.267338"}, "label": "Bollwiller (Bollwiller)", "administrative_regions": [{"insee": "68043", "name": "Bollwiller", "level": 8, "coord": {"lat": "47.8600613", "lon": "7.2623733"}, "label": "Bollwiller (68540)", "id": "admin:fr:68043", "zip_code": "68540"}], "timezone": "Europe/Paris", "id": "stop_area:OCE:SA:87182709"}, {"codes": [{"type": "CR-CI-CH", "value": "0087-764357-00"}, {"type": "CR-CI-CH", "value": "0087-764357-00"}, {"type": "UIC8", "value": "87764357"}, {"type": "external_code", "value": "OCE87764357"}], "name": "Boll\u00e8ne-la-Croisi\u00e8re", "links": [], "coord": {"lat": "44.271536", "lon": "4.707954"}, "label": "Boll\u00e8ne-la-Croisi\u00e8re (Boll\u00e8ne)", "administrative_regions": [{"insee": "84019", "name": "Boll\u00e8ne", "level": 8, "coord": {"lat": "44.2803882", "lon": "4.7484092"}, "label": "Boll\u00e8ne (84500)", "id": "admin:fr:84019", "zip_code": "84500"}], "timezone": "Europe/Paris", "id": "stop_area:OCE:SA:87764357"}, {"codes": [{"type": "CR-CI-CH", "value": "0087-142224-BV"}, {"type": "CR-CI-CH", "value": "0087-142224-BV"}, {"type": "UIC8", "value": "87142224"}, {"type": "external_code", "value": "OCE87142224"}], "name": "Bologne", "links": [], "coord": {"lat": "48.198598", "lon": "5.13424"}, "label": "Bologne (Bologne)", "administrative_regions": [{"insee": "52058", "name": "Bologne", "level": 8, "coord": {"lat": "48.2", "lon": "5.1426"}, "label": "Bologne (52310)", "id": "admin:fr:52058", "zip_code": "52310"}], "timezone": "Europe/Paris", "id": "stop_area:OCE:SA:87142224"}, {"codes": [{"type": "CR-CI-CH", "value": "0087-107425-00"}, {"type": "CR-CI-CH", "value": "0087-107425-00"}, {"type": "UIC8", "value": "87107425"}, {"type": "external_code", "value": "OCE87107425"}], "name": "Bologne-Salle-des-F\u00eates", "links": [], "coord": {"lat": "48.199715", "lon": "5.141379"}, "label": "Bologne-Salle-des-F\u00eates (Bologne)", "administrative_regions": [{"insee": "52058", "name": "Bologne", "level": 8, "coord": {"lat": "48.2", "lon": "5.1426"}, "label": "Bologne (52310)", "id": "admin:fr:52058", "zip_code": "52310"}], "timezone": "Europe/Paris", "id": "stop_area:OCE:SA:87107425"}, {"codes": [{"type": "CR-CI-CH", "value": "0087-784801-00"}, {"type": "CR-CI-CH", "value": "0087-784801-00"}, {"type": "UIC8", "value": "87784801"}, {"type": "external_code", "value": "OCE87784801"}], "name": "Bolqu\u00e8re-Eyne", "links": [], "coord": {"lat": "42.497513", "lon": "2.089077"}, "label": "Bolqu\u00e8re-Eyne (La Cabanasse)", "administrative_regions": [{"insee": "66027", "name": "La Cabanasse", "level": 8, "coord": {"lat": "42.5018763", "lon": "2.1146616"}, "label": "La Cabanasse (66210)", "id": "admin:fr:66027", "zip_code": "66210"}], "timezone": "Europe/Paris", "id": "stop_area:OCE:SA:87784801"}, {"codes": [{"type": "CR-CI-CH", "value": "0085-001289-BV"}, {"type": "CR-CI-CH", "value": "0085-001289-BV"}, {"type": "UIC8", "value": "85001289"}, {"type": "external_code", "value": "OCE85001289"}], "name": "Boncourt", "links": [], "coord": {"lat": "47.492519", "lon": "7.016756"}, "label": "Boncourt (Boncourt)", "administrative_regions": [{"insee": "", "name": "Boncourt", "level": 8, "coord": {"lat": "47.4879774160982", "lon": "7.00756901801326"}, "label": "Boncourt (2926)", "id": "admin:osm:relation:1685574", "zip_code": "2926"}], "timezone": "Europe/Paris", "id": "stop_area:OCE:SA:85001289"}, {"codes": [{"type": "CR-CI-CH", "value": "0087-113407-BV"}, {"type": "CR-CI-CH", "value": "0087-113407-BV"}, {"type": "UIC8", "value": "87113407"}, {"type": "external_code", "value": "OCE87113407"}], "name": "Bondy", "links": [], "coord": {"lat": "48.894381", "lon": "2.478734"}, "label": "Bondy (Bondy)", "administrative_regions": [{"insee": "93010", "name": "Bondy", "level": 8, "coord": {"lat": "48.9031", "lon": "2.48291"}, "label": "Bondy (93140)", "id": "admin:fr:93010", "zip_code": "93140"}], "timezone": "Europe/Paris", "id": "stop_area:OCE:SA:87113407"}, {"codes": [{"type": "CR-CI-CH", "value": "0087-478065-00"}, {"type": "CR-CI-CH", "value": "0087-478065-00"}, {"type": "UIC8", "value": "87478065"}, {"type": "external_code", "value": "OCE87478065"}], "name": "Bonnemain", "links": [], "coord": {"lat": "48.477088", "lon": "-1.765864"}, "label": "Bonnemain (Bonnemain)", "administrative_regions": [{"insee": "35029", "name": "Bonnemain", "level": 8, "coord": {"lat": "48.4683645", "lon": "-1.7702317"}, "label": "Bonnemain (35270)", "id": "admin:fr:35029", "zip_code": "35270"}], "timezone": "Europe/Paris", "id": "stop_area:OCE:SA:87478065"}, {"codes": [{"type": "CR-CI-CH", "value": "0087-545731-BV"}, {"type": "CR-CI-CH", "value": "0087-545731-BV"}, {"type": "UIC8", "value": "87545731"}, {"type": "external_code", "value": "OCE87545731"}], "name": "Bonneval", "links": [], "coord": {"lat": "48.186288", "lon": "1.386117"}, "label": "Bonneval (Bonneval)", "administrative_regions": [{"insee": "28051", "name": "Bonneval", "level": 8, "coord": {"lat": "48.1821181", "lon": "1.3861056"}, "label": "Bonneval (28800)", "id": "admin:fr:28051", "zip_code": "28800"}], "timezone": "Europe/Paris", "id": "stop_area:OCE:SA:87545731"}, {"codes": [{"type": "CR-CI-CH", "value": "0087-715193-00"}, {"type": "CR-CI-CH", "value": "0087-715193-00"}, {"type": "UIC8", "value": "87715193"}, {"type": "external_code", "value": "OCE87715193"}], "name": "Bonnevaux", "links": [], "coord": {"lat": "46.808419", "lon": "6.184197"}, "label": "Bonnevaux (Bonnevaux)", "administrative_regions": [{"insee": "25075", "name": "Bonnevaux", "level": 8, "coord": {"lat": "46.8071287", "lon": "6.1852584"}, "label": "Bonnevaux (25560)", "id": "admin:fr:25075", "zip_code": "25560"}], "timezone": "Europe/Paris", "id": "stop_area:OCE:SA:87715193"}, {"codes": [{"type": "CR-CI-CH", "value": "0087-746339-00"}, {"type": "CR-CI-CH", "value": "0087-746339-00"}, {"type": "UIC8", "value": "87746339"}, {"type": "external_code", "value": "OCE87746339"}], "name": "Bonneville", "links": [], "coord": {"lat": "46.077714", "lon": "6.416476"}, "label": "Bonneville (Bonneville)", "administrative_regions": [{"insee": "74042", "name": "Bonneville", "level": 8, "coord": {"lat": "46.0775797", "lon": "6.4086189"}, "label": "Bonneville (74130)", "id": "admin:fr:74042", "zip_code": "74130"}], "timezone": "Europe/Paris", "id": "stop_area:OCE:SA:87746339"}, {"codes": [{"type": "CR-CI-CH", "value": "0087-415893-BV"}, {"type": "CR-CI-CH", "value": "0087-415893-BV"}, {"type": "UIC8", "value": "87415893"}, {"type": "external_code", "value": "OCE87415893"}], "name": "Bonni\u00e8res", "links": [], "coord": {"lat": "49.038603", "lon": "1.581508"}, "label": "Bonni\u00e8res (Bonni\u00e8res-sur-Seine)", "administrative_regions": [{"insee": "78089", "name": "Bonni\u00e8res-sur-Seine", "level": 8, "coord": {"lat": "49.0194", "lon": "1.5706"}, "label": "Bonni\u00e8res-sur-Seine (78270)", "id": "admin:fr:78089", "zip_code": "78270"}], "timezone": "Europe/Paris", "id": "stop_area:OCE:SA:87415893"}, {"codes": [{"type": "CR-CI-CH", "value": "0087-745596-BV"}, {"type": "CR-CI-CH", "value": "0087-745596-BV"}, {"type": "UIC8", "value": "87745596"}, {"type": "external_code", "value": "OCE87745596"}], "name": "Bons-en-Chablais", "links": [], "coord": {"lat": "46.270031", "lon": "6.366161"}, "label": "Bons-en-Chablais (Bons-en-Chablais)", "administrative_regions": [{"insee": "74043", "name": "Bons-en-Chablais", "level": 8, "coord": {"lat": "46.264918", "lon": "6.3702817"}, "label": "Bons-en-Chablais (74890)", "id": "admin:fr:74043", "zip_code": "74890"}], "timezone": "Europe/Paris", "id": "stop_area:OCE:SA:87745596"}, {"codes": [{"type": "CR-CI-CH", "value": "0087-726414-BV"}, {"type": "CR-CI-CH", "value": "0087-726414-BV"}, {"type": "UIC8", "value": "87726414"}, {"type": "external_code", "value": "OCE87726414"}], "name": "Bonson", "links": [], "coord": {"lat": "45.522171", "lon": "4.216222"}, "label": "Bonson (Bonson)", "administrative_regions": [{"insee": "42022", "name": "Bonson", "level": 8, "coord": {"lat": "45.5225917", "lon": "4.2154175"}, "label": "Bonson (42160)", "id": "admin:fr:42022", "zip_code": "42160"}], "timezone": "Europe/Paris", "id": "stop_area:OCE:SA:87726414"}, {"codes": [{"type": "CR-CI-CH", "value": "0087-276444-00"}, {"type": "CR-CI-CH", "value": "0087-276444-00"}, {"type": "UIC8", "value": "87276444"}, {"type": "external_code", "value": "OCE87276444"}], "name": "Boran-sur-Oise", "links": [], "coord": {"lat": "49.167299", "lon": "2.362522"}, "label": "Boran-sur-Oise (Boran-sur-Oise)", "administrative_regions": [{"insee": "60086", "name": "Boran-sur-Oise", "level": 8, "coord": {"lat": "49.16734", "lon": "2.3586472"}, "label": "Boran-sur-Oise (60820)", "id": "admin:fr:60086", "zip_code": "60820"}], "timezone": "Europe/Paris", "id": "stop_area:OCE:SA:87276444"}, {"codes": [{"type": "CR-CI-CH", "value": "0087-581009-BV"}, {"type": "CR-CI-CH", "value": "0087-581009-BV"}, {"type": "UIC8", "value": "87581009"}, {"type": "external_code", "value": "OCE87581009"}], "name": "Bordeaux-St-Jean", "links": [], "coord": {"lat": "44.82654", "lon": "-0.556194"}, "label": "Bordeaux-St-Jean (Bordeaux)", "administrative_regions": [{"insee": "33063", "name": "Bordeaux", "level": 8, "coord": {"lat": "44.841225", "lon": "-0.5800364"}, "label": "Bordeaux (33000)", "id": "admin:fr:33063", "zip_code": "33000"}], "timezone": "Europe/Paris", "id": "stop_area:OCE:SA:87581009"}, {"codes": [{"type": "CR-CI-CH", "value": "0087-491019-00"}, {"type": "CR-CI-CH", "value": "0087-491019-00"}, {"type": "UIC8", "value": "87491019"}, {"type": "external_code", "value": "OCE87491019"}], "name": "Bords", "links": [], "coord": {"lat": "45.89454", "lon": "-0.798522"}, "label": "Bords (Bords)", "administrative_regions": [{"insee": "17053", "name": "Bords", "level": 8, "coord": {"lat": "45.8970787", "lon": "-0.7961733"}, "label": "Bords (17430)", "id": "admin:fr:17053", "zip_code": "17430"}], "timezone": "Europe/Paris", "id": "stop_area:OCE:SA:87491019"}, {"codes": [{"type": "CR-CI-CH", "value": "0087-734681-00"}, {"type": "CR-CI-CH", "value": "0087-734681-00"}, {"type": "UIC8", "value": "87734681"}, {"type": "external_code", "value": "OCE87734681"}], "name": "Borne", "links": [], "coord": {"lat": "45.100197", "lon": "3.798542"}, "label": "Borne (Borne)", "administrative_regions": [{"insee": "43036", "name": "Borne", "level": 8, "coord": {"lat": "45.100013", "lon": "3.797273"}, "label": "Borne (43350)", "id": "admin:fr:43036", "zip_code": "43350"}], "timezone": "Europe/Paris", "id": "stop_area:OCE:SA:87734681"}, {"codes": [{"type": "CR-CI-CH", "value": "0087-276717-00"}, {"type": "CR-CI-CH", "value": "0087-276717-00"}, {"type": "UIC8", "value": "87276717"}, {"type": "external_code", "value": "OCE87276717"}], "name": "Bornel-Belle-Eglise", "links": [], "coord": {"lat": "49.194644", "lon": "2.20722"}, "label": "Bornel-Belle-Eglise (Bornel)", "administrative_regions": [{"insee": "60088", "name": "Bornel", "level": 8, "coord": {"lat": "49.1975734", "lon": "2.2069574"}, "label": "Bornel", "id": "admin:fr:60088", "zip_code": ""}], "timezone": "Europe/Paris", "id": "stop_area:OCE:SA:87276717"}, {"codes": [{"type": "CR-CI-CH", "value": "0087-645705-00"}, {"type": "CR-CI-CH", "value": "0087-645705-00"}, {"type": "UIC8", "value": "87645705"}, {"type": "external_code", "value": "OCE87645705"}], "name": "Bort-les-Orgues", "links": [], "coord": {"lat": "45.406357", "lon": "2.502564"}, "label": "Bort-les-Orgues (Bort-les-Orgues)", "administrative_regions": [{"insee": "19028", "name": "Bort-les-Orgues", "level": 8, "coord": {"lat": "45.4010305", "lon": "2.4992935"}, "label": "Bort-les-Orgues (19110)", "id": "admin:fr:19028", "zip_code": "19110"}], "timezone": "Europe/Paris", "id": "stop_area:OCE:SA:87645705"}, {"codes": [{"type": "CR-CI-CH", "value": "0087-534099-HR"}, {"type": "CR-CI-CH", "value": "0087-534099-HR"}, {"type": "UIC8", "value": "87534099"}, {"type": "external_code", "value": "OCE87534099"}], "name": "Bort-les-Orgues-Ville", "links": [], "coord": {"lat": "45.399326", "lon": "2.499248"}, "label": "Bort-les-Orgues-Ville (Bort-les-Orgues)", "administrative_regions": [{"insee": "19028", "name": "Bort-les-Orgues", "level": 8, "coord": {"lat": "45.4010305", "lon": "2.4992935"}, "label": "Bort-les-Orgues (19110)", "id": "admin:fr:19028", "zip_code": "19110"}], "timezone": "Europe/Paris", "id": "stop_area:OCE:SA:87534099"}, {"codes": [{"type": "CR-CI-CH", "value": "0087-705913-HR"}, {"type": "UIC8", "value": "87705913"}, {"type": "external_code", "value": "OCE87705913"}], "name": "Bosgouet-D-675", "links": [], "coord": {"lat": "49.359778", "lon": "0.849168"}, "label": "Bosgouet-D-675 (Bosgouet)", "administrative_regions": [{"insee": "27091", "name": "Bosgouet", "level": 8, "coord": {"lat": "49.3583947", "lon": "0.8496636"}, "label": "Bosgouet (27310)", "id": "admin:fr:27091", "zip_code": "27310"}], "timezone": "Europe/Paris", "id": "stop_area:OCE:SA:87705913"}, {"codes": [{"type": "CR-CI-CH", "value": "0087-215756-00"}, {"type": "CR-CI-CH", "value": "0087-215756-00"}, {"type": "UIC8", "value": "87215756"}, {"type": "external_code", "value": "OCE87215756"}], "name": "Bossancourt", "links": [], "coord": {"lat": "48.283605", "lon": "4.60138"}, "label": "Bossancourt (Bossancourt)", "administrative_regions": [{"insee": "10050", "name": "Bossancourt", "level": 8, "coord": {"lat": "48.2822385", "lon": "4.6038391"}, "label": "Bossancourt (10140)", "id": "admin:fr:10050", "zip_code": "10140"}], "timezone": "Europe/Paris", "id": "stop_area:OCE:SA:87215756"}, {"codes": [{"type": "CR-CI-CH", "value": "0087-481200-00"}, {"type": "CR-CI-CH", "value": "0087-481200-00"}, {"type": "UIC8", "value": "87481200"}, {"type": "external_code", "value": "OCE87481200"}], "name": "Bouaye", "links": [], "coord": {"lat": "47.138165", "lon": "-1.681054"}, "label": "Bouaye (Bouaye)", "administrative_regions": [{"insee": "44018", "name": "Bouaye", "level": 8, "coord": {"lat": "47.1428126", "lon": "-1.6917807"}, "label": "Bouaye (44830)", "id": "admin:fr:44018", "zip_code": "44830"}], "timezone": "Europe/Paris", "id": "stop_area:OCE:SA:87481200"}]}