{"pagination": {"start_page": 99, "items_on_page": 25, "items_per_page": 25, "total_result": 4343}, "links": [{"href": "https://api.sncf.com/v1/coverage/sncf/stop_areas/{stop_areas.id}", "type": "stop_areas", "rel": "stop_areas", "templated": true}, {"href": "https://api.sncf.com/v1/coverage/sncf/stop_areas/{stop_areas.id}/route_schedules", "type": "route_schedules", "rel": "route_schedules", "templated": true}, {"href": "https://api.sncf.com/v1/coverage/sncf/stop_areas/{stop_areas.id}/stop_schedules", "type": "stop_schedules", "rel": "stop_schedules", "templated": true}, {"href": "https://api.sncf.com/v1/coverage/sncf/stop_areas/{stop_areas.id}/arrivals", "type": "arrivals", "rel": "arrivals", "templated": true}, {"href": "https://api.sncf.com/v1/coverage/sncf/stop_areas/{stop_areas.id}/departures", "type": "departures", "rel": "departures", "templated": true}, {"href": "https://api.sncf.com/v1/coverage/sncf/stop_areas/{stop_areas.id}/places_nearby", "type": "places_nearby", "rel": "places_nearby", "templated": true}, {"href": "https://api.sncf.com/v1/coverage/sncf/stop_areas/{stop_areas.id}/journeys", "type": "journey", "rel": "journeys", "templated": true}, {"href": "https://api.sncf.com/v1/coverage/sncf/stop_areas/{stop_areas.id}/traffic_reports", "type": "disruption", "rel": "disruptions", "templated": true}, {"href": "https://api.sncf.com/v1/coverage/sncf/stop_areas?start_page=98", "type": "previous", "templated": false}, {"href": "https://api.sncf.com/v1/coverage/sncf/stop_areas?start_page=100", "type": "next", "templated": false}, {"href": "https://api.sncf.com/v1/coverage/sncf/stop_areas?start_page=173", "type": "last", "templated": false}, {"href": "https://api.sncf.com/v1/coverage/sncf/stop_areas", "type": "first", "templated": false}], "disruptions": [], "feed_publishers": [], "context": {"timezone": "Europe/Paris", "current_datetime": "20200210T135441"}, "stop_areas": [{"codes": [{"type": "CR-CI-CH", "value": "0087-698563-HR"}, {"type": "UIC8", "value": "87698563"}, {"type": "external_code", "value": "OCE87698563"}], "name": "Meg\u00e8ve-Autogare", "links": [], "coord": {"lat": "45.862105", "lon": "6.617681"}, "label": "Meg\u00e8ve-Autogare (Meg\u00e8ve)", "administrative_regions": [{"insee": "74173", "name": "Meg\u00e8ve", "level": 8, "coord": {"lat": "45.8567089", "lon": "6.617932"}, "label": "Meg\u00e8ve (74120)", "id": "admin:fr:74173", "zip_code": "74120"}], "timezone": "Europe/Paris", "id": "stop_area:OCE:SA:87698563"}, {"codes": [{"type": "CR-CI-CH", "value": "0087-279174-00"}, {"type": "CR-CI-CH", "value": "0087-279174-00"}, {"type": "UIC8", "value": "87279174"}, {"type": "external_code", "value": "OCE87279174"}], "name": "Mehun-sur-Indre", "links": [], "coord": {"lat": "46.840833", "lon": "1.530832"}, "label": "Mehun-sur-Indre (Villedieu-sur-Indre)", "administrative_regions": [{"insee": "36241", "name": "Villedieu-sur-Indre", "level": 8, "coord": {"lat": "46.8474516", "lon": "1.5375901"}, "label": "Villedieu-sur-Indre (36320)", "id": "admin:fr:36241", "zip_code": "36320"}], "timezone": "Europe/Paris", "id": "stop_area:OCE:SA:87279174"}, {"codes": [{"type": "CR-CI-CH", "value": "0087-576116-00"}, {"type": "CR-CI-CH", "value": "0087-576116-00"}, {"type": "UIC8", "value": "87576116"}, {"type": "external_code", "value": "OCE87576116"}], "name": "Mehun-sur-Y\u00e8vre", "links": [], "coord": {"lat": "47.139572", "lon": "2.207314"}, "label": "Mehun-sur-Y\u00e8vre (Mehun-sur-Y\u00e8vre)", "administrative_regions": [{"insee": "18141", "name": "Mehun-sur-Y\u00e8vre", "level": 8, "coord": {"lat": "47.1462117", "lon": "2.2214381"}, "label": "Mehun-sur-Y\u00e8vre (18500)", "id": "admin:fr:18141", "zip_code": "18500"}], "timezone": "Europe/Paris", "id": "stop_area:OCE:SA:87576116"}, {"codes": [{"type": "CR-CI-CH", "value": "0087-682005-BV"}, {"type": "CR-CI-CH", "value": "0087-682005-BV"}, {"type": "UIC8", "value": "87682005"}, {"type": "external_code", "value": "OCE87682005"}], "name": "Melun", "links": [], "coord": {"lat": "48.527597", "lon": "2.655392"}, "label": "Melun (Melun)", "administrative_regions": [{"insee": "77288", "name": "Melun", "level": 8, "coord": {"lat": "48.539927", "lon": "2.6608169"}, "label": "Melun (77000)", "id": "admin:fr:77288", "zip_code": "77000"}], "timezone": "Europe/Paris", "id": "stop_area:OCE:SA:87682005"}, {"codes": [{"type": "CR-CI-CH", "value": "0087-642330-HR"}, {"type": "CR-CI-CH", "value": "0087-642330-HR"}, {"type": "UIC8", "value": "87642330"}, {"type": "external_code", "value": "OCE87642330"}], "name": "Menchhoffen-(Abri)", "links": [], "coord": {"lat": "48.859548", "lon": "7.494659"}, "label": "Menchhoffen-(Abri) (Menchhoffen)", "administrative_regions": [{"insee": "67289", "name": "Menchhoffen", "level": 8, "coord": {"lat": "48.8602565", "lon": "7.4991787"}, "label": "Menchhoffen (67340)", "id": "admin:fr:67289", "zip_code": "67340"}], "timezone": "Europe/Paris", "id": "stop_area:OCE:SA:87642330"}, {"codes": [{"type": "CR-CI-CH", "value": "0087-783605-BV"}, {"type": "CR-CI-CH", "value": "0087-783605-BV"}, {"type": "UIC8", "value": "87783605"}, {"type": "external_code", "value": "OCE87783605"}], "name": "Mende", "links": [], "coord": {"lat": "44.522332", "lon": "3.501908"}, "label": "Mende (Mende)", "administrative_regions": [{"insee": "48095", "name": "Mende", "level": 8, "coord": {"lat": "44.5180226", "lon": "3.4991057"}, "label": "Mende (48000)", "id": "admin:fr:48095", "zip_code": "48000"}], "timezone": "Europe/Paris", "id": "stop_area:OCE:SA:87783605"}, {"codes": [{"type": "CR-CI-CH", "value": "0087-681411-00"}, {"type": "CR-CI-CH", "value": "0087-681411-00"}, {"type": "UIC8", "value": "87681411"}, {"type": "external_code", "value": "OCE87681411"}], "name": "Mennecy", "links": [], "coord": {"lat": "48.571063", "lon": "2.433252"}, "label": "Mennecy (Mennecy)", "administrative_regions": [{"insee": "91386", "name": "Mennecy", "level": 8, "coord": {"lat": "48.5666645", "lon": "2.4347044"}, "label": "Mennecy (91540)", "id": "admin:fr:91386", "zip_code": "91540"}], "timezone": "Europe/Paris", "id": "stop_area:OCE:SA:87681411"}, {"codes": [{"type": "CR-CI-CH", "value": "0087-296434-00"}, {"type": "CR-CI-CH", "value": "0087-296434-00"}, {"type": "UIC8", "value": "87296434"}, {"type": "external_code", "value": "OCE87296434"}], "name": "Mennessis", "links": [], "coord": {"lat": "49.691037", "lon": "3.271922"}, "label": "Mennessis (Mennessis)", "administrative_regions": [{"insee": "2474", "name": "Mennessis", "level": 8, "coord": {"lat": "49.6936", "lon": "3.27291"}, "label": "Mennessis (02700)", "id": "admin:fr:2474", "zip_code": "02700"}], "timezone": "Europe/Paris", "id": "stop_area:OCE:SA:87296434"}, {"codes": [{"type": "CR-CI-CH", "value": "0087-576728-BV"}, {"type": "CR-CI-CH", "value": "0087-576728-BV"}, {"type": "UIC8", "value": "87576728"}, {"type": "external_code", "value": "OCE87576728"}], "name": "Mennetou-sur-Cher", "links": [], "coord": {"lat": "47.268848", "lon": "1.876472"}, "label": "Mennetou-sur-Cher (Mennetou-sur-Cher)", "administrative_regions": [{"insee": "41135", "name": "Mennetou-sur-Cher", "level": 8, "coord": {"lat": "47.2691517", "lon": "1.8669838"}, "label": "Mennetou-sur-Cher (41320)", "id": "admin:fr:41135", "zip_code": "41320"}], "timezone": "Europe/Paris", "id": "stop_area:OCE:SA:87576728"}, {"codes": [{"type": "CR-CI-CH", "value": "0087-756486-00"}, {"type": "CR-CI-CH", "value": "0087-756486-00"}, {"type": "UIC8", "value": "87756486"}, {"type": "external_code", "value": "OCE87756486"}], "name": "Menton", "links": [], "coord": {"lat": "43.7744", "lon": "7.493169"}, "label": "Menton (Menton)", "administrative_regions": [{"insee": "6083", "name": "Menton", "level": 8, "coord": {"lat": "43.7753495", "lon": "7.5029213"}, "label": "Menton (06500)", "id": "admin:fr:6083", "zip_code": "06500"}], "timezone": "Europe/Paris", "id": "stop_area:OCE:SA:87756486"}, {"codes": [{"type": "CR-CI-CH", "value": "0087-756494-00"}, {"type": "CR-CI-CH", "value": "0087-756494-00"}, {"type": "UIC8", "value": "87756494"}, {"type": "external_code", "value": "OCE87756494"}], "name": "Menton-Garavan", "links": [], "coord": {"lat": "43.785151", "lon": "7.517272"}, "label": "Menton-Garavan (Menton)", "administrative_regions": [{"insee": "6083", "name": "Menton", "level": 8, "coord": {"lat": "43.7753495", "lon": "7.5029213"}, "label": "Menton (06500)", "id": "admin:fr:6083", "zip_code": "06500"}], "timezone": "Europe/Paris", "id": "stop_area:OCE:SA:87756494"}, {"codes": [{"type": "CR-CI-CH", "value": "0087-574194-BV"}, {"type": "CR-CI-CH", "value": "0087-574194-BV"}, {"type": "UIC8", "value": "87574194"}, {"type": "external_code", "value": "OCE87574194"}], "name": "Mer (Loir-et-Cher)", "links": [], "coord": {"lat": "47.705882", "lon": "1.506358"}, "label": "Mer (Loir-et-Cher) (Mer)", "administrative_regions": [{"insee": "41136", "name": "Mer", "level": 8, "coord": {"lat": "47.7083642", "lon": "1.5062706"}, "label": "Mer (41500)", "id": "admin:fr:41136", "zip_code": "41500"}], "timezone": "Europe/Paris", "id": "stop_area:OCE:SA:87574194"}, {"codes": [{"type": "CR-CI-CH", "value": "0087-618348-BV"}, {"type": "CR-CI-CH", "value": "0087-618348-BV"}, {"type": "UIC8", "value": "87618348"}, {"type": "external_code", "value": "OCE87618348"}], "name": "Mercus-Garrabet-Centre", "links": [], "coord": {"lat": "42.877096", "lon": "1.627208"}, "label": "Mercus-Garrabet-Centre (Mercus-Garrabet)", "administrative_regions": [{"insee": "9188", "name": "Mercus-Garrabet", "level": 8, "coord": {"lat": "42.8797454", "lon": "1.6305693"}, "label": "Mercus-Garrabet (09400)", "id": "admin:fr:9188", "zip_code": "09400"}], "timezone": "Europe/Paris", "id": "stop_area:OCE:SA:87618348"}, {"codes": [{"type": "CR-CI-CH", "value": "0087-309773-00"}, {"type": "CR-CI-CH", "value": "0087-309773-00"}, {"type": "UIC8", "value": "87309773"}, {"type": "external_code", "value": "OCE87309773"}], "name": "Mereau", "links": [], "coord": {"lat": "47.162559", "lon": "2.049801"}, "label": "Mereau (M\u00e9reau)", "administrative_regions": [{"insee": "18148", "name": "M\u00e9reau", "level": 8, "coord": {"lat": "47.1788", "lon": "2.0513"}, "label": "M\u00e9reau (18120)", "id": "admin:fr:18148", "zip_code": "18120"}], "timezone": "Europe/Paris", "id": "stop_area:OCE:SA:87309773"}, {"codes": [{"type": "CR-CI-CH", "value": "0087-184408-00"}, {"type": "UIC8", "value": "87184408"}, {"type": "external_code", "value": "OCE87184408"}], "name": "Meroux", "links": [], "coord": {"lat": "47.586591", "lon": "6.899031"}, "label": "Meroux (Meroux-Moval)", "administrative_regions": [{"insee": "90068", "name": "Meroux-Moval", "level": 8, "coord": {"lat": "47.5960706", "lon": "6.8991456"}, "label": "Meroux-Moval (90400)", "id": "admin:fr:90068", "zip_code": "90400"}], "timezone": "Europe/Paris", "id": "stop_area:OCE:SA:87184408"}, {"codes": [{"type": "CR-CI-CH", "value": "0087-193219-00"}, {"type": "CR-CI-CH", "value": "0087-193219-00"}, {"type": "UIC8", "value": "87193219"}, {"type": "external_code", "value": "OCE87193219"}], "name": "Merten", "links": [], "coord": {"lat": "49.248719", "lon": "6.661951"}, "label": "Merten (Merten)", "administrative_regions": [{"insee": "57460", "name": "Merten", "level": 8, "coord": {"lat": "49.2489", "lon": "6.6674"}, "label": "Merten (57550)", "id": "admin:fr:57460", "zip_code": "57550"}], "timezone": "Europe/Paris", "id": "stop_area:OCE:SA:87193219"}, {"codes": [{"type": "CR-CI-CH", "value": "0087-477158-HR"}, {"type": "CR-CI-CH", "value": "0087-477158-HR"}, {"type": "UIC8", "value": "87477158"}, {"type": "external_code", "value": "OCE87477158"}], "name": "Merten-R\u00e9publique", "links": [], "coord": {"lat": "49.248913", "lon": "6.667053"}, "label": "Merten-R\u00e9publique (Merten)", "administrative_regions": [{"insee": "57460", "name": "Merten", "level": 8, "coord": {"lat": "49.2489", "lon": "6.6674"}, "label": "Merten (57550)", "id": "admin:fr:57460", "zip_code": "57550"}], "timezone": "Europe/Paris", "id": "stop_area:OCE:SA:87477158"}, {"codes": [{"type": "CR-CI-CH", "value": "0087-213207-00"}, {"type": "CR-CI-CH", "value": "0087-213207-00"}, {"type": "UIC8", "value": "87213207"}, {"type": "external_code", "value": "OCE87213207"}], "name": "Mertzwiller", "links": [], "coord": {"lat": "48.871997", "lon": "7.678352"}, "label": "Mertzwiller (Mertzwiller)", "administrative_regions": [{"insee": "67291", "name": "Mertzwiller", "level": 8, "coord": {"lat": "48.8659947", "lon": "7.6823034"}, "label": "Mertzwiller (67580)", "id": "admin:fr:67291", "zip_code": "67580"}], "timezone": "Europe/Paris", "id": "stop_area:OCE:SA:87213207"}, {"codes": [{"type": "CR-CI-CH", "value": "0087-406918-00"}, {"type": "CR-CI-CH", "value": "0087-406918-00"}, {"type": "UIC8", "value": "87406918"}, {"type": "external_code", "value": "OCE87406918"}], "name": "Mertzwiller (Moulin)", "links": [], "coord": {"lat": "48.867389", "lon": "7.681877"}, "label": "Mertzwiller (Moulin) (Mertzwiller)", "administrative_regions": [{"insee": "67291", "name": "Mertzwiller", "level": 8, "coord": {"lat": "48.8659947", "lon": "7.6823034"}, "label": "Mertzwiller (67580)", "id": "admin:fr:67291", "zip_code": "67580"}], "timezone": "Europe/Paris", "id": "stop_area:OCE:SA:87406918"}, {"codes": [{"type": "CR-CI-CH", "value": "0087-713701-BV"}, {"type": "CR-CI-CH", "value": "0087-713701-BV"}, {"type": "UIC8", "value": "87713701"}, {"type": "external_code", "value": "OCE87713701"}], "name": "Mervans", "links": [], "coord": {"lat": "46.798883", "lon": "5.179536"}, "label": "Mervans (Mervans)", "administrative_regions": [{"insee": "71295", "name": "Mervans", "level": 8, "coord": {"lat": "46.8002294", "lon": "5.1853325"}, "label": "Mervans (71310)", "id": "admin:fr:71295", "zip_code": "71310"}], "timezone": "Europe/Paris", "id": "stop_area:OCE:SA:87713701"}, {"codes": [{"type": "CR-CI-CH", "value": "0087-182725-00"}, {"type": "CR-CI-CH", "value": "0087-182725-00"}, {"type": "UIC8", "value": "87182725"}, {"type": "external_code", "value": "OCE87182725"}], "name": "Merxheim", "links": [], "coord": {"lat": "47.913117", "lon": "7.302415"}, "label": "Merxheim (Merxheim)", "administrative_regions": [{"insee": "68203", "name": "Merxheim", "level": 8, "coord": {"lat": "47.9113911", "lon": "7.2933428"}, "label": "Merxheim (68500)", "id": "admin:fr:68203", "zip_code": "68500"}], "timezone": "Europe/Paris", "id": "stop_area:OCE:SA:87182725"}, {"codes": [{"type": "CR-CI-CH", "value": "0087-654541-HR"}, {"type": "CR-CI-CH", "value": "0087-654541-HR"}, {"type": "UIC8", "value": "87654541"}, {"type": "external_code", "value": "OCE87654541"}], "name": "Merxheim-(Pl.-CDG)", "links": [], "coord": {"lat": "47.910552", "lon": "7.292778"}, "label": "Merxheim-(Pl.-CDG) (Merxheim)", "administrative_regions": [{"insee": "68203", "name": "Merxheim", "level": 8, "coord": {"lat": "47.9113911", "lon": "7.2933428"}, "label": "Merxheim (68500)", "id": "admin:fr:68203", "zip_code": "68500"}], "timezone": "Europe/Paris", "id": "stop_area:OCE:SA:87654541"}, {"codes": [{"type": "CR-CI-CH", "value": "0087-312546-00"}, {"type": "CR-CI-CH", "value": "0087-312546-00"}, {"type": "UIC8", "value": "87312546"}, {"type": "external_code", "value": "OCE87312546"}], "name": "Mery-sur-Cher", "links": [], "coord": {"lat": "47.246355", "lon": "1.988267"}, "label": "Mery-sur-Cher (M\u00e9ry-sur-Cher)", "administrative_regions": [{"insee": "18150", "name": "M\u00e9ry-sur-Cher", "level": 8, "coord": {"lat": "47.2458229", "lon": "1.9875213"}, "label": "M\u00e9ry-sur-Cher (18100)", "id": "admin:fr:18150", "zip_code": "18100"}], "timezone": "Europe/Paris", "id": "stop_area:OCE:SA:87312546"}, {"codes": [{"type": "CR-CI-CH", "value": "0087-139550-00"}, {"type": "CR-CI-CH", "value": "0087-139550-00"}, {"type": "UIC8", "value": "87139550"}, {"type": "external_code", "value": "OCE87139550"}], "name": "Mesgrigny Mairie", "links": [], "coord": {"lat": "48.486385", "lon": "3.8836"}, "label": "Mesgrigny Mairie (Mesgrigny)", "administrative_regions": [{"insee": "10234", "name": "Mesgrigny", "level": 8, "coord": {"lat": "48.4883215", "lon": "3.8822213"}, "label": "Mesgrigny (10170)", "id": "admin:fr:10234", "zip_code": "10170"}], "timezone": "Europe/Paris", "id": "stop_area:OCE:SA:87139550"}, {"codes": [{"type": "CR-CI-CH", "value": "0087-471185-00"}, {"type": "CR-CI-CH", "value": "0087-471185-00"}, {"type": "UIC8", "value": "87471185"}, {"type": "external_code", "value": "OCE87471185"}], "name": "Messac-Guipry", "links": [], "coord": {"lat": "47.822214", "lon": "-1.818668"}, "label": "Messac-Guipry (Guipry-Messac)", "administrative_regions": [{"insee": "35176", "name": "Guipry-Messac", "level": 8, "coord": {"lat": "47.8249568", "lon": "-1.8054673"}, "label": "Guipry-Messac (35480)", "id": "admin:fr:35176", "zip_code": "35480"}], "timezone": "Europe/Paris", "id": "stop_area:OCE:SA:87471185"}]}