{"pagination": {"start_page": 29, "items_on_page": 25, "items_per_page": 25, "total_result": 4343}, "links": [{"href": "https://api.sncf.com/v1/coverage/sncf/stop_areas/{stop_areas.id}", "type": "stop_areas", "rel": "stop_areas", "templated": true}, {"href": "https://api.sncf.com/v1/coverage/sncf/stop_areas/{stop_areas.id}/route_schedules", "type": "route_schedules", "rel": "route_schedules", "templated": true}, {"href": "https://api.sncf.com/v1/coverage/sncf/stop_areas/{stop_areas.id}/stop_schedules", "type": "stop_schedules", "rel": "stop_schedules", "templated": true}, {"href": "https://api.sncf.com/v1/coverage/sncf/stop_areas/{stop_areas.id}/arrivals", "type": "arrivals", "rel": "arrivals", "templated": true}, {"href": "https://api.sncf.com/v1/coverage/sncf/stop_areas/{stop_areas.id}/departures", "type": "departures", "rel": "departures", "templated": true}, {"href": "https://api.sncf.com/v1/coverage/sncf/stop_areas/{stop_areas.id}/places_nearby", "type": "places_nearby", "rel": "places_nearby", "templated": true}, {"href": "https://api.sncf.com/v1/coverage/sncf/stop_areas/{stop_areas.id}/journeys", "type": "journey", "rel": "journeys", "templated": true}, {"href": "https://api.sncf.com/v1/coverage/sncf/stop_areas/{stop_areas.id}/traffic_reports", "type": "disruption", "rel": "disruptions", "templated": true}, {"href": "https://api.sncf.com/v1/coverage/sncf/stop_areas?start_page=28", "type": "previous", "templated": false}, {"href": "https://api.sncf.com/v1/coverage/sncf/stop_areas?start_page=30", "type": "next", "templated": false}, {"href": "https://api.sncf.com/v1/coverage/sncf/stop_areas?start_page=173", "type": "last", "templated": false}, {"href": "https://api.sncf.com/v1/coverage/sncf/stop_areas", "type": "first", "templated": false}], "disruptions": [], "feed_publishers": [], "context": {"timezone": "Europe/Paris", "current_datetime": "20200210T135431"}, "stop_areas": [{"codes": [{"type": "CR-CI-CH", "value": "0087-688978-HR"}, {"type": "UIC8", "value": "87688978"}, {"type": "external_code", "value": "OCE87688978"}], "name": "Chambray-Lyc\u00e9e-Agricole", "links": [], "coord": {"lat": "47.338713", "lon": "0.728921"}, "label": "Chambray-Lyc\u00e9e-Agricole (Chambray-l\u00e8s-Tours)", "administrative_regions": [{"insee": "37050", "name": "Chambray-l\u00e8s-Tours", "level": 8, "coord": {"lat": "47.3390872", "lon": "0.714368"}, "label": "Chambray-l\u00e8s-Tours (37170)", "id": "admin:fr:37050", "zip_code": "37170"}], "timezone": "Europe/Paris", "id": "stop_area:OCE:SA:87688978"}, {"codes": [{"type": "CR-CI-CH", "value": "0087-644070-HR"}, {"type": "CR-CI-CH", "value": "0087-644070-HR"}, {"type": "UIC8", "value": "87644070"}, {"type": "external_code", "value": "OCE87644070"}], "name": "Chambray-Trousseau", "links": [], "coord": {"lat": "47.348067", "lon": "0.712582"}, "label": "Chambray-Trousseau (Saint-Avertin)", "administrative_regions": [{"insee": "37208", "name": "Saint-Avertin", "level": 8, "coord": {"lat": "47.3577", "lon": "0.739923"}, "label": "Saint-Avertin (37550)", "id": "admin:fr:37208", "zip_code": "37550"}], "timezone": "Europe/Paris", "id": "stop_area:OCE:SA:87644070"}, {"codes": [{"type": "CR-CI-CH", "value": "0087-741009-BV"}, {"type": "CR-CI-CH", "value": "0087-741009-BV"}, {"type": "UIC8", "value": "87741009"}, {"type": "external_code", "value": "OCE87741009"}], "name": "Chamb\u00e9ry-Chal.-les-Eaux", "links": [], "coord": {"lat": "45.571038", "lon": "5.919801"}, "label": "Chamb\u00e9ry-Chal.-les-Eaux (Chamb\u00e9ry)", "administrative_regions": [{"insee": "73065", "name": "Chamb\u00e9ry", "level": 8, "coord": {"lat": "45.5662672", "lon": "5.9203636"}, "label": "Chamb\u00e9ry (73000)", "id": "admin:fr:73065", "zip_code": "73000"}], "timezone": "Europe/Paris", "id": "stop_area:OCE:SA:87741009"}, {"codes": [{"type": "CR-CI-CH", "value": "0085-010207-BV"}, {"type": "UIC8", "value": "85010207"}, {"type": "external_code", "value": "OCE85010207"}], "name": "Chamb\u00e9sy", "links": [], "coord": {"lat": "46.242376", "lon": "6.147338"}, "label": "Chamb\u00e9sy (Pregny-Chamb\u00e9sy)", "administrative_regions": [{"insee": "", "name": "Pregny-Chamb\u00e9sy", "level": 8, "coord": {"lat": "46.2374593834179", "lon": "6.1508379673563"}, "label": "Pregny-Chamb\u00e9sy", "id": "admin:osm:relation:1685524", "zip_code": ""}], "timezone": "Europe/Paris", "id": "stop_area:OCE:SA:85010207"}, {"codes": [{"type": "CR-CI-CH", "value": "0087-721829-00"}, {"type": "CR-CI-CH", "value": "0087-721829-00"}, {"type": "UIC8", "value": "87721829"}, {"type": "external_code", "value": "OCE87721829"}], "name": "Chamelet", "links": [], "coord": {"lat": "45.981605", "lon": "4.507096"}, "label": "Chamelet (Chamelet)", "administrative_regions": [{"insee": "69039", "name": "Chamelet", "level": 8, "coord": {"lat": "45.9833675", "lon": "4.5101318"}, "label": "Chamelet (69620)", "id": "admin:fr:69039", "zip_code": "69620"}], "timezone": "Europe/Paris", "id": "stop_area:OCE:SA:87721829"}, {"codes": [{"type": "CR-CI-CH", "value": "0087-666099-HR"}, {"type": "CR-CI-CH", "value": "0087-666099-HR"}, {"type": "UIC8", "value": "87666099"}, {"type": "external_code", "value": "OCE87666099"}], "name": "Chamelet-Centre.", "links": [], "coord": {"lat": "45.98267", "lon": "4.508791"}, "label": "Chamelet-Centre. (Chamelet)", "administrative_regions": [{"insee": "69039", "name": "Chamelet", "level": 8, "coord": {"lat": "45.9833675", "lon": "4.5101318"}, "label": "Chamelet (69620)", "id": "admin:fr:69039", "zip_code": "69620"}], "timezone": "Europe/Paris", "id": "stop_area:OCE:SA:87666099"}, {"codes": [{"type": "CR-CI-CH", "value": "0087-462085-00"}, {"type": "CR-CI-CH", "value": "0087-462085-00"}, {"type": "UIC8", "value": "87462085"}, {"type": "external_code", "value": "OCE87462085"}], "name": "Chamonix-Aiguille-Midi", "links": [], "coord": {"lat": "45.919902", "lon": "6.866782"}, "label": "Chamonix-Aiguille-Midi (Chamonix-Mont-Blanc)", "administrative_regions": [{"insee": "74056", "name": "Chamonix-Mont-Blanc", "level": 8, "coord": {"lat": "45.9246705", "lon": "6.8727506"}, "label": "Chamonix-Mont-Blanc (74400)", "id": "admin:fr:74056", "zip_code": "74400"}], "timezone": "Europe/Paris", "id": "stop_area:OCE:SA:87462085"}, {"codes": [{"type": "CR-CI-CH", "value": "0087-746784-00"}, {"type": "CR-CI-CH", "value": "0087-746784-00"}, {"type": "UIC8", "value": "87746784"}, {"type": "external_code", "value": "OCE87746784"}], "name": "Chamonix-Mont-Blanc", "links": [], "coord": {"lat": "45.922709", "lon": "6.874271"}, "label": "Chamonix-Mont-Blanc (Chamonix-Mont-Blanc)", "administrative_regions": [{"insee": "74056", "name": "Chamonix-Mont-Blanc", "level": 8, "coord": {"lat": "45.9246705", "lon": "6.8727506"}, "label": "Chamonix-Mont-Blanc (74400)", "id": "admin:fr:74056", "zip_code": "74400"}], "timezone": "Europe/Paris", "id": "stop_area:OCE:SA:87746784"}, {"codes": [{"type": "CR-CI-CH", "value": "0087-741231-00"}, {"type": "CR-CI-CH", "value": "0087-741231-00"}, {"type": "UIC8", "value": "87741231"}, {"type": "external_code", "value": "OCE87741231"}], "name": "Chamousset", "links": [], "coord": {"lat": "45.557515", "lon": "6.206436"}, "label": "Chamousset (Chamousset)", "administrative_regions": [{"insee": "73068", "name": "Chamousset", "level": 8, "coord": {"lat": "45.5565", "lon": "6.19925"}, "label": "Chamousset (73390)", "id": "admin:fr:73068", "zip_code": "73390"}], "timezone": "Europe/Paris", "id": "stop_area:OCE:SA:87741231"}, {"codes": [{"type": "CR-CI-CH", "value": "0087-117911-00"}, {"type": "CR-CI-CH", "value": "0087-117911-00"}, {"type": "UIC8", "value": "87117911"}, {"type": "external_code", "value": "OCE87117911"}], "name": "Chamoy-Carrefour D1/D23", "links": [], "coord": {"lat": "48.116937", "lon": "3.973048"}, "label": "Chamoy-Carrefour D1/D23 (Chamoy)", "administrative_regions": [{"insee": "10074", "name": "Chamoy", "level": 8, "coord": {"lat": "48.1175361", "lon": "3.9708488"}, "label": "Chamoy (10130)", "id": "admin:fr:10074", "zip_code": "10130"}], "timezone": "Europe/Paris", "id": "stop_area:OCE:SA:87117911"}, {"codes": [{"type": "CR-CI-CH", "value": "0087-171926-BV"}, {"type": "CR-CI-CH", "value": "0087-171926-BV"}, {"type": "UIC8", "value": "87171926"}, {"type": "external_code", "value": "OCE87171926"}], "name": "Champagne-Ardenne", "links": [], "coord": {"lat": "49.21164", "lon": "3.988788"}, "label": "Champagne-Ardenne (Bezannes)", "administrative_regions": [{"insee": "51058", "name": "Bezannes", "level": 8, "coord": {"lat": "49.2195424", "lon": "3.986636"}, "label": "Bezannes (51430)", "id": "admin:fr:51058", "zip_code": "51430"}], "timezone": "Europe/Paris", "id": "stop_area:OCE:SA:87171926"}, {"codes": [{"type": "CR-CI-CH", "value": "0087-276519-00"}, {"type": "CR-CI-CH", "value": "0087-276519-00"}, {"type": "UIC8", "value": "87276519"}, {"type": "external_code", "value": "OCE87276519"}], "name": "Champagne-sur-Oise", "links": [], "coord": {"lat": "49.135851", "lon": "2.241822"}, "label": "Champagne-sur-Oise (Champagne-sur-Oise)", "administrative_regions": [{"insee": "95134", "name": "Champagne-sur-Oise", "level": 8, "coord": {"lat": "49.1339431", "lon": "2.2312397"}, "label": "Champagne-sur-Oise (95660)", "id": "admin:fr:95134", "zip_code": "95660"}], "timezone": "Europe/Paris", "id": "stop_area:OCE:SA:87276519"}, {"codes": [{"type": "CR-CI-CH", "value": "0087-682450-BV"}, {"type": "CR-CI-CH", "value": "0087-682450-BV"}, {"type": "UIC8", "value": "87682450"}, {"type": "external_code", "value": "OCE87682450"}], "name": "Champagne-sur-Seine", "links": [], "coord": {"lat": "48.406582", "lon": "2.799221"}, "label": "Champagne-sur-Seine (Champagne-sur-Seine)", "administrative_regions": [{"insee": "77079", "name": "Champagne-sur-Seine", "level": 8, "coord": {"lat": "48.3947923", "lon": "2.8045446"}, "label": "Champagne-sur-Seine (77430)", "id": "admin:fr:77079", "zip_code": "77430"}], "timezone": "Europe/Paris", "id": "stop_area:OCE:SA:87682450"}, {"codes": [{"type": "CR-CI-CH", "value": "0087-185348-00"}, {"type": "CR-CI-CH", "value": "0087-185348-00"}, {"type": "UIC8", "value": "87185348"}, {"type": "external_code", "value": "OCE87185348"}], "name": "Champagney", "links": [], "coord": {"lat": "47.702952", "lon": "6.701246"}, "label": "Champagney (Champagney)", "administrative_regions": [{"insee": "70120", "name": "Champagney", "level": 8, "coord": {"lat": "47.7052722", "lon": "6.6847692"}, "label": "Champagney (70290)", "id": "admin:fr:70120", "zip_code": "70290"}], "timezone": "Europe/Paris", "id": "stop_area:OCE:SA:87185348"}, {"codes": [{"type": "CR-CI-CH", "value": "0087-715326-BV"}, {"type": "CR-CI-CH", "value": "0087-715326-BV"}, {"type": "UIC8", "value": "87715326"}, {"type": "external_code", "value": "OCE87715326"}], "name": "Champagnole", "links": [], "coord": {"lat": "46.749247", "lon": "5.909936"}, "label": "Champagnole (Champagnole)", "administrative_regions": [{"insee": "39097", "name": "Champagnole", "level": 8, "coord": {"lat": "46.7456049", "lon": "5.9083581"}, "label": "Champagnole (39300)", "id": "admin:fr:39097", "zip_code": "39300"}], "timezone": "Europe/Paris", "id": "stop_area:OCE:SA:87715326"}, {"codes": [{"type": "CR-CI-CH", "value": "0087-352047-00"}, {"type": "CR-CI-CH", "value": "0087-352047-00"}, {"type": "UIC8", "value": "87352047"}, {"type": "external_code", "value": "OCE87352047"}], "name": "Champagnole-PE-Victor", "links": [], "coord": {"lat": "46.74221", "lon": "5.919807"}, "label": "Champagnole-PE-Victor (Champagnole)", "administrative_regions": [{"insee": "39097", "name": "Champagnole", "level": 8, "coord": {"lat": "46.7456049", "lon": "5.9083581"}, "label": "Champagnole (39300)", "id": "admin:fr:39097", "zip_code": "39300"}], "timezone": "Europe/Paris", "id": "stop_area:OCE:SA:87352047"}, {"codes": [{"type": "CR-CI-CH", "value": "0087-396275-00"}, {"type": "CR-CI-CH", "value": "0087-396275-00"}, {"type": "UIC8", "value": "87396275"}, {"type": "external_code", "value": "OCE87396275"}], "name": "Champagn\u00e9", "links": [], "coord": {"lat": "48.019751", "lon": "0.335704"}, "label": "Champagn\u00e9 (Champagn\u00e9)", "administrative_regions": [{"insee": "72054", "name": "Champagn\u00e9", "level": 8, "coord": {"lat": "48.0168", "lon": "0.33179"}, "label": "Champagn\u00e9 (72470)", "id": "admin:fr:72054", "zip_code": "72470"}], "timezone": "Europe/Paris", "id": "stop_area:OCE:SA:87396275"}, {"codes": [{"type": "CR-CI-CH", "value": "0087-115873-00"}, {"type": "CR-CI-CH", "value": "0087-115873-00"}, {"type": "UIC8", "value": "87115873"}, {"type": "external_code", "value": "OCE87115873"}], "name": "Champbenoist-Poigny", "links": [], "coord": {"lat": "48.545357", "lon": "3.287056"}, "label": "Champbenoist-Poigny (Poigny)", "administrative_regions": [{"insee": "77368", "name": "Poigny", "level": 8, "coord": {"lat": "48.5393825", "lon": "3.2825237"}, "label": "Poigny (77160)", "id": "admin:fr:77368", "zip_code": "77160"}], "timezone": "Europe/Paris", "id": "stop_area:OCE:SA:87115873"}, {"codes": [{"type": "CR-CI-CH", "value": "0087-141085-BV"}, {"type": "CR-CI-CH", "value": "0087-141085-BV"}, {"type": "UIC8", "value": "87141085"}, {"type": "external_code", "value": "OCE87141085"}], "name": "Champigneulles", "links": [], "coord": {"lat": "48.735091", "lon": "6.169047"}, "label": "Champigneulles (Champigneulles)", "administrative_regions": [{"insee": "54115", "name": "Champigneulles", "level": 8, "coord": {"lat": "48.7342216", "lon": "6.1651167"}, "label": "Champigneulles (54250)", "id": "admin:fr:54115", "zip_code": "54250"}], "timezone": "Europe/Paris", "id": "stop_area:OCE:SA:87141085"}, {"codes": [{"type": "CR-CI-CH", "value": "0087-758177-00"}, {"type": "CR-CI-CH", "value": "0087-758177-00"}, {"type": "UIC8", "value": "87758177"}, {"type": "external_code", "value": "OCE87758177"}], "name": "Champigny", "links": [], "coord": {"lat": "48.806946", "lon": "2.510105"}, "label": "Champigny (Saint-Maur-des-Foss\u00e9s)", "administrative_regions": [{"insee": "94068", "name": "Saint-Maur-des-Foss\u00e9s", "level": 8, "coord": {"lat": "48.8033057", "lon": "2.4853015"}, "label": "Saint-Maur-des-Foss\u00e9s (94100-94210)", "id": "admin:fr:94068", "zip_code": "94100;94210"}], "timezone": "Europe/Paris", "id": "stop_area:OCE:SA:87758177"}, {"codes": [{"type": "CR-CI-CH", "value": "0087-683128-00"}, {"type": "CR-CI-CH", "value": "0087-683128-00"}, {"type": "UIC8", "value": "87683128"}, {"type": "external_code", "value": "OCE87683128"}], "name": "Champigny-sur-Yonne", "links": [], "coord": {"lat": "48.32414", "lon": "3.130856"}, "label": "Champigny-sur-Yonne (Champigny)", "administrative_regions": [{"insee": "89074", "name": "Champigny", "level": 8, "coord": {"lat": "48.3194475", "lon": "3.1264718"}, "label": "Champigny (89340)", "id": "admin:fr:89074", "zip_code": "89340"}], "timezone": "Europe/Paris", "id": "stop_area:OCE:SA:87683128"}, {"codes": [{"type": "CR-CI-CH", "value": "0087-683615-BV"}, {"type": "CR-CI-CH", "value": "0087-683615-BV"}, {"type": "UIC8", "value": "87683615"}, {"type": "external_code", "value": "OCE87683615"}], "name": "Champs-St-Bris", "links": [], "coord": {"lat": "47.738246", "lon": "3.603611"}, "label": "Champs-St-Bris (Champs-sur-Yonne)", "administrative_regions": [{"insee": "89077", "name": "Champs-sur-Yonne", "level": 8, "coord": {"lat": "47.739362", "lon": "3.6014046"}, "label": "Champs-sur-Yonne (89290)", "id": "admin:fr:89077", "zip_code": "89290"}], "timezone": "Europe/Paris", "id": "stop_area:OCE:SA:87683615"}, {"codes": [{"type": "CR-CI-CH", "value": "0087-484352-00"}, {"type": "CR-CI-CH", "value": "0087-484352-00"}, {"type": "UIC8", "value": "87484352"}, {"type": "external_code", "value": "OCE87484352"}], "name": "Champtoc\u00e9-sur-Loire", "links": [], "coord": {"lat": "47.410322", "lon": "-0.868067"}, "label": "Champtoc\u00e9-sur-Loire (Champtoc\u00e9-sur-Loire)", "administrative_regions": [{"insee": "49068", "name": "Champtoc\u00e9-sur-Loire", "level": 8, "coord": {"lat": "47.4115866", "lon": "-0.8649391"}, "label": "Champtoc\u00e9-sur-Loire (49123)", "id": "admin:fr:49068", "zip_code": "49123"}], "timezone": "Europe/Paris", "id": "stop_area:OCE:SA:87484352"}, {"codes": [{"type": "CR-CI-CH", "value": "0087-783530-00"}, {"type": "CR-CI-CH", "value": "0087-783530-00"}, {"type": "UIC8", "value": "87783530"}, {"type": "external_code", "value": "OCE87783530"}], "name": "Chanac", "links": [], "coord": {"lat": "44.473375", "lon": "3.344954"}, "label": "Chanac (Chanac)", "administrative_regions": [{"insee": "48039", "name": "Chanac", "level": 8, "coord": {"lat": "44.466", "lon": "3.34232"}, "label": "Chanac (48230)", "id": "admin:fr:48039", "zip_code": "48230"}], "timezone": "Europe/Paris", "id": "stop_area:OCE:SA:87783530"}, {"codes": [{"type": "CR-CI-CH", "value": "0087-116509-BV"}, {"type": "CR-CI-CH", "value": "0087-116509-BV"}, {"type": "UIC8", "value": "87116509"}, {"type": "external_code", "value": "OCE87116509"}], "name": "Changis-St-Jean", "links": [], "coord": {"lat": "48.959334", "lon": "3.025611"}, "label": "Changis-St-Jean (Changis-sur-Marne)", "administrative_regions": [{"insee": "77084", "name": "Changis-sur-Marne", "level": 8, "coord": {"lat": "48.9586795", "lon": "3.0139203"}, "label": "Changis-sur-Marne (77660)", "id": "admin:fr:77084", "zip_code": "77660"}], "timezone": "Europe/Paris", "id": "stop_area:OCE:SA:87116509"}]}