{"pagination": {"start_page": 1, "items_on_page": 25, "items_per_page": 25, "total_result": 4343}, "links": [{"href": "https://api.sncf.com/v1/coverage/sncf/stop_areas/{stop_areas.id}", "type": "stop_areas", "rel": "stop_areas", "templated": true}, {"href": "https://api.sncf.com/v1/coverage/sncf/stop_areas/{stop_areas.id}/route_schedules", "type": "route_schedules", "rel": "route_schedules", "templated": true}, {"href": "https://api.sncf.com/v1/coverage/sncf/stop_areas/{stop_areas.id}/stop_schedules", "type": "stop_schedules", "rel": "stop_schedules", "templated": true}, {"href": "https://api.sncf.com/v1/coverage/sncf/stop_areas/{stop_areas.id}/arrivals", "type": "arrivals", "rel": "arrivals", "templated": true}, {"href": "https://api.sncf.com/v1/coverage/sncf/stop_areas/{stop_areas.id}/departures", "type": "departures", "rel": "departures", "templated": true}, {"href": "https://api.sncf.com/v1/coverage/sncf/stop_areas/{stop_areas.id}/places_nearby", "type": "places_nearby", "rel": "places_nearby", "templated": true}, {"href": "https://api.sncf.com/v1/coverage/sncf/stop_areas/{stop_areas.id}/journeys", "type": "journey", "rel": "journeys", "templated": true}, {"href": "https://api.sncf.com/v1/coverage/sncf/stop_areas/{stop_areas.id}/traffic_reports", "type": "disruption", "rel": "disruptions", "templated": true}, {"href": "https://api.sncf.com/v1/coverage/sncf/stop_areas?start_page=0", "type": "previous", "templated": false}, {"href": "https://api.sncf.com/v1/coverage/sncf/stop_areas?start_page=2", "type": "next", "templated": false}, {"href": "https://api.sncf.com/v1/coverage/sncf/stop_areas?start_page=173", "type": "last", "templated": false}, {"href": "https://api.sncf.com/v1/coverage/sncf/stop_areas", "type": "first", "templated": false}], "disruptions": [], "feed_publishers": [], "context": {"timezone": "Europe/Paris", "current_datetime": "20200210T135428"}, "stop_areas": [{"codes": [{"type": "CR-CI-CH", "value": "0087-741710-00"}, {"type": "CR-CI-CH", "value": "0087-741710-HR"}, {"type": "UIC8", "value": "87741710"}, {"type": "external_code", "value": "OCE87741710"}], "name": "Aigueblanche-Centre", "links": [], "coord": {"lat": "45.500203", "lon": "6.511056"}, "label": "Aigueblanche-Centre (Grand-Aigueblanche)", "administrative_regions": [{"insee": "73003", "name": "Grand-Aigueblanche", "level": 8, "coord": {"lat": "45.5016887", "lon": "6.5083788"}, "label": "Grand-Aigueblanche", "id": "admin:fr:73003", "zip_code": ""}], "timezone": "Europe/Paris", "id": "stop_area:OCE:SA:87741710"}, {"codes": [{"type": "CR-CI-CH", "value": "0087-734129-00"}, {"type": "CR-CI-CH", "value": "0087-734129-00"}, {"type": "UIC8", "value": "87734129"}, {"type": "external_code", "value": "OCE87734129"}], "name": "Aigueperse", "links": [], "coord": {"lat": "46.014847", "lon": "3.197876"}, "label": "Aigueperse (Aigueperse)", "administrative_regions": [{"insee": "63001", "name": "Aigueperse", "level": 8, "coord": {"lat": "46.0212838", "lon": "3.2035315"}, "label": "Aigueperse (63260)", "id": "admin:fr:63001", "zip_code": "63260"}], "timezone": "Europe/Paris", "id": "stop_area:OCE:SA:87734129"}, {"codes": [{"type": "CR-CI-CH", "value": "0087-775858-BV"}, {"type": "CR-CI-CH", "value": "0087-775858-BV"}, {"type": "UIC8", "value": "87775858"}, {"type": "external_code", "value": "OCE87775858"}], "name": "Aigues-Mortes", "links": [], "coord": {"lat": "43.571117", "lon": "4.191107"}, "label": "Aigues-Mortes (Aigues-Mortes)", "administrative_regions": [{"insee": "30003", "name": "Aigues-Mortes", "level": 8, "coord": {"lat": "43.5658225", "lon": "4.1912837"}, "label": "Aigues-Mortes (30220)", "id": "admin:fr:30003", "zip_code": "30220"}], "timezone": "Europe/Paris", "id": "stop_area:OCE:SA:87775858"}, {"codes": [{"type": "CR-CI-CH", "value": "0087-586693-00"}, {"type": "CR-CI-CH", "value": "0087-586693-00"}, {"type": "UIC8", "value": "87586693"}, {"type": "external_code", "value": "OCE87586693"}], "name": "Aiguillon (Lot et Gar)", "links": [], "coord": {"lat": "44.298723", "lon": "0.335174"}, "label": "Aiguillon (Lot et Gar) (Aiguillon)", "administrative_regions": [{"insee": "47004", "name": "Aiguillon", "level": 8, "coord": {"lat": "44.3002778", "lon": "0.3416667"}, "label": "Aiguillon (47190)", "id": "admin:fr:47004", "zip_code": "47190"}], "timezone": "Europe/Paris", "id": "stop_area:OCE:SA:87586693"}, {"codes": [{"type": "CR-CI-CH", "value": "0087-215624-00"}, {"type": "CR-CI-CH", "value": "0087-215624-00"}, {"type": "UIC8", "value": "87215624"}, {"type": "external_code", "value": "OCE87215624"}], "name": "Ailleville", "links": [], "coord": {"lat": "48.254722", "lon": "4.682218"}, "label": "Ailleville (Ailleville)", "administrative_regions": [{"insee": "10002", "name": "Ailleville", "level": 8, "coord": {"lat": "48.2523652", "lon": "4.6814905"}, "label": "Ailleville (10200)", "id": "admin:fr:10002", "zip_code": "10200"}], "timezone": "Europe/Paris", "id": "stop_area:OCE:SA:87215624"}, {"codes": [{"type": "CR-CI-CH", "value": "0087-185629-BV"}, {"type": "CR-CI-CH", "value": "0087-185629-BV"}, {"type": "UIC8", "value": "87185629"}, {"type": "external_code", "value": "OCE87185629"}], "name": "Aillevillers", "links": [], "coord": {"lat": "47.913865", "lon": "6.337389"}, "label": "Aillevillers (Corbenay)", "administrative_regions": [{"insee": "70171", "name": "Corbenay", "level": 8, "coord": {"lat": "47.8906", "lon": "6.32606"}, "label": "Corbenay (70320)", "id": "admin:fr:70171", "zip_code": "70320"}], "timezone": "Europe/Paris", "id": "stop_area:OCE:SA:87185629"}, {"codes": [{"type": "CR-CI-CH", "value": "0087-313221-BV"}, {"type": "CR-CI-CH", "value": "0087-313221-BV"}, {"type": "UIC8", "value": "87313221"}, {"type": "external_code", "value": "OCE87313221"}], "name": "Ailly-sur-Noye", "links": [], "coord": {"lat": "49.754401", "lon": "2.364171"}, "label": "Ailly-sur-Noye (Ailly-sur-Noye)", "administrative_regions": [{"insee": "80010", "name": "Ailly-sur-Noye", "level": 8, "coord": {"lat": "49.7580993", "lon": "2.3645669"}, "label": "Ailly-sur-Noye (80250)", "id": "admin:fr:80010", "zip_code": "80250"}], "timezone": "Europe/Paris", "id": "stop_area:OCE:SA:87313221"}, {"codes": [{"type": "CR-CI-CH", "value": "0087-313098-00"}, {"type": "CR-CI-CH", "value": "0087-313098-00"}, {"type": "UIC8", "value": "87313098"}, {"type": "external_code", "value": "OCE87313098"}], "name": "Ailly-sur-Somme", "links": [], "coord": {"lat": "49.928347", "lon": "2.200556"}, "label": "Ailly-sur-Somme (Ailly-sur-Somme)", "administrative_regions": [{"insee": "80011", "name": "Ailly-sur-Somme", "level": 8, "coord": {"lat": "49.928085", "lon": "2.1980997"}, "label": "Ailly-sur-Somme (80470)", "id": "admin:fr:80011", "zip_code": "80470"}], "timezone": "Europe/Paris", "id": "stop_area:OCE:SA:87313098"}, {"codes": [{"type": "CR-CI-CH", "value": "0087-775833-00"}, {"type": "CR-CI-CH", "value": "0087-775833-00"}, {"type": "UIC8", "value": "87775833"}, {"type": "external_code", "value": "OCE87775833"}], "name": "Aimargues", "links": [], "coord": {"lat": "43.678565", "lon": "4.208202"}, "label": "Aimargues (Aimargues)", "administrative_regions": [{"insee": "30006", "name": "Aimargues", "level": 8, "coord": {"lat": "43.683958", "lon": "4.2095204"}, "label": "Aimargues (30470)", "id": "admin:fr:30006", "zip_code": "30470"}], "timezone": "Europe/Paris", "id": "stop_area:OCE:SA:87775833"}, {"codes": [{"type": "CR-CI-CH", "value": "0087-741769-00"}, {"type": "CR-CI-CH", "value": "0087-741769-00"}, {"type": "UIC8", "value": "87741769"}, {"type": "external_code", "value": "OCE87741769"}], "name": "Aime-la-Plagne", "links": [], "coord": {"lat": "45.554368", "lon": "6.648884"}, "label": "Aime-la-Plagne (Aime-la-Plagne)", "administrative_regions": [{"insee": "73006", "name": "Aime-la-Plagne", "level": 8, "coord": {"lat": "45.5571945", "lon": "6.6521809"}, "label": "Aime-la-Plagne (73210)", "id": "admin:fr:73006", "zip_code": "73210"}], "timezone": "Europe/Paris", "id": "stop_area:OCE:SA:87741769"}, {"codes": [{"type": "CR-CI-CH", "value": "0087-713636-00"}, {"type": "CR-CI-CH", "value": "0087-713636-00"}, {"type": "UIC8", "value": "87713636"}, {"type": "external_code", "value": "OCE87713636"}], "name": "Aiserey", "links": [], "coord": {"lat": "47.170648", "lon": "5.158391"}, "label": "Aiserey (Aiserey)", "administrative_regions": [{"insee": "21005", "name": "Aiserey", "level": 8, "coord": {"lat": "47.1726521", "lon": "5.1622858"}, "label": "Aiserey (21110)", "id": "admin:fr:21005", "zip_code": "21110"}], "timezone": "Europe/Paris", "id": "stop_area:OCE:SA:87713636"}, {"codes": [{"type": "CR-CI-CH", "value": "0087-741249-00"}, {"type": "CR-CI-CH", "value": "0087-741249-00"}, {"type": "UIC8", "value": "87741249"}, {"type": "external_code", "value": "OCE87741249"}], "name": "Aiton-Salle-Polyvalente", "links": [], "coord": {"lat": "45.559471", "lon": "6.259363"}, "label": "Aiton-Salle-Polyvalente (Aiton)", "administrative_regions": [{"insee": "73007", "name": "Aiton", "level": 8, "coord": {"lat": "45.5606", "lon": "6.25655"}, "label": "Aiton (73220)", "id": "admin:fr:73007", "zip_code": "73220"}], "timezone": "Europe/Paris", "id": "stop_area:OCE:SA:87741249"}, {"codes": [{"type": "CR-CI-CH", "value": "0087-541797-HR"}, {"type": "CR-CI-CH", "value": "0087-541797-HR"}, {"type": "UIC8", "value": "87541797"}, {"type": "external_code", "value": "OCE87541797"}], "name": "Aix-Gare-Routi\u00e8re", "links": [], "coord": {"lat": "43.523328", "lon": "5.439959"}, "label": "Aix-Gare-Routi\u00e8re (Aix-en-Provence)", "administrative_regions": [{"insee": "13001", "name": "Aix-en-Provence", "level": 8, "coord": {"lat": "43.5298424", "lon": "5.4474738"}, "label": "Aix-en-Provence (13080-13540)", "id": "admin:fr:13001", "zip_code": "13080;13540"}], "timezone": "Europe/Paris", "id": "stop_area:OCE:SA:87541797"}, {"codes": [{"type": "CR-CI-CH", "value": "0087-751404-BV"}, {"type": "CR-CI-CH", "value": "0087-751404-BV"}, {"type": "UIC8", "value": "87751404"}, {"type": "external_code", "value": "OCE87751404"}], "name": "Aix-en-Provence", "links": [], "coord": {"lat": "43.522868", "lon": "5.445323"}, "label": "Aix-en-Provence (Aix-en-Provence)", "administrative_regions": [{"insee": "13001", "name": "Aix-en-Provence", "level": 8, "coord": {"lat": "43.5298424", "lon": "5.4474738"}, "label": "Aix-en-Provence (13080-13540)", "id": "admin:fr:13001", "zip_code": "13080;13540"}], "timezone": "Europe/Paris", "id": "stop_area:OCE:SA:87751404"}, {"codes": [{"type": "CR-CI-CH", "value": "0087-319012-00"}, {"type": "CR-CI-CH", "value": "0087-319012-00"}, {"type": "UIC8", "value": "87319012"}, {"type": "external_code", "value": "OCE87319012"}], "name": "Aix-en-Provence-TGV", "links": [], "coord": {"lat": "43.455151", "lon": "5.317264"}, "label": "Aix-en-Provence-TGV (Aix-en-Provence)", "administrative_regions": [{"insee": "13001", "name": "Aix-en-Provence", "level": 8, "coord": {"lat": "43.5298424", "lon": "5.4474738"}, "label": "Aix-en-Provence (13080-13540)", "id": "admin:fr:13001", "zip_code": "13080;13540"}], "timezone": "Europe/Paris", "id": "stop_area:OCE:SA:87319012"}, {"codes": [{"type": "CR-CI-CH", "value": "0087-741132-BV"}, {"type": "CR-CI-CH", "value": "0087-741132-BV"}, {"type": "UIC8", "value": "87741132"}, {"type": "external_code", "value": "OCE87741132"}], "name": "Aix-les-Bains-le-Revard", "links": [], "coord": {"lat": "45.687862", "lon": "5.90935"}, "label": "Aix-les-Bains-le-Revard (Aix-les-Bains)", "administrative_regions": [{"insee": "73008", "name": "Aix-les-Bains", "level": 8, "coord": {"lat": "45.6886292", "lon": "5.9146362"}, "label": "Aix-les-Bains (73100)", "id": "admin:fr:73008", "zip_code": "73100"}], "timezone": "Europe/Paris", "id": "stop_area:OCE:SA:87741132"}, {"codes": [{"type": "CR-CI-CH", "value": "0087-592667-BV"}, {"type": "CR-CI-CH", "value": "0087-592667-BV"}, {"type": "UIC8", "value": "87592667"}, {"type": "external_code", "value": "OCE87592667"}], "name": "Aixe-sur-Vienne", "links": [], "coord": {"lat": "45.796582", "lon": "1.14574"}, "label": "Aixe-sur-Vienne (Aixe-sur-Vienne)", "administrative_regions": [{"insee": "87001", "name": "Aixe-sur-Vienne", "level": 8, "coord": {"lat": "45.7967581", "lon": "1.1362125"}, "label": "Aixe-sur-Vienne (87700)", "id": "admin:fr:87001", "zip_code": "87700"}], "timezone": "Europe/Paris", "id": "stop_area:OCE:SA:87592667"}, {"codes": [{"type": "CR-CI-CH", "value": "0087-417808-00"}, {"type": "CR-CI-CH", "value": "0087-417808-00"}, {"type": "UIC8", "value": "87417808"}, {"type": "external_code", "value": "OCE87417808"}], "name": "Ajain", "links": [], "coord": {"lat": "46.207141", "lon": "1.997206"}, "label": "Ajain (Ajain)", "administrative_regions": [{"insee": "23002", "name": "Ajain", "level": 8, "coord": {"lat": "46.2074244", "lon": "1.998966"}, "label": "Ajain (23380)", "id": "admin:fr:23002", "zip_code": "23380"}], "timezone": "Europe/Paris", "id": "stop_area:OCE:SA:87417808"}, {"codes": [{"type": "CR-CI-CH", "value": "0087-722744-00"}, {"type": "CR-CI-CH", "value": "0087-722744-00"}, {"type": "UIC8", "value": "87722744"}, {"type": "external_code", "value": "OCE87722744"}], "name": "Alai", "links": [], "coord": {"lat": "45.751954", "lon": "4.771761"}, "label": "Alai (Tassin-la-Demi-Lune)", "administrative_regions": [{"insee": "69244", "name": "Tassin-la-Demi-Lune", "level": 8, "coord": {"lat": "45.7598386", "lon": "4.7657747"}, "label": "Tassin-la-Demi-Lune (69160)", "id": "admin:fr:69244", "zip_code": "69160"}], "timezone": "Europe/Paris", "id": "stop_area:OCE:SA:87722744"}, {"codes": [{"type": "CR-CI-CH", "value": "0087-420836-00"}, {"type": "CR-CI-CH", "value": "0087-420836-00"}, {"type": "UIC8", "value": "87420836"}, {"type": "external_code", "value": "OCE87420836"}], "name": "Alba-Ruines-Romaines", "links": [], "coord": {"lat": "44.570303", "lon": "4.587538"}, "label": "Alba-Ruines-Romaines (Alba-la-Romaine)", "administrative_regions": [{"insee": "7005", "name": "Alba-la-Romaine", "level": 8, "coord": {"lat": "44.5544374", "lon": "4.5978069"}, "label": "Alba-la-Romaine (07400)", "id": "admin:fr:7005", "zip_code": "07400"}], "timezone": "Europe/Paris", "id": "stop_area:OCE:SA:87420836"}, {"codes": [{"type": "CR-CI-CH", "value": "0087-746115-00"}, {"type": "CR-CI-CH", "value": "0087-746115-00"}, {"type": "UIC8", "value": "87746115"}, {"type": "external_code", "value": "OCE87746115"}], "name": "Albens", "links": [], "coord": {"lat": "45.786133", "lon": "5.948551"}, "label": "Albens (Entrelacs)", "administrative_regions": [{"insee": "73010", "name": "Entrelacs", "level": 8, "coord": {"lat": "45.7870674", "lon": "5.9453946"}, "label": "Entrelacs", "id": "admin:fr:73010", "zip_code": ""}], "timezone": "Europe/Paris", "id": "stop_area:OCE:SA:87746115"}, {"codes": [{"type": "CR-CI-CH", "value": "0087-313072-00"}, {"type": "CR-CI-CH", "value": "0087-313072-00"}, {"type": "UIC8", "value": "87313072"}, {"type": "external_code", "value": "OCE87313072"}], "name": "Albert", "links": [], "coord": {"lat": "50.005397", "lon": "2.644524"}, "label": "Albert (Albert)", "administrative_regions": [{"insee": "80016", "name": "Albert", "level": 8, "coord": {"lat": "50.0018022", "lon": "2.6509223"}, "label": "Albert (80300)", "id": "admin:fr:80016", "zip_code": "80300"}], "timezone": "Europe/Paris", "id": "stop_area:OCE:SA:87313072"}, {"codes": [{"type": "CR-CI-CH", "value": "0087-741645-BV"}, {"type": "CR-CI-CH", "value": "0087-741645-BV"}, {"type": "UIC8", "value": "87741645"}, {"type": "external_code", "value": "OCE87741645"}], "name": "Albertville", "links": [], "coord": {"lat": "45.673184", "lon": "6.383238"}, "label": "Albertville (Albertville)", "administrative_regions": [{"insee": "73011", "name": "Albertville", "level": 8, "coord": {"lat": "45.6754622", "lon": "6.3925417"}, "label": "Albertville (73200)", "id": "admin:fr:73011", "zip_code": "73200"}], "timezone": "Europe/Paris", "id": "stop_area:OCE:SA:87741645"}, {"codes": [{"type": "CR-CI-CH", "value": "0087-615195-00"}, {"type": "CR-CI-CH", "value": "0087-615195-00"}, {"type": "UIC8", "value": "87615195"}, {"type": "external_code", "value": "OCE87615195"}], "name": "Albi-Madeleine.", "links": [], "coord": {"lat": "43.937899", "lon": "2.141168"}, "label": "Albi-Madeleine. (Albi)", "administrative_regions": [{"insee": "81004", "name": "Albi", "level": 8, "coord": {"lat": "43.9277552", "lon": "2.147899"}, "label": "Albi (81000)", "id": "admin:fr:81004", "zip_code": "81000"}], "timezone": "Europe/Paris", "id": "stop_area:OCE:SA:87615195"}, {"codes": [{"type": "CR-CI-CH", "value": "0087-615005-BV"}, {"type": "CR-CI-CH", "value": "0087-615005-BV"}, {"type": "UIC8", "value": "87615005"}, {"type": "external_code", "value": "OCE87615005"}], "name": "Albi-Ville", "links": [], "coord": {"lat": "43.922036", "lon": "2.138635"}, "label": "Albi-Ville (Albi)", "administrative_regions": [{"insee": "81004", "name": "Albi", "level": 8, "coord": {"lat": "43.9277552", "lon": "2.147899"}, "label": "Albi (81000)", "id": "admin:fr:81004", "zip_code": "81000"}], "timezone": "Europe/Paris", "id": "stop_area:OCE:SA:87615005"}]}