{"pagination": {"start_page": 133, "items_on_page": 25, "items_per_page": 25, "total_result": 4343}, "links": [{"href": "https://api.sncf.com/v1/coverage/sncf/stop_areas/{stop_areas.id}", "type": "stop_areas", "rel": "stop_areas", "templated": true}, {"href": "https://api.sncf.com/v1/coverage/sncf/stop_areas/{stop_areas.id}/route_schedules", "type": "route_schedules", "rel": "route_schedules", "templated": true}, {"href": "https://api.sncf.com/v1/coverage/sncf/stop_areas/{stop_areas.id}/stop_schedules", "type": "stop_schedules", "rel": "stop_schedules", "templated": true}, {"href": "https://api.sncf.com/v1/coverage/sncf/stop_areas/{stop_areas.id}/arrivals", "type": "arrivals", "rel": "arrivals", "templated": true}, {"href": "https://api.sncf.com/v1/coverage/sncf/stop_areas/{stop_areas.id}/departures", "type": "departures", "rel": "departures", "templated": true}, {"href": "https://api.sncf.com/v1/coverage/sncf/stop_areas/{stop_areas.id}/places_nearby", "type": "places_nearby", "rel": "places_nearby", "templated": true}, {"href": "https://api.sncf.com/v1/coverage/sncf/stop_areas/{stop_areas.id}/journeys", "type": "journey", "rel": "journeys", "templated": true}, {"href": "https://api.sncf.com/v1/coverage/sncf/stop_areas/{stop_areas.id}/traffic_reports", "type": "disruption", "rel": "disruptions", "templated": true}, {"href": "https://api.sncf.com/v1/coverage/sncf/stop_areas?start_page=132", "type": "previous", "templated": false}, {"href": "https://api.sncf.com/v1/coverage/sncf/stop_areas?start_page=134", "type": "next", "templated": false}, {"href": "https://api.sncf.com/v1/coverage/sncf/stop_areas?start_page=173", "type": "last", "templated": false}, {"href": "https://api.sncf.com/v1/coverage/sncf/stop_areas", "type": "first", "templated": false}], "disruptions": [], "feed_publishers": [], "context": {"timezone": "Europe/Paris", "current_datetime": "20200210T135447"}, "stop_areas": [{"codes": [{"type": "CR-CI-CH", "value": "0085-010025-BV"}, {"type": "UIC8", "value": "85010025"}, {"type": "external_code", "value": "OCE85010025"}], "name": "Russin", "links": [], "coord": {"lat": "46.187773", "lon": "6.017559"}, "label": "Russin (Russin)", "administrative_regions": [{"insee": "", "name": "Russin", "level": 8, "coord": {"lat": "46.1938708735945", "lon": "6.01397466199791"}, "label": "Russin (1281)", "id": "admin:osm:relation:1685528", "zip_code": "1281"}], "timezone": "Europe/Paris", "id": "stop_area:OCE:SA:85010025"}, {"codes": [{"type": "CR-CI-CH", "value": "0087-747279-00"}, {"type": "CR-CI-CH", "value": "0087-747279-00"}, {"type": "UIC8", "value": "87747279"}, {"type": "external_code", "value": "OCE87747279"}], "name": "R\u00e9aumont-St-Cassien", "links": [], "coord": {"lat": "45.368795", "lon": "5.534865"}, "label": "R\u00e9aumont-St-Cassien (Saint-Cassien)", "administrative_regions": [{"insee": "38373", "name": "Saint-Cassien", "level": 8, "coord": {"lat": "45.360072", "lon": "5.5516356"}, "label": "Saint-Cassien (38500)", "id": "admin:fr:38373", "zip_code": "38500"}], "timezone": "Europe/Paris", "id": "stop_area:OCE:SA:87747279"}, {"codes": [{"type": "CR-CI-CH", "value": "0087-407098-00"}, {"type": "CR-CI-CH", "value": "0087-407098-00"}, {"type": "UIC8", "value": "87407098"}, {"type": "external_code", "value": "OCE87407098"}], "name": "R\u00e9chicourt-le-Chateau c", "links": [], "coord": {"lat": "48.665015", "lon": "6.84084"}, "label": "R\u00e9chicourt-le-Chateau c (R\u00e9chicourt-le-Ch\u00e2teau)", "administrative_regions": [{"insee": "57564", "name": "R\u00e9chicourt-le-Ch\u00e2teau", "level": 8, "coord": {"lat": "48.6657099", "lon": "6.8427288"}, "label": "R\u00e9chicourt-le-Ch\u00e2teau (57810)", "id": "admin:fr:57564", "zip_code": "57810"}], "timezone": "Europe/Paris", "id": "stop_area:OCE:SA:87407098"}, {"codes": [{"type": "CR-CI-CH", "value": "0087-215129-00"}, {"type": "CR-CI-CH", "value": "0087-215129-00"}, {"type": "UIC8", "value": "87215129"}, {"type": "external_code", "value": "OCE87215129"}], "name": "R\u00e9chicourt-le-Ch\u00e2teau", "links": [], "coord": {"lat": "48.665157", "lon": "6.840662"}, "label": "R\u00e9chicourt-le-Ch\u00e2teau (R\u00e9chicourt-le-Ch\u00e2teau)", "administrative_regions": [{"insee": "57564", "name": "R\u00e9chicourt-le-Ch\u00e2teau", "level": 8, "coord": {"lat": "48.6657099", "lon": "6.8427288"}, "label": "R\u00e9chicourt-le-Ch\u00e2teau (57810)", "id": "admin:fr:57564", "zip_code": "57810"}], "timezone": "Europe/Paris", "id": "stop_area:OCE:SA:87215129"}, {"codes": [{"type": "CR-CI-CH", "value": "0087-721050-00"}, {"type": "CR-CI-CH", "value": "0087-721050-00"}, {"type": "UIC8", "value": "87721050"}, {"type": "external_code", "value": "OCE87721050"}], "name": "R\u00e9gny", "links": [], "coord": {"lat": "45.987729", "lon": "4.215111"}, "label": "R\u00e9gny (R\u00e9gny)", "administrative_regions": [{"insee": "42181", "name": "R\u00e9gny", "level": 8, "coord": {"lat": "45.991", "lon": "4.21685"}, "label": "R\u00e9gny (42630)", "id": "admin:fr:42181", "zip_code": "42630"}], "timezone": "Europe/Paris", "id": "stop_area:OCE:SA:87721050"}, {"codes": [{"type": "CR-CI-CH", "value": "0087-192237-BV"}, {"type": "CR-CI-CH", "value": "0087-192237-BV"}, {"type": "UIC8", "value": "87192237"}, {"type": "external_code", "value": "OCE87192237"}], "name": "R\u00e9milly", "links": [], "coord": {"lat": "49.014066", "lon": "6.395031"}, "label": "R\u00e9milly (R\u00e9milly)", "administrative_regions": [{"insee": "57572", "name": "R\u00e9milly", "level": 8, "coord": {"lat": "49.0116713", "lon": "6.3960587"}, "label": "R\u00e9milly (57580)", "id": "admin:fr:57572", "zip_code": "57580"}], "timezone": "Europe/Paris", "id": "stop_area:OCE:SA:87192237"}, {"codes": [{"type": "CR-CI-CH", "value": "0087-685776-HR"}, {"type": "CR-CI-CH", "value": "0087-685776-HR"}, {"type": "UIC8", "value": "87685776"}, {"type": "external_code", "value": "OCE87685776"}], "name": "R\u00e9milly Le Charnay Pont", "links": [], "coord": {"lat": "46.805344", "lon": "3.806636"}, "label": "R\u00e9milly Le Charnay Pont (R\u00e9milly)", "administrative_regions": [{"insee": "58221", "name": "R\u00e9milly", "level": 8, "coord": {"lat": "46.8185284", "lon": "3.8138356"}, "label": "R\u00e9milly (58250)", "id": "admin:fr:58221", "zip_code": "58250"}], "timezone": "Europe/Paris", "id": "stop_area:OCE:SA:87685776"}, {"codes": [{"type": "CR-CI-CH", "value": "0087-714998-HR"}, {"type": "UIC8", "value": "87714998"}, {"type": "external_code", "value": "OCE87714998"}], "name": "R\u00e9moncourt Pl. F\u00eates", "links": [], "coord": {"lat": "48.229384", "lon": "6.051155"}, "label": "R\u00e9moncourt Pl. F\u00eates (Remoncourt)", "administrative_regions": [{"insee": "88385", "name": "Remoncourt", "level": 8, "coord": {"lat": "48.2301", "lon": "6.0524"}, "label": "Remoncourt (88800)", "id": "admin:fr:88385", "zip_code": "88800"}], "timezone": "Europe/Paris", "id": "stop_area:OCE:SA:87714998"}, {"codes": [{"type": "CR-CI-CH", "value": "0087-313403-00"}, {"type": "CR-CI-CH", "value": "0087-313403-00"}, {"type": "UIC8", "value": "87313403"}, {"type": "external_code", "value": "OCE87313403"}], "name": "R\u00e9my (Oise)", "links": [], "coord": {"lat": "49.433318", "lon": "2.705705"}, "label": "R\u00e9my (Oise) (Remy)", "administrative_regions": [{"insee": "60531", "name": "Remy", "level": 8, "coord": {"lat": "49.4398371", "lon": "2.7086906"}, "label": "Remy (60190)", "id": "admin:fr:60531", "zip_code": "60190"}], "timezone": "Europe/Paris", "id": "stop_area:OCE:SA:87313403"}, {"codes": [{"type": "CR-CI-CH", "value": "0087-704254-TT"}, {"type": "UIC8", "value": "87704254"}, {"type": "external_code", "value": "OCE87704254"}], "name": "R\u00e9p-M.Dormoy-T4", "links": [], "coord": {"lat": "48.906533", "lon": "2.523935"}, "label": "R\u00e9p-M.Dormoy-T4 (Livry-Gargan)", "administrative_regions": [{"insee": "93046", "name": "Livry-Gargan", "level": 8, "coord": {"lat": "48.917335", "lon": "2.5298854"}, "label": "Livry-Gargan (93190)", "id": "admin:fr:93046", "zip_code": "93190"}], "timezone": "Europe/Paris", "id": "stop_area:OCE:SA:87704254"}, {"codes": [{"type": "CR-CI-CH", "value": "0087-214783-00"}, {"type": "CR-CI-CH", "value": "0087-214783-00"}, {"type": "UIC8", "value": "87214783"}, {"type": "external_code", "value": "OCE87214783"}], "name": "Saales", "links": [], "coord": {"lat": "48.347087", "lon": "7.110546"}, "label": "Saales (Saales)", "administrative_regions": [{"insee": "67421", "name": "Saales", "level": 8, "coord": {"lat": "48.3489201", "lon": "7.1068599"}, "label": "Saales (67420)", "id": "admin:fr:67421", "zip_code": "67420"}], "timezone": "Europe/Paris", "id": "stop_area:OCE:SA:87214783"}, {"codes": [{"type": "CR-CI-CH", "value": "0087-660894-HR"}, {"type": "CR-CI-CH", "value": "0087-660894-HR"}, {"type": "UIC8", "value": "87660894"}, {"type": "external_code", "value": "OCE87660894"}], "name": "Saales-(Mairie).", "links": [], "coord": {"lat": "48.348286", "lon": "7.106291"}, "label": "Saales-(Mairie). (Saales)", "administrative_regions": [{"insee": "67421", "name": "Saales", "level": 8, "coord": {"lat": "48.3489201", "lon": "7.1068599"}, "label": "Saales (67420)", "id": "admin:fr:67421", "zip_code": "67420"}], "timezone": "Europe/Paris", "id": "stop_area:OCE:SA:87660894"}, {"codes": [{"type": "CR-CI-CH", "value": "0080-253914-BV"}, {"type": "CR-CI-CH", "value": "0080-253914-BV"}, {"type": "UIC8", "value": "80253914"}, {"type": "external_code", "value": "OCE80253914"}], "name": "Saarbr\u00fccken /Sarrebruck", "links": [], "coord": {"lat": "49.240676", "lon": "6.990983"}, "label": "Saarbr\u00fccken /Sarrebruck (Saarbr\u00fccken)", "administrative_regions": [{"insee": "", "name": "Saarbr\u00fccken", "level": 8, "coord": {"lat": "49.234362", "lon": "6.996379"}, "label": "Saarbr\u00fccken", "id": "admin:osm:relation:1187159", "zip_code": ""}], "timezone": "Europe/Paris", "id": "stop_area:OCE:SA:80253914"}, {"codes": [{"type": "CR-CI-CH", "value": "0087-396408-BV"}, {"type": "CR-CI-CH", "value": "0087-396408-BV"}, {"type": "UIC8", "value": "87396408"}, {"type": "external_code", "value": "OCE87396408"}], "name": "Sabl\u00e9-sur-Sarthe", "links": [], "coord": {"lat": "47.841718", "lon": "-0.342049"}, "label": "Sabl\u00e9-sur-Sarthe (Sabl\u00e9-sur-Sarthe)", "administrative_regions": [{"insee": "72264", "name": "Sabl\u00e9-sur-Sarthe", "level": 8, "coord": {"lat": "47.8400712", "lon": "-0.3352048"}, "label": "Sabl\u00e9-sur-Sarthe (72300)", "id": "admin:fr:72264", "zip_code": "72300"}], "timezone": "Europe/Paris", "id": "stop_area:OCE:SA:87396408"}, {"codes": [{"type": "CR-CI-CH", "value": "0087-172346-00"}, {"type": "CR-CI-CH", "value": "0087-172346-00"}, {"type": "UIC8", "value": "87172346"}, {"type": "external_code", "value": "OCE87172346"}], "name": "Sachy", "links": [], "coord": {"lat": "49.669161", "lon": "5.13082"}, "label": "Sachy (Sachy)", "administrative_regions": [{"insee": "8375", "name": "Sachy", "level": 8, "coord": {"lat": "49.66818", "lon": "5.13233"}, "label": "Sachy (08110)", "id": "admin:fr:8375", "zip_code": "08110"}], "timezone": "Europe/Paris", "id": "stop_area:OCE:SA:87172346"}, {"codes": [{"type": "CR-CI-CH", "value": "0087-784835-00"}, {"type": "CR-CI-CH", "value": "0087-784835-00"}, {"type": "UIC8", "value": "87784835"}, {"type": "external_code", "value": "OCE87784835"}], "name": "Saillagouse", "links": [], "coord": {"lat": "42.456796", "lon": "2.031088"}, "label": "Saillagouse (Saillagouse)", "administrative_regions": [{"insee": "66167", "name": "Saillagouse", "level": 8, "coord": {"lat": "42.458863", "lon": "2.0395621"}, "label": "Saillagouse (66800)", "id": "admin:fr:66167", "zip_code": "66800"}], "timezone": "Europe/Paris", "id": "stop_area:OCE:SA:87784835"}, {"codes": [{"type": "CR-CI-CH", "value": "0087-761817-00"}, {"type": "CR-CI-CH", "value": "0087-761817-00"}, {"type": "UIC8", "value": "87761817"}, {"type": "external_code", "value": "OCE87761817"}], "name": "Saillans", "links": [], "coord": {"lat": "44.694377", "lon": "5.194175"}, "label": "Saillans (Saillans)", "administrative_regions": [{"insee": "26289", "name": "Saillans", "level": 8, "coord": {"lat": "44.6975415", "lon": "5.1972501"}, "label": "Saillans (26340)", "id": "admin:fr:26289", "zip_code": "26340"}], "timezone": "Europe/Paris", "id": "stop_area:OCE:SA:87761817"}, {"codes": [{"type": "CR-CI-CH", "value": "0087-698654-HR"}, {"type": "UIC8", "value": "87698654"}, {"type": "external_code", "value": "OCE87698654"}], "name": "Saillans-Pont-Algoud", "links": [], "coord": {"lat": "44.695102", "lon": "5.196761"}, "label": "Saillans-Pont-Algoud (Saillans)", "administrative_regions": [{"insee": "26289", "name": "Saillans", "level": 8, "coord": {"lat": "44.6975415", "lon": "5.1972501"}, "label": "Saillans (26340)", "id": "admin:fr:26289", "zip_code": "26340"}], "timezone": "Europe/Paris", "id": "stop_area:OCE:SA:87698654"}, {"codes": [{"type": "CR-CI-CH", "value": "0087-592717-00"}, {"type": "CR-CI-CH", "value": "0087-592717-00"}, {"type": "UIC8", "value": "87592717"}, {"type": "external_code", "value": "OCE87592717"}], "name": "Saillat-Chassenon", "links": [], "coord": {"lat": "45.86951", "lon": "0.811922"}, "label": "Saillat-Chassenon (Saillat-sur-Vienne)", "administrative_regions": [{"insee": "87131", "name": "Saillat-sur-Vienne", "level": 8, "coord": {"lat": "45.8707107", "lon": "0.8153056"}, "label": "Saillat-sur-Vienne (87720)", "id": "admin:fr:87131", "zip_code": "87720"}], "timezone": "Europe/Paris", "id": "stop_area:OCE:SA:87592717"}, {"codes": [{"type": "CR-CI-CH", "value": "0087-721605-00"}, {"type": "CR-CI-CH", "value": "0087-721605-00"}, {"type": "UIC8", "value": "87721605"}, {"type": "external_code", "value": "OCE87721605"}], "name": "Sain-Bel", "links": [], "coord": {"lat": "45.811064", "lon": "4.601252"}, "label": "Sain-Bel (Sain-Bel)", "administrative_regions": [{"insee": "69171", "name": "Sain-Bel", "level": 8, "coord": {"lat": "45.8103406", "lon": "4.5995041"}, "label": "Sain-Bel (69210)", "id": "admin:fr:69171", "zip_code": "69210"}], "timezone": "Europe/Paris", "id": "stop_area:OCE:SA:87721605"}, {"codes": [{"type": "CR-CI-CH", "value": "0087-696260-BV"}, {"type": "CR-CI-CH", "value": "0087-696260-BV"}, {"type": "UIC8", "value": "87696260"}, {"type": "external_code", "value": "OCE87696260"}], "name": "Saincaize", "links": [], "coord": {"lat": "46.931373", "lon": "3.071971"}, "label": "Saincaize (Saincaize-Meauce)", "administrative_regions": [{"insee": "58225", "name": "Saincaize-Meauce", "level": 8, "coord": {"lat": "46.9276883", "lon": "3.0728083"}, "label": "Saincaize-Meauce (58470)", "id": "admin:fr:58225", "zip_code": "58470"}], "timezone": "Europe/Paris", "id": "stop_area:OCE:SA:87696260"}, {"codes": [{"type": "CR-CI-CH", "value": "0087-295709-00"}, {"type": "CR-CI-CH", "value": "0087-295709-00"}, {"type": "UIC8", "value": "87295709"}, {"type": "external_code", "value": "OCE87295709"}], "name": "Sains du Nord", "links": [], "coord": {"lat": "50.0889", "lon": "4.00159"}, "label": "Sains du Nord (Sains-du-Nord)", "administrative_regions": [{"insee": "59525", "name": "Sains-du-Nord", "level": 8, "coord": {"lat": "50.0953683", "lon": "4.0112313"}, "label": "Sains-du-Nord (59177)", "id": "admin:fr:59525", "zip_code": "59177"}], "timezone": "Europe/Paris", "id": "stop_area:OCE:SA:87295709"}, {"codes": [{"type": "CR-CI-CH", "value": "0087-727768-HR"}, {"type": "UIC8", "value": "87727768"}, {"type": "external_code", "value": "OCE87727768"}], "name": "Saint Ly\u00e9 Gravi\u00e8res", "links": [], "coord": {"lat": "0", "lon": "0"}, "label": "Saint Ly\u00e9 Gravi\u00e8res", "timezone": "Europe/Paris", "id": "stop_area:OCE:SA:87727768"}, {"codes": [{"type": "CR-CI-CH", "value": "0087-751826-00"}, {"type": "CR-CI-CH", "value": "0087-751826-00"}, {"type": "UIC8", "value": "87751826"}, {"type": "external_code", "value": "OCE87751826"}], "name": "Saint-Antoine", "links": [], "coord": {"lat": "43.369416", "lon": "5.358095"}, "label": "Saint-Antoine (Marseille)", "administrative_regions": [{"insee": "13055", "name": "Marseille", "level": 8, "coord": {"lat": "43.2961743", "lon": "5.3699525"}, "label": "Marseille (13000)", "id": "admin:fr:13055", "zip_code": "13000"}], "timezone": "Europe/Paris", "id": "stop_area:OCE:SA:87751826"}, {"codes": [{"type": "CR-CI-CH", "value": "0087-743633-BV"}, {"type": "CR-CI-CH", "value": "0087-743633-BV"}, {"type": "UIC8", "value": "87743633"}, {"type": "external_code", "value": "OCE87743633"}], "name": "Saint-Claude", "links": [], "coord": {"lat": "46.38993", "lon": "5.860389"}, "label": "Saint-Claude (Saint-Claude)", "administrative_regions": [{"insee": "39478", "name": "Saint-Claude", "level": 8, "coord": {"lat": "46.3877989", "lon": "5.8641501"}, "label": "Saint-Claude (39200)", "id": "admin:fr:39478", "zip_code": "39200"}], "timezone": "Europe/Paris", "id": "stop_area:OCE:SA:87743633"}]}