{"pagination": {"start_page": 2, "items_on_page": 25, "items_per_page": 25, "total_result": 4343}, "links": [{"href": "https://api.sncf.com/v1/coverage/sncf/stop_areas/{stop_areas.id}", "type": "stop_areas", "rel": "stop_areas", "templated": true}, {"href": "https://api.sncf.com/v1/coverage/sncf/stop_areas/{stop_areas.id}/route_schedules", "type": "route_schedules", "rel": "route_schedules", "templated": true}, {"href": "https://api.sncf.com/v1/coverage/sncf/stop_areas/{stop_areas.id}/stop_schedules", "type": "stop_schedules", "rel": "stop_schedules", "templated": true}, {"href": "https://api.sncf.com/v1/coverage/sncf/stop_areas/{stop_areas.id}/arrivals", "type": "arrivals", "rel": "arrivals", "templated": true}, {"href": "https://api.sncf.com/v1/coverage/sncf/stop_areas/{stop_areas.id}/departures", "type": "departures", "rel": "departures", "templated": true}, {"href": "https://api.sncf.com/v1/coverage/sncf/stop_areas/{stop_areas.id}/places_nearby", "type": "places_nearby", "rel": "places_nearby", "templated": true}, {"href": "https://api.sncf.com/v1/coverage/sncf/stop_areas/{stop_areas.id}/journeys", "type": "journey", "rel": "journeys", "templated": true}, {"href": "https://api.sncf.com/v1/coverage/sncf/stop_areas/{stop_areas.id}/traffic_reports", "type": "disruption", "rel": "disruptions", "templated": true}, {"href": "https://api.sncf.com/v1/coverage/sncf/stop_areas?start_page=1", "type": "previous", "templated": false}, {"href": "https://api.sncf.com/v1/coverage/sncf/stop_areas?start_page=3", "type": "next", "templated": false}, {"href": "https://api.sncf.com/v1/coverage/sncf/stop_areas?start_page=173", "type": "last", "templated": false}, {"href": "https://api.sncf.com/v1/coverage/sncf/stop_areas", "type": "first", "templated": false}], "disruptions": [], "feed_publishers": [], "context": {"timezone": "Europe/Paris", "current_datetime": "20200210T135428"}, "stop_areas": [{"codes": [{"type": "CR-CI-CH", "value": "0087-613398-00"}, {"type": "CR-CI-CH", "value": "0087-613398-00"}, {"type": "UIC8", "value": "87613398"}, {"type": "external_code", "value": "OCE87613398"}], "name": "Albias", "links": [], "coord": {"lat": "44.091975", "lon": "1.444875"}, "label": "Albias (Albias)", "administrative_regions": [{"insee": "82002", "name": "Albias", "level": 8, "coord": {"lat": "44.0908333", "lon": "1.4502778"}, "label": "Albias (82350)", "id": "admin:fr:82002", "zip_code": "82350"}], "timezone": "Europe/Paris", "id": "stop_area:OCE:SA:87613398"}, {"codes": [{"type": "CR-CI-CH", "value": "0087-139089-00"}, {"type": "CR-CI-CH", "value": "0087-139089-00"}, {"type": "UIC8", "value": "87139089"}, {"type": "external_code", "value": "OCE87139089"}], "name": "Albias-Abri-Bus", "links": [], "coord": {"lat": "44.09051", "lon": "1.447144"}, "label": "Albias-Abri-Bus (Albias)", "administrative_regions": [{"insee": "82002", "name": "Albias", "level": 8, "coord": {"lat": "44.0908333", "lon": "1.4502778"}, "label": "Albias (82350)", "id": "admin:fr:82002", "zip_code": "82350"}], "timezone": "Europe/Paris", "id": "stop_area:OCE:SA:87139089"}, {"codes": [{"type": "CR-CI-CH", "value": "0087-721266-00"}, {"type": "CR-CI-CH", "value": "0087-721266-00"}, {"type": "UIC8", "value": "87721266"}, {"type": "external_code", "value": "OCE87721266"}], "name": "Albigny-Neuville", "links": [], "coord": {"lat": "45.874857", "lon": "4.832844"}, "label": "Albigny-Neuville (Albigny-sur-Sa\u00f4ne)", "administrative_regions": [{"insee": "69003", "name": "Albigny-sur-Sa\u00f4ne", "level": 8, "coord": {"lat": "45.8706791", "lon": "4.8323149"}, "label": "Albigny-sur-Sa\u00f4ne (69250)", "id": "admin:fr:69003", "zip_code": "69250"}], "timezone": "Europe/Paris", "id": "stop_area:OCE:SA:87721266"}, {"codes": [{"type": "CR-CI-CH", "value": "0087-697003-HR"}, {"type": "UIC8", "value": "87697003"}, {"type": "external_code", "value": "OCE87697003"}], "name": "Albigny-Neuville-Arret", "links": [], "coord": {"lat": "45.875407", "lon": "4.833204"}, "label": "Albigny-Neuville-Arret (Albigny-sur-Sa\u00f4ne)", "administrative_regions": [{"insee": "69003", "name": "Albigny-sur-Sa\u00f4ne", "level": 8, "coord": {"lat": "45.8706791", "lon": "4.8323149"}, "label": "Albigny-sur-Sa\u00f4ne (69250)", "id": "admin:fr:69003", "zip_code": "69250"}], "timezone": "Europe/Paris", "id": "stop_area:OCE:SA:87697003"}, {"codes": [{"type": "CR-CI-CH", "value": "0087-444711-BV"}, {"type": "CR-CI-CH", "value": "0087-444711-BV"}, {"type": "UIC8", "value": "87444711"}, {"type": "external_code", "value": "OCE87444711"}], "name": "Alen\u00e7on", "links": [], "coord": {"lat": "48.433803", "lon": "0.09905"}, "label": "Alen\u00e7on (Alen\u00e7on)", "administrative_regions": [{"insee": "61001", "name": "Alen\u00e7on", "level": 8, "coord": {"lat": "48.4312059", "lon": "0.09113739999999999"}, "label": "Alen\u00e7on (61000)", "id": "admin:fr:61001", "zip_code": "61000"}], "timezone": "Europe/Paris", "id": "stop_area:OCE:SA:87444711"}, {"codes": [{"type": "CR-CI-CH", "value": "0087-615187-00"}, {"type": "CR-CI-CH", "value": "0087-615187-00"}, {"type": "UIC8", "value": "87615187"}, {"type": "external_code", "value": "OCE87615187"}], "name": "Alet-les-Bains", "links": [], "coord": {"lat": "42.997211", "lon": "2.251852"}, "label": "Alet-les-Bains (Alet-les-Bains)", "administrative_regions": [{"insee": "11008", "name": "Alet-les-Bains", "level": 8, "coord": {"lat": "42.9967236", "lon": "2.255835"}, "label": "Alet-les-Bains (11580)", "id": "admin:fr:11008", "zip_code": "11580"}], "timezone": "Europe/Paris", "id": "stop_area:OCE:SA:87615187"}, {"codes": [{"type": "CR-CI-CH", "value": "0087-117465-HR"}, {"type": "CR-CI-CH", "value": "0087-117465-HR"}, {"type": "UIC8", "value": "87117465"}, {"type": "external_code", "value": "OCE87117465"}], "name": "Allamps-Esat", "links": [], "coord": {"lat": "48.542793", "lon": "5.79684"}, "label": "Allamps-Esat (Allamps)", "administrative_regions": [{"insee": "54010", "name": "Allamps", "level": 8, "coord": {"lat": "48.5478882", "lon": "5.8103817"}, "label": "Allamps (54112)", "id": "admin:fr:54010", "zip_code": "54112"}], "timezone": "Europe/Paris", "id": "stop_area:OCE:SA:87117465"}, {"codes": [{"type": "CR-CI-CH", "value": "0087-645614-00"}, {"type": "CR-CI-CH", "value": "0087-645614-00"}, {"type": "UIC8", "value": "87645614"}, {"type": "external_code", "value": "OCE87645614"}], "name": "Allanche", "links": [], "coord": {"lat": "45.22967", "lon": "2.931457"}, "label": "Allanche (Allanche)", "administrative_regions": [{"insee": "15001", "name": "Allanche", "level": 8, "coord": {"lat": "45.2286939", "lon": "2.9352539"}, "label": "Allanche (15160)", "id": "admin:fr:15001", "zip_code": "15160"}], "timezone": "Europe/Paris", "id": "stop_area:OCE:SA:87645614"}, {"codes": [{"type": "CR-CI-CH", "value": "0087-594234-00"}, {"type": "CR-CI-CH", "value": "0087-594234-00"}, {"type": "UIC8", "value": "87594234"}, {"type": "external_code", "value": "OCE87594234"}], "name": "Allassac", "links": [], "coord": {"lat": "45.258966", "lon": "1.473229"}, "label": "Allassac (Allassac)", "administrative_regions": [{"insee": "19005", "name": "Allassac", "level": 8, "coord": {"lat": "45.257248", "lon": "1.4755597"}, "label": "Allassac (19240)", "id": "admin:fr:19005", "zip_code": "19240"}], "timezone": "Europe/Paris", "id": "stop_area:OCE:SA:87594234"}, {"codes": [{"type": "CR-CI-CH", "value": "0087-589390-HR"}, {"type": "CR-CI-CH", "value": "0087-589390-HR"}, {"type": "UIC8", "value": "87589390"}, {"type": "external_code", "value": "OCE87589390"}], "name": "Allegre-Maison-Retraite", "links": [], "coord": {"lat": "45.201964", "lon": "3.713789"}, "label": "Allegre-Maison-Retraite (All\u00e8gre)", "administrative_regions": [{"insee": "43003", "name": "All\u00e8gre", "level": 8, "coord": {"lat": "45.2004756", "lon": "3.7119308"}, "label": "All\u00e8gre (43270)", "id": "admin:fr:43003", "zip_code": "43270"}], "timezone": "Europe/Paris", "id": "stop_area:OCE:SA:87589390"}, {"codes": [{"type": "CR-CI-CH", "value": "0087-783654-00"}, {"type": "CR-CI-CH", "value": "0087-783654-00"}, {"type": "UIC8", "value": "87783654"}, {"type": "external_code", "value": "OCE87783654"}], "name": "Allenc", "links": [], "coord": {"lat": "44.541673", "lon": "3.664216"}, "label": "Allenc (Allenc)", "administrative_regions": [{"insee": "48003", "name": "Allenc", "level": 8, "coord": {"lat": "44.541", "lon": "3.66228"}, "label": "Allenc (48190)", "id": "admin:fr:48003", "zip_code": "48190"}], "timezone": "Europe/Paris", "id": "stop_area:OCE:SA:87783654"}, {"codes": [{"type": "CR-CI-CH", "value": "0087-769554-00"}, {"type": "CR-CI-CH", "value": "0087-769554-00"}, {"type": "CR-CI-CH", "value": "0087-769554-HR"}, {"type": "UIC8", "value": "87769554"}, {"type": "external_code", "value": "OCE87769554"}], "name": "Allex", "links": [], "coord": {"lat": "44.764079", "lon": "4.915667"}, "label": "Allex (Allex)", "administrative_regions": [{"insee": "26006", "name": "Allex", "level": 8, "coord": {"lat": "44.7643", "lon": "4.91345"}, "label": "Allex (26400)", "id": "admin:fr:26006", "zip_code": "26400"}], "timezone": "Europe/Paris", "id": "stop_area:OCE:SA:87769554"}, {"codes": [{"type": "CR-CI-CH", "value": "0087-731885-00"}, {"type": "CR-CI-CH", "value": "0087-731885-00"}, {"type": "UIC8", "value": "87731885"}, {"type": "external_code", "value": "OCE87731885"}], "name": "Alleyras", "links": [], "coord": {"lat": "44.918949", "lon": "3.67355"}, "label": "Alleyras (Alleyras)", "administrative_regions": [{"insee": "43005", "name": "Alleyras", "level": 8, "coord": {"lat": "44.9059972", "lon": "3.6814589"}, "label": "Alleyras (43580)", "id": "admin:fr:43005", "zip_code": "43580"}], "timezone": "Europe/Paris", "id": "stop_area:OCE:SA:87731885"}, {"codes": [{"type": "CR-CI-CH", "value": "0087-734665-00"}, {"type": "CR-CI-CH", "value": "0087-734665-00"}, {"type": "UIC8", "value": "87734665"}, {"type": "external_code", "value": "OCE87734665"}], "name": "All\u00e8gre", "links": [], "coord": {"lat": "45.203328", "lon": "3.713327"}, "label": "All\u00e8gre (All\u00e8gre)", "administrative_regions": [{"insee": "43003", "name": "All\u00e8gre", "level": 8, "coord": {"lat": "45.2004756", "lon": "3.7119308"}, "label": "All\u00e8gre (43270)", "id": "admin:fr:43003", "zip_code": "43270"}], "timezone": "Europe/Paris", "id": "stop_area:OCE:SA:87734665"}, {"codes": [{"type": "CR-CI-CH", "value": "0087-581793-00"}, {"type": "CR-CI-CH", "value": "0087-581793-00"}, {"type": "UIC8", "value": "87581793"}, {"type": "external_code", "value": "OCE87581793"}], "name": "Alouette-France", "links": [], "coord": {"lat": "44.793502", "lon": "-0.659614"}, "label": "Alouette-France (Pessac)", "administrative_regions": [{"insee": "33318", "name": "Pessac", "level": 8, "coord": {"lat": "44.805615", "lon": "-0.6308395999999999"}, "label": "Pessac (33600)", "id": "admin:fr:33318", "zip_code": "33600"}], "timezone": "Europe/Paris", "id": "stop_area:OCE:SA:87581793"}, {"codes": [{"type": "CR-CI-CH", "value": "0087-639955-HR"}, {"type": "CR-CI-CH", "value": "0087-639955-HR"}, {"type": "UIC8", "value": "87639955"}, {"type": "external_code", "value": "OCE87639955"}], "name": "Alteckendorf-Abri", "links": [], "coord": {"lat": "48.794558", "lon": "7.589739"}, "label": "Alteckendorf-Abri (Alteckendorf)", "administrative_regions": [{"insee": "67005", "name": "Alteckendorf", "level": 8, "coord": {"lat": "48.7925005", "lon": "7.5967333"}, "label": "Alteckendorf (67270)", "id": "admin:fr:67005", "zip_code": "67270"}], "timezone": "Europe/Paris", "id": "stop_area:OCE:SA:87639955"}, {"codes": [{"type": "CR-CI-CH", "value": "0087-639930-HR"}, {"type": "CR-CI-CH", "value": "0087-639930-HR"}, {"type": "UIC8", "value": "87639930"}, {"type": "external_code", "value": "OCE87639930"}], "name": "Alteckendorf-Eckendorf", "links": [], "coord": {"lat": "48.78972", "lon": "7.601546"}, "label": "Alteckendorf-Eckendorf (Alteckendorf)", "administrative_regions": [{"insee": "67005", "name": "Alteckendorf", "level": 8, "coord": {"lat": "48.7925005", "lon": "7.5967333"}, "label": "Alteckendorf (67270)", "id": "admin:fr:67005", "zip_code": "67270"}], "timezone": "Europe/Paris", "id": "stop_area:OCE:SA:87639930"}, {"codes": [{"type": "CR-CI-CH", "value": "0087-639948-HR"}, {"type": "CR-CI-CH", "value": "0087-639948-HR"}, {"type": "UIC8", "value": "87639948"}, {"type": "external_code", "value": "OCE87639948"}], "name": "Alteckendorf-Mairie", "links": [], "coord": {"lat": "48.792845", "lon": "7.594651"}, "label": "Alteckendorf-Mairie (Alteckendorf)", "administrative_regions": [{"insee": "67005", "name": "Alteckendorf", "level": 8, "coord": {"lat": "48.7925005", "lon": "7.5967333"}, "label": "Alteckendorf (67270)", "id": "admin:fr:67005", "zip_code": "67270"}], "timezone": "Europe/Paris", "id": "stop_area:OCE:SA:87639948"}, {"codes": [{"type": "CR-CI-CH", "value": "0087-182238-BV"}, {"type": "CR-CI-CH", "value": "0087-182238-BV"}, {"type": "UIC8", "value": "87182238"}, {"type": "external_code", "value": "OCE87182238"}], "name": "Altkirch", "links": [], "coord": {"lat": "47.627106", "lon": "7.239591"}, "label": "Altkirch (Altkirch)", "administrative_regions": [{"insee": "68004", "name": "Altkirch", "level": 8, "coord": {"lat": "47.6238204", "lon": "7.2401542"}, "label": "Altkirch (68130)", "id": "admin:fr:68004", "zip_code": "68130"}], "timezone": "Europe/Paris", "id": "stop_area:OCE:SA:87182238"}, {"codes": [{"type": "CR-CI-CH", "value": "0087-117515-00"}, {"type": "CR-CI-CH", "value": "0087-117515-00"}, {"type": "UIC8", "value": "87117515"}, {"type": "external_code", "value": "OCE87117515"}], "name": "Alzing", "links": [], "coord": {"lat": "49.279032", "lon": "6.552215"}, "label": "Alzing (Alzing)", "administrative_regions": [{"insee": "57016", "name": "Alzing", "level": 8, "coord": {"lat": "49.2783312", "lon": "6.5535778"}, "label": "Alzing (57320)", "id": "admin:fr:57016", "zip_code": "57320"}], "timezone": "Europe/Paris", "id": "stop_area:OCE:SA:87117515"}, {"codes": [{"type": "CR-CI-CH", "value": "0087-775288-BV"}, {"type": "CR-CI-CH", "value": "0087-775288-BV"}, {"type": "UIC8", "value": "87775288"}, {"type": "external_code", "value": "OCE87775288"}], "name": "Al\u00e8s", "links": [], "coord": {"lat": "44.128126", "lon": "4.084779"}, "label": "Al\u00e8s (Al\u00e8s)", "administrative_regions": [{"insee": "30007", "name": "Al\u00e8s", "level": 8, "coord": {"lat": "44.1253665", "lon": "4.0852818"}, "label": "Al\u00e8s (30100)", "id": "admin:fr:30007", "zip_code": "30100"}], "timezone": "Europe/Paris", "id": "stop_area:OCE:SA:87775288"}, {"codes": [{"type": "CR-CI-CH", "value": "0087-172262-BV"}, {"type": "CR-CI-CH", "value": "0087-172262-BV"}, {"type": "UIC8", "value": "87172262"}, {"type": "external_code", "value": "OCE87172262"}], "name": "Amagne-Lucquy", "links": [], "coord": {"lat": "49.523728", "lon": "4.47375"}, "label": "Amagne-Lucquy (Lucquy)", "administrative_regions": [{"insee": "8262", "name": "Lucquy", "level": 8, "coord": {"lat": "49.53229", "lon": "4.47754"}, "label": "Lucquy (08300)", "id": "admin:fr:8262", "zip_code": "08300"}], "timezone": "Europe/Paris", "id": "stop_area:OCE:SA:87172262"}, {"codes": [{"type": "CR-CI-CH", "value": "0087-592311-00"}, {"type": "CR-CI-CH", "value": "0087-592311-00"}, {"type": "UIC8", "value": "87592311"}, {"type": "external_code", "value": "OCE87592311"}], "name": "Ambazac", "links": [], "coord": {"lat": "45.952901", "lon": "1.406502"}, "label": "Ambazac (Ambazac)", "administrative_regions": [{"insee": "87002", "name": "Ambazac", "level": 8, "coord": {"lat": "45.958226", "lon": "1.4019278"}, "label": "Ambazac (87240)", "id": "admin:fr:87002", "zip_code": "87240"}], "timezone": "Europe/Paris", "id": "stop_area:OCE:SA:87592311"}, {"codes": [{"type": "CR-CI-CH", "value": "0087-734574-00"}, {"type": "CR-CI-CH", "value": "0087-734574-00"}, {"type": "UIC8", "value": "87734574"}, {"type": "external_code", "value": "OCE87734574"}], "name": "Ambert", "links": [], "coord": {"lat": "45.549647", "lon": "3.735071"}, "label": "Ambert (Ambert)", "administrative_regions": [{"insee": "63003", "name": "Ambert", "level": 8, "coord": {"lat": "45.5504338", "lon": "3.742639"}, "label": "Ambert (63600)", "id": "admin:fr:63003", "zip_code": "63600"}], "timezone": "Europe/Paris", "id": "stop_area:OCE:SA:87734574"}, {"codes": [{"type": "CR-CI-CH", "value": "0087-395756-00"}, {"type": "CR-CI-CH", "value": "0087-395756-00"}, {"type": "UIC8", "value": "87395756"}, {"type": "external_code", "value": "OCE87395756"}], "name": "Ambert-Ville", "links": [], "coord": {"lat": "45.550598", "lon": "3.739655"}, "label": "Ambert-Ville (Ambert)", "administrative_regions": [{"insee": "63003", "name": "Ambert", "level": 8, "coord": {"lat": "45.5504338", "lon": "3.742639"}, "label": "Ambert (63600)", "id": "admin:fr:63003", "zip_code": "63600"}], "timezone": "Europe/Paris", "id": "stop_area:OCE:SA:87395756"}]}