{"pagination": {"start_page": 106, "items_on_page": 25, "items_per_page": 25, "total_result": 4343}, "links": [{"href": "https://api.sncf.com/v1/coverage/sncf/stop_areas/{stop_areas.id}", "type": "stop_areas", "rel": "stop_areas", "templated": true}, {"href": "https://api.sncf.com/v1/coverage/sncf/stop_areas/{stop_areas.id}/route_schedules", "type": "route_schedules", "rel": "route_schedules", "templated": true}, {"href": "https://api.sncf.com/v1/coverage/sncf/stop_areas/{stop_areas.id}/stop_schedules", "type": "stop_schedules", "rel": "stop_schedules", "templated": true}, {"href": "https://api.sncf.com/v1/coverage/sncf/stop_areas/{stop_areas.id}/arrivals", "type": "arrivals", "rel": "arrivals", "templated": true}, {"href": "https://api.sncf.com/v1/coverage/sncf/stop_areas/{stop_areas.id}/departures", "type": "departures", "rel": "departures", "templated": true}, {"href": "https://api.sncf.com/v1/coverage/sncf/stop_areas/{stop_areas.id}/places_nearby", "type": "places_nearby", "rel": "places_nearby", "templated": true}, {"href": "https://api.sncf.com/v1/coverage/sncf/stop_areas/{stop_areas.id}/journeys", "type": "journey", "rel": "journeys", "templated": true}, {"href": "https://api.sncf.com/v1/coverage/sncf/stop_areas/{stop_areas.id}/traffic_reports", "type": "disruption", "rel": "disruptions", "templated": true}, {"href": "https://api.sncf.com/v1/coverage/sncf/stop_areas?start_page=105", "type": "previous", "templated": false}, {"href": "https://api.sncf.com/v1/coverage/sncf/stop_areas?start_page=107", "type": "next", "templated": false}, {"href": "https://api.sncf.com/v1/coverage/sncf/stop_areas?start_page=173", "type": "last", "templated": false}, {"href": "https://api.sncf.com/v1/coverage/sncf/stop_areas", "type": "first", "templated": false}], "disruptions": [], "feed_publishers": [], "context": {"timezone": "Europe/Paris", "current_datetime": "20200210T135442"}, "stop_areas": [{"codes": [{"type": "CR-CI-CH", "value": "0087-276493-BV"}, {"type": "CR-CI-CH", "value": "0087-276493-BV"}, {"type": "UIC8", "value": "87276493"}, {"type": "external_code", "value": "OCE87276493"}], "name": "Montsoult-Maffliers", "links": [], "coord": {"lat": "49.065873", "lon": "2.321952"}, "label": "Montsoult-Maffliers (Montsoult)", "administrative_regions": [{"insee": "95430", "name": "Montsoult", "level": 8, "coord": {"lat": "49.0704484", "lon": "2.312001"}, "label": "Montsoult (95560)", "id": "admin:fr:95430", "zip_code": "95560"}], "timezone": "Europe/Paris", "id": "stop_area:OCE:SA:87276493"}, {"codes": [{"type": "CR-CI-CH", "value": "0087-478537-BV"}, {"type": "CR-CI-CH", "value": "0087-478537-BV"}, {"type": "UIC8", "value": "87478537"}, {"type": "external_code", "value": "OCE87478537"}], "name": "Montsurs", "links": [], "coord": {"lat": "48.141106", "lon": "-0.551436"}, "label": "Montsurs (Br\u00e9e)", "administrative_regions": [{"insee": "53043", "name": "Br\u00e9e", "level": 8, "coord": {"lat": "48.1504032", "lon": "-0.5188416"}, "label": "Br\u00e9e (53150)", "id": "admin:fr:53043", "zip_code": "53150"}], "timezone": "Europe/Paris", "id": "stop_area:OCE:SA:87478537"}, {"codes": [{"type": "CR-CI-CH", "value": "0087-411801-00"}, {"type": "CR-CI-CH", "value": "0087-411801-00"}, {"type": "UIC8", "value": "87411801"}, {"type": "external_code", "value": "OCE87411801"}], "name": "Montville", "links": [], "coord": {"lat": "49.551033", "lon": "1.069749"}, "label": "Montville (Eslettes)", "administrative_regions": [{"insee": "76245", "name": "Eslettes", "level": 8, "coord": {"lat": "49.5455107", "lon": "1.0540675"}, "label": "Eslettes (76710)", "id": "admin:fr:76245", "zip_code": "76710"}], "timezone": "Europe/Paris", "id": "stop_area:OCE:SA:87411801"}, {"codes": [{"type": "CR-CI-CH", "value": "0087-764001-BV"}, {"type": "CR-CI-CH", "value": "0087-764001-BV"}, {"type": "UIC8", "value": "87764001"}, {"type": "external_code", "value": "OCE87764001"}], "name": "Mont\u00e9limar", "links": [], "coord": {"lat": "44.559", "lon": "4.74479"}, "label": "Mont\u00e9limar (Mont\u00e9limar)", "administrative_regions": [{"insee": "26198", "name": "Mont\u00e9limar", "level": 8, "coord": {"lat": "44.5579391", "lon": "4.750318"}, "label": "Mont\u00e9limar (26200)", "id": "admin:fr:26198", "zip_code": "26200"}], "timezone": "Europe/Paris", "id": "stop_area:OCE:SA:87764001"}, {"codes": [{"type": "CR-CI-CH", "value": "0087-556522-00"}, {"type": "CR-CI-CH", "value": "0087-556522-00"}, {"type": "UIC8", "value": "87556522"}, {"type": "external_code", "value": "OCE87556522"}], "name": "Mont\u00e9limar-G-Routi\u00e8re", "links": [], "coord": {"lat": "44.559458", "lon": "4.745225"}, "label": "Mont\u00e9limar-G-Routi\u00e8re (Mont\u00e9limar)", "administrative_regions": [{"insee": "26198", "name": "Mont\u00e9limar", "level": 8, "coord": {"lat": "44.5579391", "lon": "4.750318"}, "label": "Mont\u00e9limar (26200)", "id": "admin:fr:26198", "zip_code": "26200"}], "timezone": "Europe/Paris", "id": "stop_area:OCE:SA:87556522"}, {"codes": [{"type": "CR-CI-CH", "value": "0087-411454-00"}, {"type": "CR-CI-CH", "value": "0087-411454-00"}, {"type": "UIC8", "value": "87411454"}, {"type": "external_code", "value": "OCE87411454"}], "name": "Mont\u00e9rolier-Buchy", "links": [], "coord": {"lat": "49.603131", "lon": "1.334709"}, "label": "Mont\u00e9rolier-Buchy (Mont\u00e9rolier)", "administrative_regions": [{"insee": "76445", "name": "Mont\u00e9rolier", "level": 8, "coord": {"lat": "49.6299634", "lon": "1.3460104"}, "label": "Mont\u00e9rolier (76680)", "id": "admin:fr:76445", "zip_code": "76680"}], "timezone": "Europe/Paris", "id": "stop_area:OCE:SA:87411454"}, {"codes": [{"type": "CR-CI-CH", "value": "0087-683557-BV"}, {"type": "CR-CI-CH", "value": "0087-683557-BV"}, {"type": "UIC8", "value": "87683557"}, {"type": "external_code", "value": "OCE87683557"}], "name": "Mon\u00e9teau-Gurgy", "links": [], "coord": {"lat": "47.850719", "lon": "3.579952"}, "label": "Mon\u00e9teau-Gurgy (Mon\u00e9teau)", "administrative_regions": [{"insee": "89263", "name": "Mon\u00e9teau", "level": 8, "coord": {"lat": "47.8483265", "lon": "3.5794275"}, "label": "Mon\u00e9teau (89470)", "id": "admin:fr:89263", "zip_code": "89470"}], "timezone": "Europe/Paris", "id": "stop_area:OCE:SA:87683557"}, {"codes": [{"type": "CR-CI-CH", "value": "0087-182592-00"}, {"type": "CR-CI-CH", "value": "0087-182592-00"}, {"type": "UIC8", "value": "87182592"}, {"type": "external_code", "value": "OCE87182592"}], "name": "Moosch", "links": [], "coord": {"lat": "47.86109", "lon": "7.050591"}, "label": "Moosch (Moosch)", "administrative_regions": [{"insee": "68217", "name": "Moosch", "level": 8, "coord": {"lat": "47.8597615", "lon": "7.0486582"}, "label": "Moosch (68690)", "id": "admin:fr:68217", "zip_code": "68690"}], "timezone": "Europe/Paris", "id": "stop_area:OCE:SA:87182592"}, {"codes": [{"type": "CR-CI-CH", "value": "0087-659938-HR"}, {"type": "CR-CI-CH", "value": "0087-659938-HR"}, {"type": "UIC8", "value": "87659938"}, {"type": "external_code", "value": "OCE87659938"}], "name": "Moosch-(Mairie).", "links": [], "coord": {"lat": "47.860258", "lon": "7.049352"}, "label": "Moosch-(Mairie). (Moosch)", "administrative_regions": [{"insee": "68217", "name": "Moosch", "level": 8, "coord": {"lat": "47.8597615", "lon": "7.0486582"}, "label": "Moosch (68690)", "id": "admin:fr:68217", "zip_code": "68690"}], "timezone": "Europe/Paris", "id": "stop_area:OCE:SA:87659938"}, {"codes": [{"type": "CR-CI-CH", "value": "0087-484170-00"}, {"type": "CR-CI-CH", "value": "0087-484170-00"}, {"type": "UIC8", "value": "87484170"}, {"type": "external_code", "value": "OCE87484170"}], "name": "Morannes", "links": [], "coord": {"lat": "47.73902", "lon": "-0.418196"}, "label": "Morannes (Morannes sur Sarthe-Daumeray)", "administrative_regions": [{"insee": "49220", "name": "Morannes sur Sarthe-Daumeray", "level": 8, "coord": {"lat": "47.7442715", "lon": "-0.4175278"}, "label": "Morannes sur Sarthe-Daumeray", "id": "admin:fr:49220", "zip_code": ""}], "timezone": "Europe/Paris", "id": "stop_area:OCE:SA:87484170"}, {"codes": [{"type": "CR-CI-CH", "value": "0087-715433-00"}, {"type": "CR-CI-CH", "value": "0087-715433-00"}, {"type": "UIC8", "value": "87715433"}, {"type": "external_code", "value": "OCE87715433"}], "name": "Morbier", "links": [], "coord": {"lat": "46.539109", "lon": "6.017909"}, "label": "Morbier (Morbier)", "administrative_regions": [{"insee": "39367", "name": "Morbier", "level": 8, "coord": {"lat": "46.5363166", "lon": "6.0169531"}, "label": "Morbier (39400)", "id": "admin:fr:39367", "zip_code": "39400"}], "timezone": "Europe/Paris", "id": "stop_area:OCE:SA:87715433"}, {"codes": [{"type": "CR-CI-CH", "value": "0087-673103-BV"}, {"type": "CR-CI-CH", "value": "0087-673103-BV"}, {"type": "UIC8", "value": "87673103"}, {"type": "external_code", "value": "OCE87673103"}], "name": "Morcenx", "links": [], "coord": {"lat": "44.033673", "lon": "-0.908481"}, "label": "Morcenx (Morcenx-la-Nouvelle)", "administrative_regions": [{"insee": "40197", "name": "Morcenx-la-Nouvelle", "level": 8, "coord": {"lat": "44.0323042", "lon": "-0.9113736"}, "label": "Morcenx-la-Nouvelle (40110)", "id": "admin:fr:40197", "zip_code": "40110"}], "timezone": "Europe/Paris", "id": "stop_area:OCE:SA:87673103"}, {"codes": [{"type": "CR-CI-CH", "value": "0087-682278-BV"}, {"type": "CR-CI-CH", "value": "0087-682278-BV"}, {"type": "UIC8", "value": "87682278"}, {"type": "external_code", "value": "OCE87682278"}], "name": "Moret-Veneux-les-Sabl.", "links": [], "coord": {"lat": "48.378404", "lon": "2.799525"}, "label": "Moret-Veneux-les-Sabl. (Moret-Loing-et-Orvanne)", "administrative_regions": [{"insee": "77316", "name": "Moret-Loing-et-Orvanne", "level": 8, "coord": {"lat": "48.372865", "lon": "2.8161541"}, "label": "Moret-Loing-et-Orvanne", "id": "admin:fr:77316", "zip_code": ""}], "timezone": "Europe/Paris", "id": "stop_area:OCE:SA:87682278"}, {"codes": [{"type": "CR-CI-CH", "value": "0087-313320-BV"}, {"type": "CR-CI-CH", "value": "0087-313320-BV"}, {"type": "UIC8", "value": "87313320"}, {"type": "external_code", "value": "OCE87313320"}], "name": "Moreuil", "links": [], "coord": {"lat": "49.776981", "lon": "2.475806"}, "label": "Moreuil (Moreuil)", "administrative_regions": [{"insee": "80570", "name": "Moreuil", "level": 8, "coord": {"lat": "49.7705466", "lon": "2.486822"}, "label": "Moreuil (80110)", "id": "admin:fr:80570", "zip_code": "80110"}], "timezone": "Europe/Paris", "id": "stop_area:OCE:SA:87313320"}, {"codes": [{"type": "CR-CI-CH", "value": "0087-715441-00"}, {"type": "CR-CI-CH", "value": "0087-715441-00"}, {"type": "UIC8", "value": "87715441"}, {"type": "external_code", "value": "OCE87715441"}], "name": "Morez", "links": [], "coord": {"lat": "46.526327", "lon": "6.023801"}, "label": "Morez (Hauts de Bienne)", "administrative_regions": [{"insee": "39368", "name": "Hauts de Bienne", "level": 8, "coord": {"lat": "46.5203285", "lon": "6.0235486"}, "label": "Hauts de Bienne", "id": "admin:fr:39368", "zip_code": ""}], "timezone": "Europe/Paris", "id": "stop_area:OCE:SA:87715441"}, {"codes": [{"type": "CR-CI-CH", "value": "0087-716910-HR"}, {"type": "UIC8", "value": "87716910"}, {"type": "external_code", "value": "OCE87716910"}], "name": "Morez Lyc\u00e9e", "links": [], "coord": {"lat": "46.517297", "lon": "6.025614"}, "label": "Morez Lyc\u00e9e (Hauts de Bienne)", "administrative_regions": [{"insee": "39368", "name": "Hauts de Bienne", "level": 8, "coord": {"lat": "46.5203285", "lon": "6.0235486"}, "label": "Hauts de Bienne", "id": "admin:fr:39368", "zip_code": ""}], "timezone": "Europe/Paris", "id": "stop_area:OCE:SA:87716910"}, {"codes": [{"type": "CR-CI-CH", "value": "0087-411439-00"}, {"type": "CR-CI-CH", "value": "0087-411439-00"}, {"type": "UIC8", "value": "87411439"}, {"type": "external_code", "value": "OCE87411439"}], "name": "Morgny", "links": [], "coord": {"lat": "49.523226", "lon": "1.247811"}, "label": "Morgny (Morgny-la-Pommeraye)", "administrative_regions": [{"insee": "76453", "name": "Morgny-la-Pommeraye", "level": 8, "coord": {"lat": "49.5117012", "lon": "1.254259"}, "label": "Morgny-la-Pommeraye (76750)", "id": "admin:fr:76453", "zip_code": "76750"}], "timezone": "Europe/Paris", "id": "stop_area:OCE:SA:87411439"}, {"codes": [{"type": "CR-CI-CH", "value": "0087-192286-00"}, {"type": "CR-CI-CH", "value": "0087-192286-00"}, {"type": "UIC8", "value": "87192286"}, {"type": "external_code", "value": "OCE87192286"}], "name": "Morhange", "links": [], "coord": {"lat": "48.936774", "lon": "6.659093"}, "label": "Morhange (Morhange)", "administrative_regions": [{"insee": "57483", "name": "Morhange", "level": 8, "coord": {"lat": "48.9250518", "lon": "6.6458064"}, "label": "Morhange (57340)", "id": "admin:fr:57483", "zip_code": "57340"}], "timezone": "Europe/Paris", "id": "stop_area:OCE:SA:87192286"}, {"codes": [{"type": "CR-CI-CH", "value": "0087-407155-00"}, {"type": "CR-CI-CH", "value": "0087-407155-00"}, {"type": "UIC8", "value": "87407155"}, {"type": "external_code", "value": "OCE87407155"}], "name": "Morhange (Pl. R\u00e9publiq)", "links": [], "coord": {"lat": "48.923919", "lon": "6.635005"}, "label": "Morhange (Pl. R\u00e9publiq) (Morhange)", "administrative_regions": [{"insee": "57483", "name": "Morhange", "level": 8, "coord": {"lat": "48.9250518", "lon": "6.6458064"}, "label": "Morhange (57340)", "id": "admin:fr:57483", "zip_code": "57340"}], "timezone": "Europe/Paris", "id": "stop_area:OCE:SA:87407155"}, {"codes": [{"type": "CR-CI-CH", "value": "0087-407171-00"}, {"type": "CR-CI-CH", "value": "0087-407171-00"}, {"type": "UIC8", "value": "87407171"}, {"type": "external_code", "value": "OCE87407171"}], "name": "Morhange Jeanne d'Arc", "links": [], "coord": {"lat": "48.93647", "lon": "6.659272"}, "label": "Morhange Jeanne d'Arc (Morhange)", "administrative_regions": [{"insee": "57483", "name": "Morhange", "level": 8, "coord": {"lat": "48.9250518", "lon": "6.6458064"}, "label": "Morhange (57340)", "id": "admin:fr:57483", "zip_code": "57340"}], "timezone": "Europe/Paris", "id": "stop_area:OCE:SA:87407171"}, {"codes": [{"type": "CR-CI-CH", "value": "0087-765420-00"}, {"type": "CR-CI-CH", "value": "0087-765420-00"}, {"type": "UIC8", "value": "87765420"}, {"type": "external_code", "value": "OCE87765420"}], "name": "Mori\u00e8res-l\u00e8s-Avignon", "links": [], "coord": {"lat": "43.941462", "lon": "4.908204"}, "label": "Mori\u00e8res-l\u00e8s-Avignon (Mori\u00e8res-l\u00e8s-Avignon)", "administrative_regions": [{"insee": "84081", "name": "Mori\u00e8res-l\u00e8s-Avignon", "level": 8, "coord": {"lat": "43.940965", "lon": "4.9042769"}, "label": "Mori\u00e8res-l\u00e8s-Avignon (84310)", "id": "admin:fr:84081", "zip_code": "84310"}], "timezone": "Europe/Paris", "id": "stop_area:OCE:SA:87765420"}, {"codes": [{"type": "CR-CI-CH", "value": "0087-474338-BV"}, {"type": "CR-CI-CH", "value": "0087-474338-BV"}, {"type": "UIC8", "value": "87474338"}, {"type": "external_code", "value": "OCE87474338"}], "name": "Morlaix", "links": [], "coord": {"lat": "48.577979", "lon": "-3.832761"}, "label": "Morlaix (Morlaix)", "administrative_regions": [{"insee": "29151", "name": "Morlaix", "level": 8, "coord": {"lat": "48.5824932", "lon": "-3.8331972"}, "label": "Morlaix (29600)", "id": "admin:fr:29151", "zip_code": "29600"}], "timezone": "Europe/Paris", "id": "stop_area:OCE:SA:87474338"}, {"codes": [{"type": "CR-CI-CH", "value": "0087-116087-00"}, {"type": "CR-CI-CH", "value": "0087-116087-00"}, {"type": "UIC8", "value": "87116087"}, {"type": "external_code", "value": "OCE87116087"}], "name": "Mormant", "links": [], "coord": {"lat": "48.613225", "lon": "2.889483"}, "label": "Mormant (Mormant)", "administrative_regions": [{"insee": "77317", "name": "Mormant", "level": 8, "coord": {"lat": "48.6066366", "lon": "2.8904431"}, "label": "Mormant (77720)", "id": "admin:fr:77317", "zip_code": "77720"}], "timezone": "Europe/Paris", "id": "stop_area:OCE:SA:87116087"}, {"codes": [{"type": "CR-CI-CH", "value": "0087-391300-00"}, {"type": "CR-CI-CH", "value": "0087-391300-00"}, {"type": "UIC8", "value": "87391300"}, {"type": "external_code", "value": "OCE87391300"}], "name": "Morre", "links": [], "coord": {"lat": "47.22599", "lon": "6.067366"}, "label": "Morre (Morre)", "administrative_regions": [{"insee": "25410", "name": "Morre", "level": 8, "coord": {"lat": "47.2249856", "lon": "6.0647746"}, "label": "Morre (25660)", "id": "admin:fr:25410", "zip_code": "25660"}], "timezone": "Europe/Paris", "id": "stop_area:OCE:SA:87391300"}, {"codes": [{"type": "CR-CI-CH", "value": "0087-116244-00"}, {"type": "CR-CI-CH", "value": "0087-116244-00"}, {"type": "UIC8", "value": "87116244"}, {"type": "external_code", "value": "OCE87116244"}], "name": "Mortcerf", "links": [], "coord": {"lat": "48.789345", "lon": "2.907706"}, "label": "Mortcerf (Mortcerf)", "administrative_regions": [{"insee": "77318", "name": "Mortcerf", "level": 8, "coord": {"lat": "48.7894944", "lon": "2.9163265"}, "label": "Mortcerf (77163)", "id": "admin:fr:77318", "zip_code": "77163"}], "timezone": "Europe/Paris", "id": "stop_area:OCE:SA:87116244"}]}