{"pagination": {"start_page": 17, "items_on_page": 25, "items_per_page": 25, "total_result": 4343}, "links": [{"href": "https://api.sncf.com/v1/coverage/sncf/stop_areas/{stop_areas.id}", "type": "stop_areas", "rel": "stop_areas", "templated": true}, {"href": "https://api.sncf.com/v1/coverage/sncf/stop_areas/{stop_areas.id}/route_schedules", "type": "route_schedules", "rel": "route_schedules", "templated": true}, {"href": "https://api.sncf.com/v1/coverage/sncf/stop_areas/{stop_areas.id}/stop_schedules", "type": "stop_schedules", "rel": "stop_schedules", "templated": true}, {"href": "https://api.sncf.com/v1/coverage/sncf/stop_areas/{stop_areas.id}/arrivals", "type": "arrivals", "rel": "arrivals", "templated": true}, {"href": "https://api.sncf.com/v1/coverage/sncf/stop_areas/{stop_areas.id}/departures", "type": "departures", "rel": "departures", "templated": true}, {"href": "https://api.sncf.com/v1/coverage/sncf/stop_areas/{stop_areas.id}/places_nearby", "type": "places_nearby", "rel": "places_nearby", "templated": true}, {"href": "https://api.sncf.com/v1/coverage/sncf/stop_areas/{stop_areas.id}/journeys", "type": "journey", "rel": "journeys", "templated": true}, {"href": "https://api.sncf.com/v1/coverage/sncf/stop_areas/{stop_areas.id}/traffic_reports", "type": "disruption", "rel": "disruptions", "templated": true}, {"href": "https://api.sncf.com/v1/coverage/sncf/stop_areas?start_page=16", "type": "previous", "templated": false}, {"href": "https://api.sncf.com/v1/coverage/sncf/stop_areas?start_page=18", "type": "next", "templated": false}, {"href": "https://api.sncf.com/v1/coverage/sncf/stop_areas?start_page=173", "type": "last", "templated": false}, {"href": "https://api.sncf.com/v1/coverage/sncf/stop_areas", "type": "first", "templated": false}], "disruptions": [], "feed_publishers": [], "context": {"timezone": "Europe/Paris", "current_datetime": "20200210T135430"}, "stop_areas": [{"codes": [{"type": "CR-CI-CH", "value": "0087-271478-00"}, {"type": "CR-CI-CH", "value": "0087-271478-00"}, {"type": "UIC8", "value": "87271478"}, {"type": "external_code", "value": "OCE87271478"}], "name": "Blanc-Mesnil", "links": [], "coord": {"lat": "48.932461", "lon": "2.477379"}, "label": "Blanc-Mesnil (Le Blanc-Mesnil)", "administrative_regions": [{"insee": "93007", "name": "Le Blanc-Mesnil", "level": 8, "coord": {"lat": "48.9385489", "lon": "2.4631476"}, "label": "Le Blanc-Mesnil (93150)", "id": "admin:fr:93007", "zip_code": "93150"}], "timezone": "Europe/Paris", "id": "stop_area:OCE:SA:87271478"}, {"codes": [{"type": "CR-CI-CH", "value": "0087-146290-00"}, {"type": "CR-CI-CH", "value": "0087-146290-00"}, {"type": "UIC8", "value": "87146290"}, {"type": "external_code", "value": "OCE87146290"}], "name": "Blanchifontaine", "links": [], "coord": {"lat": "48.33861", "lon": "6.658604"}, "label": "Blanchifontaine (Rambervillers)", "administrative_regions": [{"insee": "88367", "name": "Rambervillers", "level": 8, "coord": {"lat": "48.3466306", "lon": "6.6361176"}, "label": "Rambervillers (88700)", "id": "admin:fr:88367", "zip_code": "88700"}], "timezone": "Europe/Paris", "id": "stop_area:OCE:SA:87146290"}, {"codes": [{"type": "CR-CI-CH", "value": "0087-313809-00"}, {"type": "CR-CI-CH", "value": "0087-313809-00"}, {"type": "UIC8", "value": "87313809"}, {"type": "external_code", "value": "OCE87313809"}], "name": "Blangy-sur-Bresle", "links": [], "coord": {"lat": "49.932369", "lon": "1.625632"}, "label": "Blangy-sur-Bresle (Blangy-sur-Bresle)", "administrative_regions": [{"insee": "76101", "name": "Blangy-sur-Bresle", "level": 8, "coord": {"lat": "49.9323757", "lon": "1.6296832"}, "label": "Blangy-sur-Bresle (76340)", "id": "admin:fr:76101", "zip_code": "76340"}], "timezone": "Europe/Paris", "id": "stop_area:OCE:SA:87313809"}, {"codes": [{"type": "CR-CI-CH", "value": "0087-581728-BV"}, {"type": "CR-CI-CH", "value": "0087-581728-BV"}, {"type": "UIC8", "value": "87581728"}, {"type": "external_code", "value": "OCE87581728"}], "name": "Blanquefort", "links": [], "coord": {"lat": "44.917534", "lon": "-0.623922"}, "label": "Blanquefort (Blanquefort)", "administrative_regions": [{"insee": "33056", "name": "Blanquefort", "level": 8, "coord": {"lat": "44.9109239", "lon": "-0.6369973"}, "label": "Blanquefort (33290)", "id": "admin:fr:33056", "zip_code": "33290"}], "timezone": "Europe/Paris", "id": "stop_area:OCE:SA:87581728"}, {"codes": [{"type": "CR-CI-CH", "value": "0087-694612-00"}, {"type": "CR-CI-CH", "value": "0087-694612-00"}, {"type": "UIC8", "value": "87694612"}, {"type": "external_code", "value": "OCE87694612"}], "name": "Blanzy", "links": [], "coord": {"lat": "46.693734", "lon": "4.39101"}, "label": "Blanzy (Blanzy)", "administrative_regions": [{"insee": "71040", "name": "Blanzy", "level": 8, "coord": {"lat": "46.7037419", "lon": "4.3899508"}, "label": "Blanzy (71450)", "id": "admin:fr:71040", "zip_code": "71450"}], "timezone": "Europe/Paris", "id": "stop_area:OCE:SA:87694612"}, {"codes": [{"type": "CR-CI-CH", "value": "0087-417477-00"}, {"type": "CR-CI-CH", "value": "0087-417477-00"}, {"type": "UIC8", "value": "87417477"}, {"type": "external_code", "value": "OCE87417477"}], "name": "Blesme-Centre", "links": [], "coord": {"lat": "48.72555", "lon": "4.776103"}, "label": "Blesme-Centre (Blesme)", "administrative_regions": [{"insee": "51068", "name": "Blesme", "level": 8, "coord": {"lat": "48.7256649", "lon": "4.7756008"}, "label": "Blesme (51340)", "id": "admin:fr:51068", "zip_code": "51340"}], "timezone": "Europe/Paris", "id": "stop_area:OCE:SA:87417477"}, {"codes": [{"type": "CR-CI-CH", "value": "0087-174326-BV"}, {"type": "CR-CI-CH", "value": "0087-174326-BV"}, {"type": "UIC8", "value": "87174326"}, {"type": "external_code", "value": "OCE87174326"}], "name": "Blesme-Haussignemont", "links": [], "coord": {"lat": "48.721554", "lon": "4.752511"}, "label": "Blesme-Haussignemont (Haussign\u00e9mont)", "administrative_regions": [{"insee": "51284", "name": "Haussign\u00e9mont", "level": 8, "coord": {"lat": "48.7189975", "lon": "4.7507877"}, "label": "Haussign\u00e9mont (51300)", "id": "admin:fr:51284", "zip_code": "51300"}], "timezone": "Europe/Paris", "id": "stop_area:OCE:SA:87174326"}, {"codes": [{"type": "CR-CI-CH", "value": "0087-574004-BV"}, {"type": "CR-CI-CH", "value": "0087-574004-BV"}, {"type": "UIC8", "value": "87574004"}, {"type": "external_code", "value": "OCE87574004"}], "name": "Blois-Chambord", "links": [], "coord": {"lat": "47.585424", "lon": "1.323728"}, "label": "Blois-Chambord (Blois)", "administrative_regions": [{"insee": "41018", "name": "Blois", "level": 8, "coord": {"lat": "47.5876861", "lon": "1.3337639"}, "label": "Blois (41000)", "id": "admin:fr:41018", "zip_code": "41000"}], "timezone": "Europe/Paris", "id": "stop_area:OCE:SA:87574004"}, {"codes": [{"type": "CR-CI-CH", "value": "0087-152322-00"}, {"type": "CR-CI-CH", "value": "0087-152322-00"}, {"type": "UIC8", "value": "87152322"}, {"type": "external_code", "value": "OCE87152322"}], "name": "Blonville Centre", "links": [], "coord": {"lat": "49.338607", "lon": "0.027771"}, "label": "Blonville Centre (Blonville-sur-Mer)", "administrative_regions": [{"insee": "14079", "name": "Blonville-sur-Mer", "level": 8, "coord": {"lat": "49.3391667", "lon": "0.0313889"}, "label": "Blonville-sur-Mer (14910)", "id": "admin:fr:14079", "zip_code": "14910"}], "timezone": "Europe/Paris", "id": "stop_area:OCE:SA:87152322"}, {"codes": [{"type": "CR-CI-CH", "value": "0087-444380-00"}, {"type": "CR-CI-CH", "value": "0087-444380-00"}, {"type": "UIC8", "value": "87444380"}, {"type": "external_code", "value": "OCE87444380"}], "name": "Blonville-B\u00e9nerville", "links": [], "coord": {"lat": "49.33123", "lon": "0.03535"}, "label": "Blonville-B\u00e9nerville (Blonville-sur-Mer)", "administrative_regions": [{"insee": "14079", "name": "Blonville-sur-Mer", "level": 8, "coord": {"lat": "49.3391667", "lon": "0.0313889"}, "label": "Blonville-sur-Mer (14910)", "id": "admin:fr:14079", "zip_code": "14910"}], "timezone": "Europe/Paris", "id": "stop_area:OCE:SA:87444380"}, {"codes": [{"type": "CR-CI-CH", "value": "0087-141721-HR"}, {"type": "CR-CI-CH", "value": "0087-141721-HR"}, {"type": "UIC8", "value": "87141721"}, {"type": "external_code", "value": "OCE87141721"}], "name": "Bl\u00e9nod-l\u00e8s-Toul-Les-Nau", "links": [], "coord": {"lat": "48.599503", "lon": "5.843529"}, "label": "Bl\u00e9nod-l\u00e8s-Toul-Les-Nau (Bl\u00e9nod-l\u00e8s-Toul)", "administrative_regions": [{"insee": "54080", "name": "Bl\u00e9nod-l\u00e8s-Toul", "level": 8, "coord": {"lat": "48.6000616", "lon": "5.8343375"}, "label": "Bl\u00e9nod-l\u00e8s-Toul (54113)", "id": "admin:fr:54080", "zip_code": "54113"}], "timezone": "Europe/Paris", "id": "stop_area:OCE:SA:87141721"}, {"codes": [{"type": "CR-CI-CH", "value": "0087-574475-BV"}, {"type": "CR-CI-CH", "value": "0087-574475-BV"}, {"type": "UIC8", "value": "87574475"}, {"type": "external_code", "value": "OCE87574475"}], "name": "Bl\u00e9r\u00e9-la-Croix", "links": [], "coord": {"lat": "47.337723", "lon": "0.987737"}, "label": "Bl\u00e9r\u00e9-la-Croix (La Croix-en-Touraine)", "administrative_regions": [{"insee": "37091", "name": "La Croix-en-Touraine", "level": 8, "coord": {"lat": "47.3404879", "lon": "0.989416"}, "label": "La Croix-en-Touraine (37150)", "id": "admin:fr:37091", "zip_code": "37150"}], "timezone": "Europe/Paris", "id": "stop_area:OCE:SA:87574475"}, {"codes": [{"type": "CR-CI-CH", "value": "0087-146019-00"}, {"type": "CR-CI-CH", "value": "0087-146019-00"}, {"type": "UIC8", "value": "87146019"}, {"type": "external_code", "value": "OCE87146019"}], "name": "Bocquegney", "links": [], "coord": {"lat": "48.218331", "lon": "6.30777"}, "label": "Bocquegney (Bocquegney)", "administrative_regions": [{"insee": "88063", "name": "Bocquegney", "level": 8, "coord": {"lat": "48.2203794", "lon": "6.3054055"}, "label": "Bocquegney (88270)", "id": "admin:fr:88063", "zip_code": "88270"}], "timezone": "Europe/Paris", "id": "stop_area:OCE:SA:87146019"}, {"codes": [{"type": "CR-CI-CH", "value": "0087-172049-00"}, {"type": "CR-CI-CH", "value": "0087-172049-00"}, {"type": "UIC8", "value": "87172049"}, {"type": "external_code", "value": "OCE87172049"}], "name": "Bogny-sur-Meuse", "links": [], "coord": {"lat": "49.858458", "lon": "4.763337"}, "label": "Bogny-sur-Meuse (Bogny-sur-Meuse)", "administrative_regions": [{"insee": "8081", "name": "Bogny-sur-Meuse", "level": 8, "coord": {"lat": "49.8508333", "lon": "4.7677778"}, "label": "Bogny-sur-Meuse (08120)", "id": "admin:fr:8081", "zip_code": "08120"}], "timezone": "Europe/Paris", "id": "stop_area:OCE:SA:87172049"}, {"codes": [{"type": "CR-CI-CH", "value": "0087-296269-00"}, {"type": "CR-CI-CH", "value": "0087-296269-00"}, {"type": "UIC8", "value": "87296269"}, {"type": "external_code", "value": "OCE87296269"}], "name": "Bohain", "links": [], "coord": {"lat": "49.988477", "lon": "3.443202"}, "label": "Bohain (Bohain-en-Vermandois)", "administrative_regions": [{"insee": "2095", "name": "Bohain-en-Vermandois", "level": 8, "coord": {"lat": "49.986708", "lon": "3.4547638"}, "label": "Bohain-en-Vermandois (02110)", "id": "admin:fr:2095", "zip_code": "02110"}], "timezone": "Europe/Paris", "id": "stop_area:OCE:SA:87296269"}, {"codes": [{"type": "CR-CI-CH", "value": "0087-684407-00"}, {"type": "CR-CI-CH", "value": "0087-684407-00"}, {"type": "UIC8", "value": "87684407"}, {"type": "external_code", "value": "OCE87684407"}], "name": "Boigneville", "links": [], "coord": {"lat": "48.34235", "lon": "2.378941"}, "label": "Boigneville (Boigneville)", "administrative_regions": [{"insee": "91069", "name": "Boigneville", "level": 8, "coord": {"lat": "48.3350668", "lon": "2.3741995"}, "label": "Boigneville (91720)", "id": "admin:fr:91069", "zip_code": "91720"}], "timezone": "Europe/Paris", "id": "stop_area:OCE:SA:87684407"}, {"codes": [{"type": "CR-CI-CH", "value": "0087-381079-BV"}, {"type": "CR-CI-CH", "value": "0087-381079-BV"}, {"type": "UIC8", "value": "87381079"}, {"type": "external_code", "value": "OCE87381079"}], "name": "Bois-Colombes", "links": [], "coord": {"lat": "48.913536", "lon": "2.272474"}, "label": "Bois-Colombes (Bois-Colombes)", "administrative_regions": [{"insee": "92009", "name": "Bois-Colombes", "level": 8, "coord": {"lat": "48.9148269", "lon": "2.2674892"}, "label": "Bois-Colombes (92270)", "id": "admin:fr:92009", "zip_code": "92270"}], "timezone": "Europe/Paris", "id": "stop_area:OCE:SA:87381079"}, {"codes": [{"type": "CR-CI-CH", "value": "0087-409763-00"}, {"type": "CR-CI-CH", "value": "0087-409763-00"}, {"type": "UIC8", "value": "87409763"}, {"type": "external_code", "value": "OCE87409763"}], "name": "Bois-d'Oingt-Centre", "links": [], "coord": {"lat": "45.921659", "lon": "4.585274"}, "label": "Bois-d'Oingt-Centre (Val d'Oingt)", "administrative_regions": [{"insee": "69024", "name": "Val d'Oingt", "level": 8, "coord": {"lat": "45.9211413", "lon": "4.5856762"}, "label": "Val d'Oingt", "id": "admin:fr:69024", "zip_code": ""}], "timezone": "Europe/Paris", "id": "stop_area:OCE:SA:87409763"}, {"codes": [{"type": "CR-CI-CH", "value": "0087-721787-00"}, {"type": "CR-CI-CH", "value": "0087-721787-00"}, {"type": "UIC8", "value": "87721787"}, {"type": "external_code", "value": "OCE87721787"}], "name": "Bois-d'Oingt-L\u00e9gny", "links": [], "coord": {"lat": "45.906588", "lon": "4.57558"}, "label": "Bois-d'Oingt-L\u00e9gny (L\u00e9gny)", "administrative_regions": [{"insee": "69111", "name": "L\u00e9gny", "level": 8, "coord": {"lat": "45.9090443", "lon": "4.5835886"}, "label": "L\u00e9gny (69620)", "id": "admin:fr:69111", "zip_code": "69620"}], "timezone": "Europe/Paris", "id": "stop_area:OCE:SA:87721787"}, {"codes": [{"type": "CR-CI-CH", "value": "0087-682203-00"}, {"type": "CR-CI-CH", "value": "0087-682203-00"}, {"type": "UIC8", "value": "87682203"}, {"type": "external_code", "value": "OCE87682203"}], "name": "Bois-le-Roi", "links": [], "coord": {"lat": "48.475567", "lon": "2.692001"}, "label": "Bois-le-Roi (Bois-le-Roi)", "administrative_regions": [{"insee": "77037", "name": "Bois-le-Roi", "level": 8, "coord": {"lat": "48.4754789", "lon": "2.6939537"}, "label": "Bois-le-Roi (77590)", "id": "admin:fr:77037", "zip_code": "77590"}], "timezone": "Europe/Paris", "id": "stop_area:OCE:SA:87682203"}, {"codes": [{"type": "CR-CI-CH", "value": "0087-342071-00"}, {"type": "CR-CI-CH", "value": "0087-342071-00"}, {"type": "UIC8", "value": "87342071"}, {"type": "external_code", "value": "OCE87342071"}], "name": "Boisleux", "links": [], "coord": {"lat": "50.210403", "lon": "2.771839"}, "label": "Boisleux (Boisleux-au-Mont)", "administrative_regions": [{"insee": "62151", "name": "Boisleux-au-Mont", "level": 8, "coord": {"lat": "50.2103355", "lon": "2.7814973"}, "label": "Boisleux-au-Mont (62175)", "id": "admin:fr:62151", "zip_code": "62175"}], "timezone": "Europe/Paris", "id": "stop_area:OCE:SA:87342071"}, {"codes": [{"type": "CR-CI-CH", "value": "0087-543082-BV"}, {"type": "CR-CI-CH", "value": "0087-543082-BV"}, {"type": "UIC8", "value": "87543082"}, {"type": "external_code", "value": "OCE87543082"}], "name": "Boisseaux", "links": [], "coord": {"lat": "48.256469", "lon": "1.972949"}, "label": "Boisseaux (Boisseaux)", "administrative_regions": [{"insee": "45037", "name": "Boisseaux", "level": 8, "coord": {"lat": "48.2564628", "lon": "1.986893"}, "label": "Boisseaux (45480)", "id": "admin:fr:45037", "zip_code": "45480"}], "timezone": "Europe/Paris", "id": "stop_area:OCE:SA:87543082"}, {"codes": [{"type": "CR-CI-CH", "value": "0087-645184-00"}, {"type": "CR-CI-CH", "value": "0087-645184-00"}, {"type": "UIC8", "value": "87645184"}, {"type": "external_code", "value": "OCE87645184"}], "name": "Boisset (Cantal)", "links": [], "coord": {"lat": "44.785817", "lon": "2.249439"}, "label": "Boisset (Cantal) (Boisset)", "administrative_regions": [{"insee": "15021", "name": "Boisset", "level": 8, "coord": {"lat": "44.7828149", "lon": "2.253915"}, "label": "Boisset (15600)", "id": "admin:fr:15021", "zip_code": "15600"}], "timezone": "Europe/Paris", "id": "stop_area:OCE:SA:87645184"}, {"codes": [{"type": "CR-CI-CH", "value": "0087-682518-00"}, {"type": "CR-CI-CH", "value": "0087-682518-00"}, {"type": "UIC8", "value": "87682518"}, {"type": "external_code", "value": "OCE87682518"}], "name": "Boissise-le-Roi", "links": [], "coord": {"lat": "48.529671", "lon": "2.571637"}, "label": "Boissise-le-Roi (Boissise-le-Roi)", "administrative_regions": [{"insee": "77040", "name": "Boissise-le-Roi", "level": 8, "coord": {"lat": "48.5280356", "lon": "2.5737655"}, "label": "Boissise-le-Roi (77310)", "id": "admin:fr:77040", "zip_code": "77310"}], "timezone": "Europe/Paris", "id": "stop_area:OCE:SA:87682518"}, {"codes": [{"type": "CR-CI-CH", "value": "0087-758201-00"}, {"type": "CR-CI-CH", "value": "0087-758201-00"}, {"type": "UIC8", "value": "87758201"}, {"type": "external_code", "value": "OCE87758201"}], "name": "Boissy-St-L\u00e9ger", "links": [], "coord": {"lat": "48.753042", "lon": "2.505345"}, "label": "Boissy-St-L\u00e9ger (Boissy-Saint-L\u00e9ger)", "administrative_regions": [{"insee": "94004", "name": "Boissy-Saint-L\u00e9ger", "level": 8, "coord": {"lat": "48.7479193", "lon": "2.5124717"}, "label": "Boissy-Saint-L\u00e9ger (94470)", "id": "admin:fr:94004", "zip_code": "94470"}], "timezone": "Europe/Paris", "id": "stop_area:OCE:SA:87758201"}]}