{"pagination": {"start_page": 39, "items_on_page": 25, "items_per_page": 25, "total_result": 4343}, "links": [{"href": "https://api.sncf.com/v1/coverage/sncf/stop_areas/{stop_areas.id}", "type": "stop_areas", "rel": "stop_areas", "templated": true}, {"href": "https://api.sncf.com/v1/coverage/sncf/stop_areas/{stop_areas.id}/route_schedules", "type": "route_schedules", "rel": "route_schedules", "templated": true}, {"href": "https://api.sncf.com/v1/coverage/sncf/stop_areas/{stop_areas.id}/stop_schedules", "type": "stop_schedules", "rel": "stop_schedules", "templated": true}, {"href": "https://api.sncf.com/v1/coverage/sncf/stop_areas/{stop_areas.id}/arrivals", "type": "arrivals", "rel": "arrivals", "templated": true}, {"href": "https://api.sncf.com/v1/coverage/sncf/stop_areas/{stop_areas.id}/departures", "type": "departures", "rel": "departures", "templated": true}, {"href": "https://api.sncf.com/v1/coverage/sncf/stop_areas/{stop_areas.id}/places_nearby", "type": "places_nearby", "rel": "places_nearby", "templated": true}, {"href": "https://api.sncf.com/v1/coverage/sncf/stop_areas/{stop_areas.id}/journeys", "type": "journey", "rel": "journeys", "templated": true}, {"href": "https://api.sncf.com/v1/coverage/sncf/stop_areas/{stop_areas.id}/traffic_reports", "type": "disruption", "rel": "disruptions", "templated": true}, {"href": "https://api.sncf.com/v1/coverage/sncf/stop_areas?start_page=38", "type": "previous", "templated": false}, {"href": "https://api.sncf.com/v1/coverage/sncf/stop_areas?start_page=40", "type": "next", "templated": false}, {"href": "https://api.sncf.com/v1/coverage/sncf/stop_areas?start_page=173", "type": "last", "templated": false}, {"href": "https://api.sncf.com/v1/coverage/sncf/stop_areas", "type": "first", "templated": false}], "disruptions": [], "feed_publishers": [], "context": {"timezone": "Europe/Paris", "current_datetime": "20200210T135432"}, "stop_areas": [{"codes": [{"type": "CR-CI-CH", "value": "0087-345132-00"}, {"type": "CR-CI-CH", "value": "0087-345132-00"}, {"type": "UIC8", "value": "87345132"}, {"type": "external_code", "value": "OCE87345132"}], "name": "Coron de M\u00e9ricourt", "links": [], "coord": {"lat": "50.414928", "lon": "2.88609"}, "label": "Coron de M\u00e9ricourt (M\u00e9ricourt)", "administrative_regions": [{"insee": "62570", "name": "M\u00e9ricourt", "level": 8, "coord": {"lat": "50.4015803", "lon": "2.8664217"}, "label": "M\u00e9ricourt (62680)", "id": "admin:fr:62570", "zip_code": "62680"}], "timezone": "Europe/Paris", "id": "stop_area:OCE:SA:87345132"}, {"codes": [{"type": "CR-CI-CH", "value": "0087-471326-00"}, {"type": "CR-CI-CH", "value": "0087-471326-00"}, {"type": "UIC8", "value": "87471326"}, {"type": "external_code", "value": "OCE87471326"}], "name": "Corps-Nuds", "links": [], "coord": {"lat": "47.985608", "lon": "-1.575469"}, "label": "Corps-Nuds (Corps-Nuds)", "administrative_regions": [{"insee": "35088", "name": "Corps-Nuds", "level": 8, "coord": {"lat": "47.9775099", "lon": "-1.5874103"}, "label": "Corps-Nuds (35150)", "id": "admin:fr:35088", "zip_code": "35150"}], "timezone": "Europe/Paris", "id": "stop_area:OCE:SA:87471326"}, {"codes": [{"type": "CR-CI-CH", "value": "0087-594119-00"}, {"type": "CR-CI-CH", "value": "0087-594119-00"}, {"type": "UIC8", "value": "87594119"}, {"type": "external_code", "value": "OCE87594119"}], "name": "Corr\u00e8ze", "links": [], "coord": {"lat": "45.329337", "lon": "1.880385"}, "label": "Corr\u00e8ze (Saint-Priest-de-Gimel)", "administrative_regions": [{"insee": "19236", "name": "Saint-Priest-de-Gimel", "level": 8, "coord": {"lat": "45.3004894", "lon": "1.8684999"}, "label": "Saint-Priest-de-Gimel (19800)", "id": "admin:fr:19236", "zip_code": "19800"}], "timezone": "Europe/Paris", "id": "stop_area:OCE:SA:87594119"}, {"codes": [{"type": "CR-CI-CH", "value": "0087-478180-00"}, {"type": "CR-CI-CH", "value": "0087-478180-00"}, {"type": "UIC8", "value": "87478180"}, {"type": "external_code", "value": "OCE87478180"}], "name": "Corseul-Languenan", "links": [], "coord": {"lat": "48.496002", "lon": "-2.141404"}, "label": "Corseul-Languenan (Languenan)", "administrative_regions": [{"insee": "22105", "name": "Languenan", "level": 8, "coord": {"lat": "48.510953", "lon": "-2.127031"}, "label": "Languenan (22130)", "id": "admin:fr:22105", "zip_code": "22130"}], "timezone": "Europe/Paris", "id": "stop_area:OCE:SA:87478180"}, {"codes": [{"type": "CR-CI-CH", "value": "0087-696146-00"}, {"type": "CR-CI-CH", "value": "0087-696146-00"}, {"type": "UIC8", "value": "87696146"}, {"type": "external_code", "value": "OCE87696146"}], "name": "Cosne-sur-Loire", "links": [], "coord": {"lat": "47.414026", "lon": "2.932089"}, "label": "Cosne-sur-Loire (Cosne-Cours-sur-Loire)", "administrative_regions": [{"insee": "58086", "name": "Cosne-Cours-sur-Loire", "level": 8, "coord": {"lat": "47.4115613", "lon": "2.9273937"}, "label": "Cosne-Cours-sur-Loire (58200)", "id": "admin:fr:58086", "zip_code": "58200"}], "timezone": "Europe/Paris", "id": "stop_area:OCE:SA:87696146"}, {"codes": [{"type": "CR-CI-CH", "value": "0087-499863-HR"}, {"type": "CR-CI-CH", "value": "0087-499863-HR"}, {"type": "UIC8", "value": "87499863"}, {"type": "external_code", "value": "OCE87499863"}], "name": "Cosne-sur-Loire-Sud", "links": [], "coord": {"lat": "47.396479", "lon": "2.922712"}, "label": "Cosne-sur-Loire-Sud (Cosne-Cours-sur-Loire)", "administrative_regions": [{"insee": "58086", "name": "Cosne-Cours-sur-Loire", "level": 8, "coord": {"lat": "47.4115613", "lon": "2.9273937"}, "label": "Cosne-Cours-sur-Loire (58200)", "id": "admin:fr:58086", "zip_code": "58200"}], "timezone": "Europe/Paris", "id": "stop_area:OCE:SA:87499863"}, {"codes": [{"type": "CR-CI-CH", "value": "0087-453654-HR"}, {"type": "CR-CI-CH", "value": "0087-453654-HR"}, {"type": "UIC8", "value": "87453654"}, {"type": "external_code", "value": "OCE87453654"}], "name": "Costaros", "links": [], "coord": {"lat": "44.89439", "lon": "3.849555"}, "label": "Costaros (Costaros)", "administrative_regions": [{"insee": "43077", "name": "Costaros", "level": 8, "coord": {"lat": "44.8942777", "lon": "3.8509059"}, "label": "Costaros (43490)", "id": "admin:fr:43077", "zip_code": "43490"}], "timezone": "Europe/Paris", "id": "stop_area:OCE:SA:87453654"}, {"codes": [{"type": "CR-CI-CH", "value": "0087-440701-00"}, {"type": "CR-CI-CH", "value": "0087-440701-00"}, {"type": "UIC8", "value": "87440701"}, {"type": "external_code", "value": "OCE87440701"}], "name": "Coubladour", "links": [], "coord": {"lat": "45.114995", "lon": "3.743683"}, "label": "Coubladour (Loudes)", "administrative_regions": [{"insee": "43124", "name": "Loudes", "level": 8, "coord": {"lat": "45.0877891", "lon": "3.7480733"}, "label": "Loudes (43320)", "id": "admin:fr:43124", "zip_code": "43320"}], "timezone": "Europe/Paris", "id": "stop_area:OCE:SA:87440701"}, {"codes": [{"type": "CR-CI-CH", "value": "0087-687400-HR"}, {"type": "UIC8", "value": "87687400"}, {"type": "external_code", "value": "OCE87687400"}], "name": "Coubladour-Rond-Point", "links": [], "coord": {"lat": "45.115374", "lon": "3.743527"}, "label": "Coubladour-Rond-Point (Loudes)", "administrative_regions": [{"insee": "43124", "name": "Loudes", "level": 8, "coord": {"lat": "45.0877891", "lon": "3.7480733"}, "label": "Loudes (43320)", "id": "admin:fr:43124", "zip_code": "43320"}], "timezone": "Europe/Paris", "id": "stop_area:OCE:SA:87687400"}, {"codes": [{"type": "CR-CI-CH", "value": "0087-171769-BV"}, {"type": "CR-CI-CH", "value": "0087-171769-BV"}, {"type": "UIC8", "value": "87171769"}, {"type": "external_code", "value": "OCE87171769"}], "name": "Coucy-les-Eppes", "links": [], "coord": {"lat": "49.555629", "lon": "3.775876"}, "label": "Coucy-les-Eppes (Coucy-l\u00e8s-Eppes)", "administrative_regions": [{"insee": "2218", "name": "Coucy-l\u00e8s-Eppes", "level": 8, "coord": {"lat": "49.5528", "lon": "3.76906"}, "label": "Coucy-l\u00e8s-Eppes (02840)", "id": "admin:fr:2218", "zip_code": "02840"}], "timezone": "Europe/Paris", "id": "stop_area:OCE:SA:87171769"}, {"codes": [{"type": "CR-CI-CH", "value": "0087-281402-00"}, {"type": "CR-CI-CH", "value": "0087-281402-00"}, {"type": "UIC8", "value": "87281402"}, {"type": "external_code", "value": "OCE87281402"}], "name": "Coudekerque Branche", "links": [], "coord": {"lat": "51.017921", "lon": "2.375089"}, "label": "Coudekerque Branche (Coudekerque-Branche)", "administrative_regions": [{"insee": "59155", "name": "Coudekerque-Branche", "level": 8, "coord": {"lat": "51.020878", "lon": "2.3894321"}, "label": "Coudekerque-Branche (59210)", "id": "admin:fr:59155", "zip_code": "59210"}], "timezone": "Europe/Paris", "id": "stop_area:OCE:SA:87281402"}, {"codes": [{"type": "CR-CI-CH", "value": "0087-681635-00"}, {"type": "CR-CI-CH", "value": "0087-681635-00"}, {"type": "UIC8", "value": "87681635"}, {"type": "external_code", "value": "OCE87681635"}], "name": "Coudray-Montceaux", "links": [], "coord": {"lat": "48.566362", "lon": "2.492743"}, "label": "Coudray-Montceaux (Le Coudray-Montceaux)", "administrative_regions": [{"insee": "91179", "name": "Le Coudray-Montceaux", "level": 8, "coord": {"lat": "48.5653177", "lon": "2.4855792"}, "label": "Le Coudray-Montceaux (91830)", "id": "admin:fr:91179", "zip_code": "91830"}], "timezone": "Europe/Paris", "id": "stop_area:OCE:SA:87681635"}, {"codes": [{"type": "CR-CI-CH", "value": "0087-615120-00"}, {"type": "CR-CI-CH", "value": "0087-615120-00"}, {"type": "UIC8", "value": "87615120"}, {"type": "external_code", "value": "OCE87615120"}], "name": "Couffoulens-Leuc", "links": [], "coord": {"lat": "43.155171", "lon": "2.316929"}, "label": "Couffoulens-Leuc (Couffoulens)", "administrative_regions": [{"insee": "11102", "name": "Couffoulens", "level": 8, "coord": {"lat": "43.1559", "lon": "2.30662"}, "label": "Couffoulens (11250)", "id": "admin:fr:11102", "zip_code": "11250"}], "timezone": "Europe/Paris", "id": "stop_area:OCE:SA:87615120"}, {"codes": [{"type": "CR-CI-CH", "value": "0087-640755-HR"}, {"type": "CR-CI-CH", "value": "0087-640755-HR"}, {"type": "UIC8", "value": "87640755"}, {"type": "external_code", "value": "OCE87640755"}], "name": "Couffoulens-Leuc-RD104", "links": [], "coord": {"lat": "0", "lon": "0"}, "label": "Couffoulens-Leuc-RD104", "timezone": "Europe/Paris", "id": "stop_area:OCE:SA:87640755"}, {"codes": [{"type": "CR-CI-CH", "value": "0087-116731-BV"}, {"type": "CR-CI-CH", "value": "0087-116731-BV"}, {"type": "UIC8", "value": "87116731"}, {"type": "external_code", "value": "OCE87116731"}], "name": "Couilly-St-Germ.-Quincy", "links": [], "coord": {"lat": "48.88265", "lon": "2.85406"}, "label": "Couilly-St-Germ.-Quincy (Saint-Germain-sur-Morin)", "administrative_regions": [{"insee": "77413", "name": "Saint-Germain-sur-Morin", "level": 8, "coord": {"lat": "48.8829414", "lon": "2.8514287"}, "label": "Saint-Germain-sur-Morin (77860)", "id": "admin:fr:77413", "zip_code": "77860"}], "timezone": "Europe/Paris", "id": "stop_area:OCE:SA:87116731"}, {"codes": [{"type": "CR-CI-CH", "value": "0087-615203-00"}, {"type": "CR-CI-CH", "value": "0087-615203-00"}, {"type": "UIC8", "value": "87615203"}, {"type": "external_code", "value": "OCE87615203"}], "name": "Couiza-Montazels", "links": [], "coord": {"lat": "42.9426", "lon": "2.248326"}, "label": "Couiza-Montazels (Montazels)", "administrative_regions": [{"insee": "11240", "name": "Montazels", "level": 8, "coord": {"lat": "42.9449274", "lon": "2.2466755"}, "label": "Montazels (11190)", "id": "admin:fr:11240", "zip_code": "11190"}], "timezone": "Europe/Paris", "id": "stop_area:OCE:SA:87615203"}, {"codes": [{"type": "CR-CI-CH", "value": "0087-640714-HR"}, {"type": "CR-CI-CH", "value": "0087-640714-HR"}, {"type": "UIC8", "value": "87640714"}, {"type": "external_code", "value": "OCE87640714"}], "name": "Couiza-Ste-Anne", "links": [], "coord": {"lat": "42.941446", "lon": "2.253671"}, "label": "Couiza-Ste-Anne (Couiza)", "administrative_regions": [{"insee": "11103", "name": "Couiza", "level": 8, "coord": {"lat": "42.9421253", "lon": "2.2544139"}, "label": "Couiza (11190)", "id": "admin:fr:11103", "zip_code": "11190"}], "timezone": "Europe/Paris", "id": "stop_area:OCE:SA:87640714"}, {"codes": [{"type": "CR-CI-CH", "value": "0087-696831-00"}, {"type": "CR-CI-CH", "value": "0087-696831-00"}, {"type": "UIC8", "value": "87696831"}, {"type": "external_code", "value": "OCE87696831"}], "name": "Coulanges-Sur-Yonne", "links": [], "coord": {"lat": "47.527366", "lon": "3.547154"}, "label": "Coulanges-Sur-Yonne (Crain)", "administrative_regions": [{"insee": "89129", "name": "Crain", "level": 8, "coord": {"lat": "47.5299808", "lon": "3.553813"}, "label": "Crain (89480)", "id": "admin:fr:89129", "zip_code": "89480"}], "timezone": "Europe/Paris", "id": "stop_area:OCE:SA:87696831"}, {"codes": [{"type": "CR-CI-CH", "value": "0087-314534-00"}, {"type": "CR-CI-CH", "value": "0087-314534-00"}, {"type": "UIC8", "value": "87314534"}, {"type": "external_code", "value": "OCE87314534"}], "name": "Coullons", "links": [], "coord": {"lat": "47.699165", "lon": "2.492493"}, "label": "Coullons (Saint-Florent)", "administrative_regions": [{"insee": "45277", "name": "Saint-Florent", "level": 8, "coord": {"lat": "47.6908664", "lon": "2.4746362"}, "label": "Saint-Florent (45600)", "id": "admin:fr:45277", "zip_code": "45600"}], "timezone": "Europe/Paris", "id": "stop_area:OCE:SA:87314534"}, {"codes": [{"type": "CR-CI-CH", "value": "0087-116301-00"}, {"type": "CR-CI-CH", "value": "0087-116301-00"}, {"type": "UIC8", "value": "87116301"}, {"type": "external_code", "value": "OCE87116301"}], "name": "Coulommiers", "links": [], "coord": {"lat": "48.807769", "lon": "3.082047"}, "label": "Coulommiers (Coulommiers)", "administrative_regions": [{"insee": "77131", "name": "Coulommiers", "level": 8, "coord": {"lat": "48.8121301", "lon": "3.0843818"}, "label": "Coulommiers (77120)", "id": "admin:fr:77131", "zip_code": "77120"}], "timezone": "Europe/Paris", "id": "stop_area:OCE:SA:87116301"}, {"codes": [{"type": "CR-CI-CH", "value": "0087-382200-00"}, {"type": "CR-CI-CH", "value": "0087-382200-00"}, {"type": "UIC8", "value": "87382200"}, {"type": "external_code", "value": "OCE87382200"}], "name": "Courbevoie", "links": [], "coord": {"lat": "48.898251", "lon": "2.247971"}, "label": "Courbevoie (Courbevoie)", "administrative_regions": [{"insee": "92026", "name": "Courbevoie", "level": 8, "coord": {"lat": "48.8953328", "lon": "2.2561602"}, "label": "Courbevoie (92400)", "id": "admin:fr:92026", "zip_code": "92400"}], "timezone": "Europe/Paris", "id": "stop_area:OCE:SA:87382200"}, {"codes": [{"type": "CR-CI-CH", "value": "0087-688960-HR"}, {"type": "UIC8", "value": "87688960"}, {"type": "external_code", "value": "OCE87688960"}], "name": "Courcay-Eglise", "links": [], "coord": {"lat": "47.249675", "lon": "0.876338"}, "label": "Courcay-Eglise (Cour\u00e7ay)", "administrative_regions": [{"insee": "37085", "name": "Cour\u00e7ay", "level": 8, "coord": {"lat": "47.2508873", "lon": "0.8760917"}, "label": "Cour\u00e7ay (37310)", "id": "admin:fr:37085", "zip_code": "37310"}], "timezone": "Europe/Paris", "id": "stop_area:OCE:SA:87688960"}, {"codes": [{"type": "CR-CI-CH", "value": "0087-644104-HR"}, {"type": "CR-CI-CH", "value": "0087-644104-HR"}, {"type": "UIC8", "value": "87644104"}, {"type": "external_code", "value": "OCE87644104"}], "name": "Courcay-Rouvre", "links": [], "coord": {"lat": "47.237889", "lon": "0.866435"}, "label": "Courcay-Rouvre (Cour\u00e7ay)", "administrative_regions": [{"insee": "37085", "name": "Cour\u00e7ay", "level": 8, "coord": {"lat": "47.2508873", "lon": "0.8760917"}, "label": "Cour\u00e7ay (37310)", "id": "admin:fr:37085", "zip_code": "37310"}], "timezone": "Europe/Paris", "id": "stop_area:OCE:SA:87644104"}, {"codes": [{"type": "CR-CI-CH", "value": "0087-571448-00"}, {"type": "CR-CI-CH", "value": "0087-571448-00"}, {"type": "UIC8", "value": "87571448"}, {"type": "external_code", "value": "OCE87571448"}], "name": "Courcay-Tauxigny", "links": [], "coord": {"lat": "47.237832", "lon": "0.867626"}, "label": "Courcay-Tauxigny (Cour\u00e7ay)", "administrative_regions": [{"insee": "37085", "name": "Cour\u00e7ay", "level": 8, "coord": {"lat": "47.2508873", "lon": "0.8760917"}, "label": "Cour\u00e7ay (37310)", "id": "admin:fr:37085", "zip_code": "37310"}], "timezone": "Europe/Paris", "id": "stop_area:OCE:SA:87571448"}, {"codes": [{"type": "CR-CI-CH", "value": "0087-758888-00"}, {"type": "CR-CI-CH", "value": "0087-758888-00"}, {"type": "UIC8", "value": "87758888"}, {"type": "external_code", "value": "OCE87758888"}], "name": "Courcelle-sur-Yvette", "links": [], "coord": {"lat": "48.700943", "lon": "2.099045"}, "label": "Courcelle-sur-Yvette (Gif-sur-Yvette)", "administrative_regions": [{"insee": "91272", "name": "Gif-sur-Yvette", "level": 8, "coord": {"lat": "48.7018823", "lon": "2.134529"}, "label": "Gif-sur-Yvette (91190)", "id": "admin:fr:91272", "zip_code": "91190"}], "timezone": "Europe/Paris", "id": "stop_area:OCE:SA:87758888"}]}