{"pagination": {"start_page": 6, "items_on_page": 25, "items_per_page": 25, "total_result": 4343}, "links": [{"href": "https://api.sncf.com/v1/coverage/sncf/stop_areas/{stop_areas.id}", "type": "stop_areas", "rel": "stop_areas", "templated": true}, {"href": "https://api.sncf.com/v1/coverage/sncf/stop_areas/{stop_areas.id}/route_schedules", "type": "route_schedules", "rel": "route_schedules", "templated": true}, {"href": "https://api.sncf.com/v1/coverage/sncf/stop_areas/{stop_areas.id}/stop_schedules", "type": "stop_schedules", "rel": "stop_schedules", "templated": true}, {"href": "https://api.sncf.com/v1/coverage/sncf/stop_areas/{stop_areas.id}/arrivals", "type": "arrivals", "rel": "arrivals", "templated": true}, {"href": "https://api.sncf.com/v1/coverage/sncf/stop_areas/{stop_areas.id}/departures", "type": "departures", "rel": "departures", "templated": true}, {"href": "https://api.sncf.com/v1/coverage/sncf/stop_areas/{stop_areas.id}/places_nearby", "type": "places_nearby", "rel": "places_nearby", "templated": true}, {"href": "https://api.sncf.com/v1/coverage/sncf/stop_areas/{stop_areas.id}/journeys", "type": "journey", "rel": "journeys", "templated": true}, {"href": "https://api.sncf.com/v1/coverage/sncf/stop_areas/{stop_areas.id}/traffic_reports", "type": "disruption", "rel": "disruptions", "templated": true}, {"href": "https://api.sncf.com/v1/coverage/sncf/stop_areas?start_page=5", "type": "previous", "templated": false}, {"href": "https://api.sncf.com/v1/coverage/sncf/stop_areas?start_page=7", "type": "next", "templated": false}, {"href": "https://api.sncf.com/v1/coverage/sncf/stop_areas?start_page=173", "type": "last", "templated": false}, {"href": "https://api.sncf.com/v1/coverage/sncf/stop_areas", "type": "first", "templated": false}], "disruptions": [], "feed_publishers": [], "context": {"timezone": "Europe/Paris", "current_datetime": "20200210T135429"}, "stop_areas": [{"codes": [{"type": "CR-CI-CH", "value": "0087-394486-00"}, {"type": "CR-CI-CH", "value": "0087-394486-00"}, {"type": "UIC8", "value": "87394486"}, {"type": "external_code", "value": "OCE87394486"}], "name": "Arrou", "links": [], "coord": {"lat": "48.099887", "lon": "1.128188"}, "label": "Arrou (Commune nouvelle d'Arrou)", "administrative_regions": [{"insee": "28012", "name": "Commune nouvelle d'Arrou", "level": 8, "coord": {"lat": "48.0995846", "lon": "1.1224687"}, "label": "Commune nouvelle d'Arrou (28220-28290)", "id": "admin:fr:28012", "zip_code": "28220;28290"}], "timezone": "Europe/Paris", "id": "stop_area:OCE:SA:87394486"}, {"codes": [{"type": "CR-CI-CH", "value": "0087-643957-HR"}, {"type": "CR-CI-CH", "value": "0087-643957-HR"}, {"type": "UIC8", "value": "87643957"}, {"type": "external_code", "value": "OCE87643957"}], "name": "Arrou-Place-De-L'eglise", "links": [], "coord": {"lat": "48.098097", "lon": "1.123007"}, "label": "Arrou-Place-De-L'eglise (Commune nouvelle d'Arrou)", "administrative_regions": [{"insee": "28012", "name": "Commune nouvelle d'Arrou", "level": 8, "coord": {"lat": "48.0995846", "lon": "1.1224687"}, "label": "Commune nouvelle d'Arrou (28220-28290)", "id": "admin:fr:28012", "zip_code": "28220;28290"}], "timezone": "Europe/Paris", "id": "stop_area:OCE:SA:87643957"}, {"codes": [{"type": "CR-CI-CH", "value": "0087-192401-00"}, {"type": "CR-CI-CH", "value": "0087-192401-00"}, {"type": "UIC8", "value": "87192401"}, {"type": "external_code", "value": "OCE87192401"}], "name": "Ars-sur-Moselle", "links": [], "coord": {"lat": "49.074565", "lon": "6.077928"}, "label": "Ars-sur-Moselle (Ars-sur-Moselle)", "administrative_regions": [{"insee": "57032", "name": "Ars-sur-Moselle", "level": 8, "coord": {"lat": "49.0769676", "lon": "6.0763114"}, "label": "Ars-sur-Moselle (57130)", "id": "admin:fr:57032", "zip_code": "57130"}], "timezone": "Europe/Paris", "id": "stop_area:OCE:SA:87192401"}, {"codes": [{"type": "CR-CI-CH", "value": "0087-215707-00"}, {"type": "CR-CI-CH", "value": "0087-215707-00"}, {"type": "UIC8", "value": "87215707"}, {"type": "external_code", "value": "OCE87215707"}], "name": "Arsonval", "links": [], "coord": {"lat": "48.268047", "lon": "4.648888"}, "label": "Arsonval (Arsonval)", "administrative_regions": [{"insee": "10012", "name": "Arsonval", "level": 8, "coord": {"lat": "48.2681338", "lon": "4.6511011"}, "label": "Arsonval (10200)", "id": "admin:fr:10012", "zip_code": "10200"}], "timezone": "Europe/Paris", "id": "stop_area:OCE:SA:87215707"}, {"codes": [{"type": "CR-CI-CH", "value": "0087-543058-BV"}, {"type": "CR-CI-CH", "value": "0087-543058-BV"}, {"type": "UIC8", "value": "87543058"}, {"type": "external_code", "value": "OCE87543058"}], "name": "Artenay", "links": [], "coord": {"lat": "48.080653", "lon": "1.883355"}, "label": "Artenay (Artenay)", "administrative_regions": [{"insee": "45008", "name": "Artenay", "level": 8, "coord": {"lat": "48.0825788", "lon": "1.8785823"}, "label": "Artenay (45410)", "id": "admin:fr:45008", "zip_code": "45410"}], "timezone": "Europe/Paris", "id": "stop_area:OCE:SA:87543058"}, {"codes": [{"type": "CR-CI-CH", "value": "0087-672212-BV"}, {"type": "CR-CI-CH", "value": "0087-672212-BV"}, {"type": "UIC8", "value": "87672212"}, {"type": "external_code", "value": "OCE87672212"}], "name": "Artix", "links": [], "coord": {"lat": "43.393198", "lon": "-0.570124"}, "label": "Artix (Artix)", "administrative_regions": [{"insee": "64061", "name": "Artix", "level": 8, "coord": {"lat": "43.397429", "lon": "-0.5722401"}, "label": "Artix (64170)", "id": "admin:fr:64061", "zip_code": "64170"}], "timezone": "Europe/Paris", "id": "stop_area:OCE:SA:87672212"}, {"codes": [{"type": "CR-CI-CH", "value": "0087-734251-BV"}, {"type": "CR-CI-CH", "value": "0087-734251-BV"}, {"type": "UIC8", "value": "87734251"}, {"type": "external_code", "value": "OCE87734251"}], "name": "Arvant", "links": [], "coord": {"lat": "45.365383", "lon": "3.310488"}, "label": "Arvant (Bournoncle-Saint-Pierre)", "administrative_regions": [{"insee": "43038", "name": "Bournoncle-Saint-Pierre", "level": 8, "coord": {"lat": "45.3433766", "lon": "3.3182435"}, "label": "Bournoncle-Saint-Pierre (43360)", "id": "admin:fr:43038", "zip_code": "43360"}], "timezone": "Europe/Paris", "id": "stop_area:OCE:SA:87734251"}, {"codes": [{"type": "CR-CI-CH", "value": "0087-463620-HR"}, {"type": "CR-CI-CH", "value": "0087-463620-HR"}, {"type": "UIC8", "value": "87463620"}, {"type": "external_code", "value": "OCE87463620"}], "name": "Arzviller-Ecole", "links": [], "coord": {"lat": "48.720368", "lon": "7.165954"}, "label": "Arzviller-Ecole (Arzviller)", "administrative_regions": [{"insee": "57033", "name": "Arzviller", "level": 8, "coord": {"lat": "48.7192049", "lon": "7.1651288"}, "label": "Arzviller (57405)", "id": "admin:fr:57033", "zip_code": "57405"}], "timezone": "Europe/Paris", "id": "stop_area:OCE:SA:87463620"}, {"codes": [{"type": "CR-CI-CH", "value": "0087-215152-BV"}, {"type": "CR-CI-CH", "value": "0087-215152-HR"}, {"type": "UIC8", "value": "87215152"}, {"type": "external_code", "value": "OCE87215152"}], "name": "Arzviller-rue-du-Plan-I", "links": [], "coord": {"lat": "48.717693", "lon": "7.164208"}, "label": "Arzviller-rue-du-Plan-I (Arzviller)", "administrative_regions": [{"insee": "57033", "name": "Arzviller", "level": 8, "coord": {"lat": "48.7192049", "lon": "7.1651288"}, "label": "Arzviller (57405)", "id": "admin:fr:57033", "zip_code": "57405"}], "timezone": "Europe/Paris", "id": "stop_area:OCE:SA:87215152"}, {"codes": [{"type": "CR-CI-CH", "value": "0087-286864-00"}, {"type": "CR-CI-CH", "value": "0087-286864-00"}, {"type": "UIC8", "value": "87286864"}, {"type": "external_code", "value": "OCE87286864"}], "name": "Ascq", "links": [], "coord": {"lat": "50.621746", "lon": "3.159874"}, "label": "Ascq (Villeneuve-d'Ascq)", "administrative_regions": [{"insee": "59009", "name": "Villeneuve-d'Ascq", "level": 8, "coord": {"lat": "50.6193174", "lon": "3.1314002"}, "label": "Villeneuve-d'Ascq (59491-59650)", "id": "admin:fr:59009", "zip_code": "59491;59650"}], "timezone": "Europe/Paris", "id": "stop_area:OCE:SA:87286864"}, {"codes": [{"type": "CR-CI-CH", "value": "0070-546606-BV"}, {"type": "CR-CI-CH", "value": "0070-546606-BV"}, {"type": "UIC8", "value": "70546606"}, {"type": "external_code", "value": "OCE70546606"}], "name": "Ashford-International", "links": [], "coord": {"lat": "51.143533", "lon": "0.874792"}, "label": "Ashford-International (Ashford)", "administrative_regions": [{"insee": "", "name": "Ashford", "level": 8, "coord": {"lat": "51.148555", "lon": "0.8722566"}, "label": "Ashford", "id": "admin:osm:relation:2068847", "zip_code": ""}], "timezone": "Europe/Paris", "id": "stop_area:OCE:SA:70546606"}, {"codes": [{"type": "CR-CI-CH", "value": "0087-381137-BV"}, {"type": "CR-CI-CH", "value": "0087-381137-BV"}, {"type": "UIC8", "value": "87381137"}, {"type": "external_code", "value": "OCE87381137"}], "name": "Asni\u00e8res", "links": [], "coord": {"lat": "48.905777", "lon": "2.283322"}, "label": "Asni\u00e8res (Asni\u00e8res-sur-Seine)", "administrative_regions": [{"insee": "92004", "name": "Asni\u00e8res-sur-Seine", "level": 8, "coord": {"lat": "48.9105948", "lon": "2.2890454"}, "label": "Asni\u00e8res-sur-Seine (92600)", "id": "admin:fr:92004", "zip_code": "92600"}], "timezone": "Europe/Paris", "id": "stop_area:OCE:SA:87381137"}, {"codes": [{"type": "CR-CI-CH", "value": "0087-641928-HR"}, {"type": "CR-CI-CH", "value": "0087-641928-HR"}, {"type": "UIC8", "value": "87641928"}, {"type": "external_code", "value": "OCE87641928"}], "name": "Aspach-Bs-Malakov", "links": [], "coord": {"lat": "47.761124", "lon": "7.15307"}, "label": "Aspach-Bs-Malakov (Aspach-le-Bas)", "administrative_regions": [{"insee": "68011", "name": "Aspach-le-Bas", "level": 8, "coord": {"lat": "47.7627813", "lon": "7.1529679"}, "label": "Aspach-le-Bas (68700)", "id": "admin:fr:68011", "zip_code": "68700"}], "timezone": "Europe/Paris", "id": "stop_area:OCE:SA:87641928"}, {"codes": [{"type": "CR-CI-CH", "value": "0087-641910-HR"}, {"type": "CR-CI-CH", "value": "0087-641910-HR"}, {"type": "UIC8", "value": "87641910"}, {"type": "external_code", "value": "OCE87641910"}], "name": "Aspach-le-Haut-(gare)", "links": [], "coord": {"lat": "47.768902", "lon": "7.141682"}, "label": "Aspach-le-Haut-(gare) (Aspach-Michelbach)", "administrative_regions": [{"insee": "68012", "name": "Aspach-Michelbach", "level": 8, "coord": {"lat": "47.7766483", "lon": "7.132489"}, "label": "Aspach-Michelbach", "id": "admin:fr:68012", "zip_code": ""}], "timezone": "Europe/Paris", "id": "stop_area:OCE:SA:87641910"}, {"codes": [{"type": "CR-CI-CH", "value": "0087-641902-HR"}, {"type": "CR-CI-CH", "value": "0087-641902-HR"}, {"type": "UIC8", "value": "87641902"}, {"type": "external_code", "value": "OCE87641902"}], "name": "Aspach-le-Haut-D103/34", "links": [], "coord": {"lat": "47.776125", "lon": "7.134103"}, "label": "Aspach-le-Haut-D103/34 (Aspach-Michelbach)", "administrative_regions": [{"insee": "68012", "name": "Aspach-Michelbach", "level": 8, "coord": {"lat": "47.7766483", "lon": "7.132489"}, "label": "Aspach-Michelbach", "id": "admin:fr:68012", "zip_code": ""}], "timezone": "Europe/Paris", "id": "stop_area:OCE:SA:87641902"}, {"codes": [{"type": "CR-CI-CH", "value": "0087-763250-00"}, {"type": "CR-CI-CH", "value": "0087-763250-00"}, {"type": "UIC8", "value": "87763250"}, {"type": "external_code", "value": "OCE87763250"}], "name": "Aspres-sur-Buech", "links": [], "coord": {"lat": "44.519393", "lon": "5.754555"}, "label": "Aspres-sur-Buech (Aspres-sur-Bu\u00ebch)", "administrative_regions": [{"insee": "5010", "name": "Aspres-sur-Bu\u00ebch", "level": 8, "coord": {"lat": "44.5219283", "lon": "5.7502024"}, "label": "Aspres-sur-Bu\u00ebch (05140)", "id": "admin:fr:5010", "zip_code": "05140"}], "timezone": "Europe/Paris", "id": "stop_area:OCE:SA:87763250"}, {"codes": [{"type": "CR-CI-CH", "value": "0087-672162-00"}, {"type": "CR-CI-CH", "value": "0087-672162-00"}, {"type": "UIC8", "value": "87672162"}, {"type": "external_code", "value": "OCE87672162"}], "name": "Assat", "links": [], "coord": {"lat": "43.254631", "lon": "-0.295222"}, "label": "Assat (Assat)", "administrative_regions": [{"insee": "64067", "name": "Assat", "level": 8, "coord": {"lat": "43.2495978", "lon": "-0.2990176"}, "label": "Assat (64510)", "id": "admin:fr:64067", "zip_code": "64510"}], "timezone": "Europe/Paris", "id": "stop_area:OCE:SA:87672162"}, {"codes": [{"type": "CR-CI-CH", "value": "0087-613075-00"}, {"type": "CR-CI-CH", "value": "0087-613075-00"}, {"type": "UIC8", "value": "87613075"}, {"type": "external_code", "value": "OCE87613075"}], "name": "Assier", "links": [], "coord": {"lat": "44.674593", "lon": "1.869747"}, "label": "Assier (Assier)", "administrative_regions": [{"insee": "46009", "name": "Assier", "level": 8, "coord": {"lat": "44.6753004", "lon": "1.8762866"}, "label": "Assier (46320)", "id": "admin:fr:46009", "zip_code": "46320"}], "timezone": "Europe/Paris", "id": "stop_area:OCE:SA:87613075"}, {"codes": [{"type": "CR-CI-CH", "value": "0087-165472-00"}, {"type": "CR-CI-CH", "value": "0087-165472-00"}, {"type": "UIC8", "value": "87165472"}, {"type": "external_code", "value": "OCE87165472"}], "name": "Assier-Ville", "links": [], "coord": {"lat": "44.67555", "lon": "1.876936"}, "label": "Assier-Ville (Assier)", "administrative_regions": [{"insee": "46009", "name": "Assier", "level": 8, "coord": {"lat": "44.6753004", "lon": "1.8762866"}, "label": "Assier (46320)", "id": "admin:fr:46009", "zip_code": "46320"}], "timezone": "Europe/Paris", "id": "stop_area:OCE:SA:87165472"}, {"codes": [{"type": "CR-CI-CH", "value": "0087-545251-00"}, {"type": "CR-CI-CH", "value": "0087-545251-00"}, {"type": "UIC8", "value": "87545251"}, {"type": "external_code", "value": "OCE87545251"}], "name": "Athis-Mons", "links": [], "coord": {"lat": "48.712794", "lon": "2.403143"}, "label": "Athis-Mons (Athis-Mons)", "administrative_regions": [{"insee": "91027", "name": "Athis-Mons", "level": 8, "coord": {"lat": "48.7079028", "lon": "2.3890941"}, "label": "Athis-Mons (91200)", "id": "admin:fr:91027", "zip_code": "91200"}], "timezone": "Europe/Paris", "id": "stop_area:OCE:SA:87545251"}, {"codes": [{"type": "CR-CI-CH", "value": "0087-751750-00"}, {"type": "CR-CI-CH", "value": "0087-751750-00"}, {"type": "UIC8", "value": "87751750"}, {"type": "external_code", "value": "OCE87751750"}], "name": "Aubagne", "links": [], "coord": {"lat": "43.296008", "lon": "5.566448"}, "label": "Aubagne (Aubagne)", "administrative_regions": [{"insee": "13005", "name": "Aubagne", "level": 8, "coord": {"lat": "43.2924385", "lon": "5.5703031"}, "label": "Aubagne (13400)", "id": "admin:fr:13005", "zip_code": "13400"}], "timezone": "Europe/Paris", "id": "stop_area:OCE:SA:87751750"}, {"codes": [{"type": "CR-CI-CH", "value": "0087-594465-BV"}, {"type": "CR-CI-CH", "value": "0087-594465-BV"}, {"type": "UIC8", "value": "87594465"}, {"type": "external_code", "value": "OCE87594465"}], "name": "Aubazine-St-Hilaire", "links": [], "coord": {"lat": "45.181764", "lon": "1.641725"}, "label": "Aubazine-St-Hilaire (Saint-Hilaire-Peyroux)", "administrative_regions": [{"insee": "19211", "name": "Saint-Hilaire-Peyroux", "level": 8, "coord": {"lat": "45.2136469", "lon": "1.6487046"}, "label": "Saint-Hilaire-Peyroux (19560)", "id": "admin:fr:19211", "zip_code": "19560"}], "timezone": "Europe/Paris", "id": "stop_area:OCE:SA:87594465"}, {"codes": [{"type": "CR-CI-CH", "value": "0087-391672-00"}, {"type": "CR-CI-CH", "value": "0087-391672-00"}, {"type": "UIC8", "value": "87391672"}, {"type": "external_code", "value": "OCE87391672"}], "name": "Aube-Centre RN 26", "links": [], "coord": {"lat": "48.739439", "lon": "0.545554"}, "label": "Aube-Centre RN 26 (Aube)", "administrative_regions": [{"insee": "61008", "name": "Aube", "level": 8, "coord": {"lat": "48.7394532", "lon": "0.5455642000000001"}, "label": "Aube (61270)", "id": "admin:fr:61008", "zip_code": "61270"}], "timezone": "Europe/Paris", "id": "stop_area:OCE:SA:87391672"}, {"codes": [{"type": "CR-CI-CH", "value": "0087-192104-00"}, {"type": "CR-CI-CH", "value": "0087-192104-00"}, {"type": "UIC8", "value": "87192104"}, {"type": "external_code", "value": "OCE87192104"}], "name": "Aubecourt", "links": [], "coord": {"lat": "48.995552", "lon": "6.428886"}, "label": "Aubecourt (R\u00e9milly)", "administrative_regions": [{"insee": "57572", "name": "R\u00e9milly", "level": 8, "coord": {"lat": "49.0116713", "lon": "6.3960587"}, "label": "R\u00e9milly (57580)", "id": "admin:fr:57572", "zip_code": "57580"}], "timezone": "Europe/Paris", "id": "stop_area:OCE:SA:87192104"}, {"codes": [{"type": "CR-CI-CH", "value": "0087-535096-HR"}, {"type": "CR-CI-CH", "value": "0087-535096-HR"}, {"type": "UIC8", "value": "87535096"}, {"type": "external_code", "value": "OCE87535096"}], "name": "Aubenas-Gare-Routi\u00e8re", "links": [], "coord": {"lat": "44.612264", "lon": "4.407595"}, "label": "Aubenas-Gare-Routi\u00e8re (Aubenas)", "administrative_regions": [{"insee": "7019", "name": "Aubenas", "level": 8, "coord": {"lat": "44.6205476", "lon": "4.3902399"}, "label": "Aubenas (07200)", "id": "admin:fr:7019", "zip_code": "07200"}], "timezone": "Europe/Paris", "id": "stop_area:OCE:SA:87535096"}]}