{"pagination": {"start_page": 144, "items_on_page": 25, "items_per_page": 25, "total_result": 4343}, "links": [{"href": "https://api.sncf.com/v1/coverage/sncf/stop_areas/{stop_areas.id}", "type": "stop_areas", "rel": "stop_areas", "templated": true}, {"href": "https://api.sncf.com/v1/coverage/sncf/stop_areas/{stop_areas.id}/route_schedules", "type": "route_schedules", "rel": "route_schedules", "templated": true}, {"href": "https://api.sncf.com/v1/coverage/sncf/stop_areas/{stop_areas.id}/stop_schedules", "type": "stop_schedules", "rel": "stop_schedules", "templated": true}, {"href": "https://api.sncf.com/v1/coverage/sncf/stop_areas/{stop_areas.id}/arrivals", "type": "arrivals", "rel": "arrivals", "templated": true}, {"href": "https://api.sncf.com/v1/coverage/sncf/stop_areas/{stop_areas.id}/departures", "type": "departures", "rel": "departures", "templated": true}, {"href": "https://api.sncf.com/v1/coverage/sncf/stop_areas/{stop_areas.id}/places_nearby", "type": "places_nearby", "rel": "places_nearby", "templated": true}, {"href": "https://api.sncf.com/v1/coverage/sncf/stop_areas/{stop_areas.id}/journeys", "type": "journey", "rel": "journeys", "templated": true}, {"href": "https://api.sncf.com/v1/coverage/sncf/stop_areas/{stop_areas.id}/traffic_reports", "type": "disruption", "rel": "disruptions", "templated": true}, {"href": "https://api.sncf.com/v1/coverage/sncf/stop_areas?start_page=143", "type": "previous", "templated": false}, {"href": "https://api.sncf.com/v1/coverage/sncf/stop_areas?start_page=145", "type": "next", "templated": false}, {"href": "https://api.sncf.com/v1/coverage/sncf/stop_areas?start_page=173", "type": "last", "templated": false}, {"href": "https://api.sncf.com/v1/coverage/sncf/stop_areas", "type": "first", "templated": false}], "disruptions": [], "feed_publishers": [], "context": {"timezone": "Europe/Paris", "current_datetime": "20200210T135449"}, "stop_areas": [{"codes": [{"type": "CR-CI-CH", "value": "0087-481812-00"}, {"type": "CR-CI-CH", "value": "0087-481812-00"}, {"type": "UIC8", "value": "87481812"}, {"type": "external_code", "value": "OCE87481812"}], "name": "St-Etienne-de-Montluc", "links": [], "coord": {"lat": "47.274767", "lon": "-1.785623"}, "label": "St-Etienne-de-Montluc (Saint-\u00c9tienne-de-Montluc)", "administrative_regions": [{"insee": "44158", "name": "Saint-\u00c9tienne-de-Montluc", "level": 8, "coord": {"lat": "47.2739351", "lon": "-1.7810546"}, "label": "Saint-\u00c9tienne-de-Montluc (44360)", "id": "admin:fr:44158", "zip_code": "44360"}], "timezone": "Europe/Paris", "id": "stop_area:OCE:SA:87481812"}, {"codes": [{"type": "CR-CI-CH", "value": "0087-411215-BV"}, {"type": "CR-CI-CH", "value": "0087-411215-BV"}, {"type": "UIC8", "value": "87411215"}, {"type": "external_code", "value": "OCE87411215"}], "name": "St-Etienne-du-Rouvray", "links": [], "coord": {"lat": "49.377126", "lon": "1.109422"}, "label": "St-Etienne-du-Rouvray (Saint-\u00c9tienne-du-Rouvray)", "administrative_regions": [{"insee": "76575", "name": "Saint-\u00c9tienne-du-Rouvray", "level": 8, "coord": {"lat": "49.3831", "lon": "1.09163"}, "label": "Saint-\u00c9tienne-du-Rouvray (76800)", "id": "admin:fr:76575", "zip_code": "76800"}], "timezone": "Europe/Paris", "id": "stop_area:OCE:SA:87411215"}, {"codes": [{"type": "CR-CI-CH", "value": "0087-726158-BV"}, {"type": "CR-CI-CH", "value": "0087-726158-BV"}, {"type": "UIC8", "value": "87726158"}, {"type": "external_code", "value": "OCE87726158"}], "name": "St-Etienne-la-Terrasse", "links": [], "coord": {"lat": "45.464852", "lon": "4.379529"}, "label": "St-Etienne-la-Terrasse (Saint-\u00c9tienne)", "administrative_regions": [{"insee": "42218", "name": "Saint-\u00c9tienne", "level": 8, "coord": {"lat": "45.4401467", "lon": "4.3873058"}, "label": "Saint-\u00c9tienne (42000-42100)", "id": "admin:fr:42218", "zip_code": "42000;42100"}], "timezone": "Europe/Paris", "id": "stop_area:OCE:SA:87726158"}, {"codes": [{"type": "CR-CI-CH", "value": "0087-726174-BV"}, {"type": "CR-CI-CH", "value": "0087-726174-BV"}, {"type": "UIC8", "value": "87726174"}, {"type": "external_code", "value": "OCE87726174"}], "name": "St-Etienne-le-Clapier", "links": [], "coord": {"lat": "45.437101", "lon": "4.378402"}, "label": "St-Etienne-le-Clapier (Saint-\u00c9tienne)", "administrative_regions": [{"insee": "42218", "name": "Saint-\u00c9tienne", "level": 8, "coord": {"lat": "45.4401467", "lon": "4.3873058"}, "label": "Saint-\u00c9tienne (42000-42100)", "id": "admin:fr:42218", "zip_code": "42000;42100"}], "timezone": "Europe/Paris", "id": "stop_area:OCE:SA:87726174"}, {"codes": [{"type": "CR-CI-CH", "value": "0087-175216-00"}, {"type": "CR-CI-CH", "value": "0087-175216-00"}, {"type": "UIC8", "value": "87175216"}, {"type": "external_code", "value": "OCE87175216"}], "name": "St-Eulien", "links": [], "coord": {"lat": "48.678227", "lon": "4.868117"}, "label": "St-Eulien (Saint-Eulien)", "administrative_regions": [{"insee": "51478", "name": "Saint-Eulien", "level": 8, "coord": {"lat": "48.6835772", "lon": "4.8825413"}, "label": "Saint-Eulien (52100)", "id": "admin:fr:51478", "zip_code": "52100"}], "timezone": "Europe/Paris", "id": "stop_area:OCE:SA:87175216"}, {"codes": [{"type": "CR-CI-CH", "value": "0087-682542-00"}, {"type": "CR-CI-CH", "value": "0087-682542-00"}, {"type": "UIC8", "value": "87682542"}, {"type": "external_code", "value": "OCE87682542"}], "name": "St-Fargeau", "links": [], "coord": {"lat": "48.564551", "lon": "2.542458"}, "label": "St-Fargeau (Saint-Fargeau-Ponthierry)", "administrative_regions": [{"insee": "77407", "name": "Saint-Fargeau-Ponthierry", "level": 8, "coord": {"lat": "48.5361215", "lon": "2.5273471"}, "label": "Saint-Fargeau-Ponthierry (77310)", "id": "admin:fr:77407", "zip_code": "77310"}], "timezone": "Europe/Paris", "id": "stop_area:OCE:SA:87682542"}, {"codes": [{"type": "CR-CI-CH", "value": "0087-453597-HR"}, {"type": "CR-CI-CH", "value": "0087-453597-HR"}, {"type": "UIC8", "value": "87453597"}, {"type": "external_code", "value": "OCE87453597"}], "name": "St-Florent-Sur-Cher-Gar", "links": [], "coord": {"lat": "46.99216", "lon": "2.252175"}, "label": "St-Florent-Sur-Cher-Gar (Saint-Florent-sur-Cher)", "administrative_regions": [{"insee": "18207", "name": "Saint-Florent-sur-Cher", "level": 8, "coord": {"lat": "46.9921896", "lon": "2.2552381"}, "label": "Saint-Florent-sur-Cher (18400)", "id": "admin:fr:18207", "zip_code": "18400"}], "timezone": "Europe/Paris", "id": "stop_area:OCE:SA:87453597"}, {"codes": [{"type": "CR-CI-CH", "value": "0087-576272-BV"}, {"type": "CR-CI-CH", "value": "0087-576272-BV"}, {"type": "UIC8", "value": "87576272"}, {"type": "external_code", "value": "OCE87576272"}], "name": "St-Florent-sur-Cher", "links": [], "coord": {"lat": "46.992115", "lon": "2.252149"}, "label": "St-Florent-sur-Cher (Saint-Florent-sur-Cher)", "administrative_regions": [{"insee": "18207", "name": "Saint-Florent-sur-Cher", "level": 8, "coord": {"lat": "46.9921896", "lon": "2.2552381"}, "label": "Saint-Florent-sur-Cher (18400)", "id": "admin:fr:18207", "zip_code": "18400"}], "timezone": "Europe/Paris", "id": "stop_area:OCE:SA:87576272"}, {"codes": [{"type": "CR-CI-CH", "value": "0087-310813-00"}, {"type": "CR-CI-CH", "value": "0087-310813-00"}, {"type": "UIC8", "value": "87310813"}, {"type": "external_code", "value": "OCE87310813"}], "name": "St-Florent-sur-Cher-M.", "links": [], "coord": {"lat": "46.992677", "lon": "2.245377"}, "label": "St-Florent-sur-Cher-M. (Saint-Florent-sur-Cher)", "administrative_regions": [{"insee": "18207", "name": "Saint-Florent-sur-Cher", "level": 8, "coord": {"lat": "46.9921896", "lon": "2.2552381"}, "label": "Saint-Florent-sur-Cher (18400)", "id": "admin:fr:18207", "zip_code": "18400"}], "timezone": "Europe/Paris", "id": "stop_area:OCE:SA:87310813"}, {"codes": [{"type": "CR-CI-CH", "value": "0087-683318-BV"}, {"type": "CR-CI-CH", "value": "0087-683318-BV"}, {"type": "UIC8", "value": "87683318"}, {"type": "external_code", "value": "OCE87683318"}], "name": "St-Florentin-Vergigny", "links": [], "coord": {"lat": "47.980415", "lon": "3.730949"}, "label": "St-Florentin-Vergigny (Vergigny)", "administrative_regions": [{"insee": "89439", "name": "Vergigny", "level": 8, "coord": {"lat": "47.9700616", "lon": "3.7197082"}, "label": "Vergigny (89600)", "id": "admin:fr:89439", "zip_code": "89600"}], "timezone": "Europe/Paris", "id": "stop_area:OCE:SA:87683318"}, {"codes": [{"type": "CR-CI-CH", "value": "0087-683334-HR"}, {"type": "CR-CI-CH", "value": "0087-683334-HR"}, {"type": "UIC8", "value": "87683334"}, {"type": "external_code", "value": "OCE87683334"}], "name": "St-Florentin-Ville", "links": [], "coord": {"lat": "48.004576", "lon": "3.74046"}, "label": "St-Florentin-Ville (Saint-Florentin)", "administrative_regions": [{"insee": "89345", "name": "Saint-Florentin", "level": 8, "coord": {"lat": "48.0017354", "lon": "3.7280324"}, "label": "Saint-Florentin (89600)", "id": "admin:fr:89345", "zip_code": "89600"}], "timezone": "Europe/Paris", "id": "stop_area:OCE:SA:87683334"}, {"codes": [{"type": "CR-CI-CH", "value": "0087-409524-00"}, {"type": "CR-CI-CH", "value": "0087-409524-00"}, {"type": "UIC8", "value": "87409524"}, {"type": "external_code", "value": "OCE87409524"}], "name": "St-Florine-Place-F-Mitt", "links": [], "coord": {"lat": "45.405458", "lon": "3.319404"}, "label": "St-Florine-Place-F-Mitt (Sainte-Florine)", "administrative_regions": [{"insee": "43185", "name": "Sainte-Florine", "level": 8, "coord": {"lat": "45.4030439", "lon": "3.3179282"}, "label": "Sainte-Florine (43250)", "id": "admin:fr:43185", "zip_code": "43250"}], "timezone": "Europe/Paris", "id": "stop_area:OCE:SA:87409524"}, {"codes": [{"type": "CR-CI-CH", "value": "0087-783175-00"}, {"type": "CR-CI-CH", "value": "0087-783175-00"}, {"type": "UIC8", "value": "87783175"}, {"type": "external_code", "value": "OCE87783175"}], "name": "St-Flour-Chaudes-Aigues", "links": [], "coord": {"lat": "45.034838", "lon": "3.106166"}, "label": "St-Flour-Chaudes-Aigues (Saint-Flour)", "administrative_regions": [{"insee": "15187", "name": "Saint-Flour", "level": 8, "coord": {"lat": "45.0334949", "lon": "3.0931009"}, "label": "Saint-Flour (15100)", "id": "admin:fr:15187", "zip_code": "15100"}], "timezone": "Europe/Paris", "id": "stop_area:OCE:SA:87783175"}, {"codes": [{"type": "CR-CI-CH", "value": "0087-395822-00"}, {"type": "CR-CI-CH", "value": "0087-395822-00"}, {"type": "CR-CI-CH", "value": "0087-395822-HR"}, {"type": "UIC8", "value": "87395822"}, {"type": "external_code", "value": "OCE87395822"}], "name": "St-Flour-les-All\u00e9es", "links": [], "coord": {"lat": "45.032936", "lon": "3.088367"}, "label": "St-Flour-les-All\u00e9es (Saint-Flour)", "administrative_regions": [{"insee": "15187", "name": "Saint-Flour", "level": 8, "coord": {"lat": "45.0334949", "lon": "3.0931009"}, "label": "Saint-Flour (15100)", "id": "admin:fr:15187", "zip_code": "15100"}], "timezone": "Europe/Paris", "id": "stop_area:OCE:SA:87395822"}, {"codes": [{"type": "CR-CI-CH", "value": "0087-611137-BV"}, {"type": "CR-CI-CH", "value": "0087-611137-BV"}, {"type": "UIC8", "value": "87611137"}, {"type": "external_code", "value": "OCE87611137"}], "name": "St-Gaudens", "links": [], "coord": {"lat": "43.104956", "lon": "0.729263"}, "label": "St-Gaudens (Saint-Gaudens)", "administrative_regions": [{"insee": "31483", "name": "Saint-Gaudens", "level": 8, "coord": {"lat": "43.1077682", "lon": "0.7247218"}, "label": "Saint-Gaudens (31800)", "id": "admin:fr:31483", "zip_code": "31800"}], "timezone": "Europe/Paris", "id": "stop_area:OCE:SA:87611137"}, {"codes": [{"type": "CR-CI-CH", "value": "0087-201582-00"}, {"type": "CR-CI-CH", "value": "0087-201582-00"}, {"type": "UIC8", "value": "87201582"}, {"type": "external_code", "value": "OCE87201582"}], "name": "St-Gaultier-Gendarmerie", "links": [], "coord": {"lat": "46.634292", "lon": "1.418469"}, "label": "St-Gaultier-Gendarmerie (Saint-Gaultier)", "administrative_regions": [{"insee": "36192", "name": "Saint-Gaultier", "level": 8, "coord": {"lat": "46.634348", "lon": "1.4192711"}, "label": "Saint-Gaultier (36800)", "id": "admin:fr:36192", "zip_code": "36800"}], "timezone": "Europe/Paris", "id": "stop_area:OCE:SA:87201582"}, {"codes": [{"type": "CR-CI-CH", "value": "0087-775361-00"}, {"type": "CR-CI-CH", "value": "0087-775361-00"}, {"type": "UIC8", "value": "87775361"}, {"type": "external_code", "value": "OCE87775361"}], "name": "St-Geni\u00e8s-de-Malgoir\u00e8s", "links": [], "coord": {"lat": "43.950539", "lon": "4.215112"}, "label": "St-Geni\u00e8s-de-Malgoir\u00e8s (Saint-Geni\u00e8s-de-Malgoir\u00e8s)", "administrative_regions": [{"insee": "30255", "name": "Saint-Geni\u00e8s-de-Malgoir\u00e8s", "level": 8, "coord": {"lat": "43.9461726", "lon": "4.2169644"}, "label": "Saint-Geni\u00e8s-de-Malgoir\u00e8s (30190)", "id": "admin:fr:30255", "zip_code": "30190"}], "timezone": "Europe/Paris", "id": "stop_area:OCE:SA:87775361"}, {"codes": [{"type": "CR-CI-CH", "value": "0087-644245-HR"}, {"type": "CR-CI-CH", "value": "0087-644245-HR"}, {"type": "UIC8", "value": "87644245"}, {"type": "external_code", "value": "OCE87644245"}], "name": "St-Genou-Brisepaille", "links": [], "coord": {"lat": "46.911978", "lon": "1.331216"}, "label": "St-Genou-Brisepaille (Saint-Genou)", "administrative_regions": [{"insee": "36194", "name": "Saint-Genou", "level": 8, "coord": {"lat": "46.9294741", "lon": "1.3390531"}, "label": "Saint-Genou (36500)", "id": "admin:fr:36194", "zip_code": "36500"}], "timezone": "Europe/Paris", "id": "stop_area:OCE:SA:87644245"}, {"codes": [{"type": "CR-CI-CH", "value": "0087-644252-HR"}, {"type": "CR-CI-CH", "value": "0087-644252-HR"}, {"type": "UIC8", "value": "87644252"}, {"type": "external_code", "value": "OCE87644252"}], "name": "St-Genou-Ecole", "links": [], "coord": {"lat": "46.927907", "lon": "1.337918"}, "label": "St-Genou-Ecole (Saint-Genou)", "administrative_regions": [{"insee": "36194", "name": "Saint-Genou", "level": 8, "coord": {"lat": "46.9294741", "lon": "1.3390531"}, "label": "Saint-Genou (36500)", "id": "admin:fr:36194", "zip_code": "36500"}], "timezone": "Europe/Paris", "id": "stop_area:OCE:SA:87644252"}, {"codes": [{"type": "CR-CI-CH", "value": "0087-644260-HR"}, {"type": "CR-CI-CH", "value": "0087-644260-HR"}, {"type": "UIC8", "value": "87644260"}, {"type": "external_code", "value": "OCE87644260"}], "name": "St-Genou-ZI", "links": [], "coord": {"lat": "46.905197", "lon": "1.354355"}, "label": "St-Genou-ZI (Saint-Genou)", "administrative_regions": [{"insee": "36194", "name": "Saint-Genou", "level": 8, "coord": {"lat": "46.9294741", "lon": "1.3390531"}, "label": "Saint-Genou (36500)", "id": "admin:fr:36194", "zip_code": "36500"}], "timezone": "Europe/Paris", "id": "stop_area:OCE:SA:87644260"}, {"codes": [{"type": "CR-CI-CH", "value": "0087-571851-00"}, {"type": "CR-CI-CH", "value": "0087-571851-00"}, {"type": "UIC8", "value": "87571851"}, {"type": "external_code", "value": "OCE87571851"}], "name": "St-Genouph", "links": [], "coord": {"lat": "47.370982", "lon": "0.5968869999999999"}, "label": "St-Genouph (Saint-Genouph)", "administrative_regions": [{"insee": "37219", "name": "Saint-Genouph", "level": 8, "coord": {"lat": "47.3774614", "lon": "0.5987517999999999"}, "label": "Saint-Genouph (37510)", "id": "admin:fr:37219", "zip_code": "37510"}], "timezone": "Europe/Paris", "id": "stop_area:OCE:SA:87571851"}, {"codes": [{"type": "CR-CI-CH", "value": "0087-731802-00"}, {"type": "CR-CI-CH", "value": "0087-731802-00"}, {"type": "UIC8", "value": "87731802"}, {"type": "external_code", "value": "OCE87731802"}], "name": "St-George-d'Aurac-Bourg", "links": [], "coord": {"lat": "45.156218", "lon": "3.540769"}, "label": "St-George-d'Aurac-Bourg (Saint-Georges-d'Aurac)", "administrative_regions": [{"insee": "43188", "name": "Saint-Georges-d'Aurac", "level": 8, "coord": {"lat": "45.1562006", "lon": "3.5405995"}, "label": "Saint-Georges-d'Aurac (43230)", "id": "admin:fr:43188", "zip_code": "43230"}], "timezone": "Europe/Paris", "id": "stop_area:OCE:SA:87731802"}, {"codes": [{"type": "CR-CI-CH", "value": "0087-589846-HR"}, {"type": "CR-CI-CH", "value": "0087-589846-HR"}, {"type": "UIC8", "value": "87589846"}, {"type": "external_code", "value": "OCE87589846"}], "name": "St-Georges-Mons-Ecoles", "links": [], "coord": {"lat": "45.93748", "lon": "2.840995"}, "label": "St-Georges-Mons-Ecoles (Saint-Georges-de-Mons)", "administrative_regions": [{"insee": "63349", "name": "Saint-Georges-de-Mons", "level": 8, "coord": {"lat": "45.9387966", "lon": "2.8406572"}, "label": "Saint-Georges-de-Mons (63780)", "id": "admin:fr:63349", "zip_code": "63780"}], "timezone": "Europe/Paris", "id": "stop_area:OCE:SA:87589846"}, {"codes": [{"type": "CR-CI-CH", "value": "0087-734301-00"}, {"type": "CR-CI-CH", "value": "0087-734301-00"}, {"type": "UIC8", "value": "87734301"}, {"type": "external_code", "value": "OCE87734301"}], "name": "St-Georges-d'Aurac", "links": [], "coord": {"lat": "45.160594", "lon": "3.494704"}, "label": "St-Georges-d'Aurac (Mazeyrat-d'Allier)", "administrative_regions": [{"insee": "43132", "name": "Mazeyrat-d'Allier", "level": 8, "coord": {"lat": "45.1220602", "lon": "3.5315491"}, "label": "Mazeyrat-d'Allier (43300)", "id": "admin:fr:43132", "zip_code": "43300"}], "timezone": "Europe/Paris", "id": "stop_area:OCE:SA:87734301"}, {"codes": [{"type": "CR-CI-CH", "value": "0087-747568-00"}, {"type": "CR-CI-CH", "value": "0087-747568-00"}, {"type": "UIC8", "value": "87747568"}, {"type": "external_code", "value": "OCE87747568"}], "name": "St-Georges-de-Commiers", "links": [], "coord": {"lat": "45.043723", "lon": "5.701176"}, "label": "St-Georges-de-Commiers (Saint-Georges-de-Commiers)", "administrative_regions": [{"insee": "38388", "name": "Saint-Georges-de-Commiers", "level": 8, "coord": {"lat": "45.0382653", "lon": "5.7040065"}, "label": "Saint-Georges-de-Commiers (38450)", "id": "admin:fr:38388", "zip_code": "38450"}], "timezone": "Europe/Paris", "id": "stop_area:OCE:SA:87747568"}]}