{"pagination": {"start_page": 158, "items_on_page": 25, "items_per_page": 25, "total_result": 4343}, "links": [{"href": "https://api.sncf.com/v1/coverage/sncf/stop_areas/{stop_areas.id}", "type": "stop_areas", "rel": "stop_areas", "templated": true}, {"href": "https://api.sncf.com/v1/coverage/sncf/stop_areas/{stop_areas.id}/route_schedules", "type": "route_schedules", "rel": "route_schedules", "templated": true}, {"href": "https://api.sncf.com/v1/coverage/sncf/stop_areas/{stop_areas.id}/stop_schedules", "type": "stop_schedules", "rel": "stop_schedules", "templated": true}, {"href": "https://api.sncf.com/v1/coverage/sncf/stop_areas/{stop_areas.id}/arrivals", "type": "arrivals", "rel": "arrivals", "templated": true}, {"href": "https://api.sncf.com/v1/coverage/sncf/stop_areas/{stop_areas.id}/departures", "type": "departures", "rel": "departures", "templated": true}, {"href": "https://api.sncf.com/v1/coverage/sncf/stop_areas/{stop_areas.id}/places_nearby", "type": "places_nearby", "rel": "places_nearby", "templated": true}, {"href": "https://api.sncf.com/v1/coverage/sncf/stop_areas/{stop_areas.id}/journeys", "type": "journey", "rel": "journeys", "templated": true}, {"href": "https://api.sncf.com/v1/coverage/sncf/stop_areas/{stop_areas.id}/traffic_reports", "type": "disruption", "rel": "disruptions", "templated": true}, {"href": "https://api.sncf.com/v1/coverage/sncf/stop_areas?start_page=157", "type": "previous", "templated": false}, {"href": "https://api.sncf.com/v1/coverage/sncf/stop_areas?start_page=159", "type": "next", "templated": false}, {"href": "https://api.sncf.com/v1/coverage/sncf/stop_areas?start_page=173", "type": "last", "templated": false}, {"href": "https://api.sncf.com/v1/coverage/sncf/stop_areas", "type": "first", "templated": false}], "disruptions": [], "feed_publishers": [], "context": {"timezone": "Europe/Paris", "current_datetime": "20200210T135450"}, "stop_areas": [{"codes": [{"type": "CR-CI-CH", "value": "0087-342303-00"}, {"type": "CR-CI-CH", "value": "0087-342303-00"}, {"type": "UIC8", "value": "87342303"}, {"type": "external_code", "value": "OCE87342303"}], "name": "Tincques", "links": [], "coord": {"lat": "50.357015", "lon": "2.497966"}, "label": "Tincques (Tincques)", "administrative_regions": [{"insee": "62820", "name": "Tincques", "level": 8, "coord": {"lat": "50.3580906", "lon": "2.4930379"}, "label": "Tincques (62127)", "id": "admin:fr:62820", "zip_code": "62127"}], "timezone": "Europe/Paris", "id": "stop_area:OCE:SA:87342303"}, {"codes": [{"type": "CR-CI-CH", "value": "0087-485151-00"}, {"type": "CR-CI-CH", "value": "0087-485151-00"}, {"type": "UIC8", "value": "87485151"}, {"type": "external_code", "value": "OCE87485151"}], "name": "Tonnay-Charente", "links": [], "coord": {"lat": "45.943378", "lon": "-0.897833"}, "label": "Tonnay-Charente (Tonnay-Charente)", "administrative_regions": [{"insee": "17449", "name": "Tonnay-Charente", "level": 8, "coord": {"lat": "45.9444898", "lon": "-0.892337"}, "label": "Tonnay-Charente (17430)", "id": "admin:fr:17449", "zip_code": "17430"}], "timezone": "Europe/Paris", "id": "stop_area:OCE:SA:87485151"}, {"codes": [{"type": "CR-CI-CH", "value": "0087-586651-BV"}, {"type": "CR-CI-CH", "value": "0087-586651-BV"}, {"type": "UIC8", "value": "87586651"}, {"type": "external_code", "value": "OCE87586651"}], "name": "Tonneins", "links": [], "coord": {"lat": "44.392805", "lon": "0.314129"}, "label": "Tonneins (Tonneins)", "administrative_regions": [{"insee": "47310", "name": "Tonneins", "level": 8, "coord": {"lat": "44.3905556", "lon": "0.3091667"}, "label": "Tonneins (47400)", "id": "admin:fr:47310", "zip_code": "47400"}], "timezone": "Europe/Paris", "id": "stop_area:OCE:SA:87586651"}, {"codes": [{"type": "CR-CI-CH", "value": "0087-713198-BV"}, {"type": "CR-CI-CH", "value": "0087-713198-BV"}, {"type": "UIC8", "value": "87713198"}, {"type": "external_code", "value": "OCE87713198"}], "name": "Tonnerre", "links": [], "coord": {"lat": "47.859603", "lon": "3.973496"}, "label": "Tonnerre (Tonnerre)", "administrative_regions": [{"insee": "89418", "name": "Tonnerre", "level": 8, "coord": {"lat": "47.8564662", "lon": "3.9733033"}, "label": "Tonnerre (89700)", "id": "admin:fr:89418", "zip_code": "89700"}], "timezone": "Europe/Paris", "id": "stop_area:OCE:SA:87713198"}, {"codes": [{"type": "CR-CI-CH", "value": "0087-758375-00"}, {"type": "CR-CI-CH", "value": "0087-758375-00"}, {"type": "UIC8", "value": "87758375"}, {"type": "external_code", "value": "OCE87758375"}], "name": "Torcy", "links": [], "coord": {"lat": "48.839345", "lon": "2.654743"}, "label": "Torcy (Torcy)", "administrative_regions": [{"insee": "77468", "name": "Torcy", "level": 8, "coord": {"lat": "48.8515", "lon": "2.65265"}, "label": "Torcy (77200)", "id": "admin:fr:77468", "zip_code": "77200"}], "timezone": "Europe/Paris", "id": "stop_area:OCE:SA:87758375"}, {"codes": [{"type": "CR-CI-CH", "value": "0087-486894-00"}, {"type": "CR-CI-CH", "value": "0087-486894-00"}, {"type": "UIC8", "value": "87486894"}, {"type": "external_code", "value": "OCE87486894"}], "name": "Torfou-Tiffauges", "links": [], "coord": {"lat": "47.033135", "lon": "-1.117308"}, "label": "Torfou-Tiffauges (S\u00e8vremoine)", "administrative_regions": [{"insee": "49301", "name": "S\u00e8vremoine", "level": 8, "coord": {"lat": "47.1239952", "lon": "-0.9946855"}, "label": "S\u00e8vremoine (49230-49710)", "id": "admin:fr:49301", "zip_code": "49230;49710"}], "timezone": "Europe/Paris", "id": "stop_area:OCE:SA:87486894"}, {"codes": [{"type": "CR-CI-CH", "value": "0083-002220-BV"}, {"type": "CR-CI-CH", "value": "0083-002220-BV"}, {"type": "UIC8", "value": "83002220"}, {"type": "external_code", "value": "OCE83002220"}], "name": "Torino PS (Turin)", "links": [], "coord": {"lat": "45.073892", "lon": "7.667513"}, "label": "Torino PS (Turin) (Torino)", "administrative_regions": [{"insee": "", "name": "Torino", "level": 8, "coord": {"lat": "45.0677551", "lon": "7.6824892"}, "label": "Torino", "id": "admin:osm:relation:43992", "zip_code": ""}], "timezone": "Europe/Paris", "id": "stop_area:OCE:SA:83002220"}, {"codes": [{"type": "CR-CI-CH", "value": "0087-718114-00"}, {"type": "CR-CI-CH", "value": "0087-718114-00"}, {"type": "UIC8", "value": "87718114"}, {"type": "external_code", "value": "OCE87718114"}], "name": "Torpes-Boussi\u00e8res", "links": [], "coord": {"lat": "47.16394", "lon": "5.888766"}, "label": "Torpes-Boussi\u00e8res (Torpes)", "administrative_regions": [{"insee": "25564", "name": "Torpes", "level": 8, "coord": {"lat": "47.1696593", "lon": "5.8905923"}, "label": "Torpes (25320)", "id": "admin:fr:25564", "zip_code": "25320"}], "timezone": "Europe/Paris", "id": "stop_area:OCE:SA:87718114"}, {"codes": [{"type": "CR-CI-CH", "value": "0087-756817-00"}, {"type": "CR-CI-CH", "value": "0087-756817-00"}, {"type": "UIC8", "value": "87756817"}, {"type": "external_code", "value": "OCE87756817"}], "name": "Touet-de-l'Escar\u00e8ne", "links": [], "coord": {"lat": "43.847039", "lon": "7.364373"}, "label": "Touet-de-l'Escar\u00e8ne (Tou\u00ebt-de-l'Escar\u00e8ne)", "administrative_regions": [{"insee": "6142", "name": "Tou\u00ebt-de-l'Escar\u00e8ne", "level": 8, "coord": {"lat": "43.847523", "lon": "7.3646018"}, "label": "Tou\u00ebt-de-l'Escar\u00e8ne (06440)", "id": "admin:fr:6142", "zip_code": "06440"}], "timezone": "Europe/Paris", "id": "stop_area:OCE:SA:87756817"}, {"codes": [{"type": "CR-CI-CH", "value": "0087-141044-BV"}, {"type": "CR-CI-CH", "value": "0087-141044-BV"}, {"type": "UIC8", "value": "87141044"}, {"type": "external_code", "value": "OCE87141044"}], "name": "Toul", "links": [], "coord": {"lat": "48.679041", "lon": "5.880577"}, "label": "Toul (Toul)", "administrative_regions": [{"insee": "54528", "name": "Toul", "level": 8, "coord": {"lat": "48.6762624", "lon": "5.8941759"}, "label": "Toul (54200)", "id": "admin:fr:54528", "zip_code": "54200"}], "timezone": "Europe/Paris", "id": "stop_area:OCE:SA:87141044"}, {"codes": [{"type": "CR-CI-CH", "value": "0087-405753-HR"}, {"type": "CR-CI-CH", "value": "0087-405753-HR"}, {"type": "UIC8", "value": "87405753"}, {"type": "external_code", "value": "OCE87405753"}], "name": "Toul-Gare-Routi\u00e8re", "links": [], "coord": {"lat": "48.674144", "lon": "5.88637"}, "label": "Toul-Gare-Routi\u00e8re (Toul)", "administrative_regions": [{"insee": "54528", "name": "Toul", "level": 8, "coord": {"lat": "48.6762624", "lon": "5.8941759"}, "label": "Toul (54200)", "id": "admin:fr:54528", "zip_code": "54200"}], "timezone": "Europe/Paris", "id": "stop_area:OCE:SA:87405753"}, {"codes": [{"type": "CR-CI-CH", "value": "0087-755009-BV"}, {"type": "CR-CI-CH", "value": "0087-755009-BV"}, {"type": "UIC8", "value": "87755009"}, {"type": "external_code", "value": "OCE87755009"}], "name": "Toulon", "links": [], "coord": {"lat": "43.128316", "lon": "5.929458"}, "label": "Toulon (Toulon)", "administrative_regions": [{"insee": "83137", "name": "Toulon", "level": 8, "coord": {"lat": "43.1257311", "lon": "5.9304919"}, "label": "Toulon (83000-83200)", "id": "admin:fr:83137", "zip_code": "83000;83200"}], "timezone": "Europe/Paris", "id": "stop_area:OCE:SA:87755009"}, {"codes": [{"type": "CR-CI-CH", "value": "0087-551945-HR"}, {"type": "CR-CI-CH", "value": "0087-551945-HR"}, {"type": "UIC8", "value": "87551945"}, {"type": "external_code", "value": "OCE87551945"}], "name": "Toulouse Argoulets", "links": [], "coord": {"lat": "0", "lon": "0"}, "label": "Toulouse Argoulets", "timezone": "Europe/Paris", "id": "stop_area:OCE:SA:87551945"}, {"codes": [{"type": "CR-CI-CH", "value": "0087-611004-BV"}, {"type": "CR-CI-CH", "value": "0087-611004-BV"}, {"type": "UIC8", "value": "87611004"}, {"type": "external_code", "value": "OCE87611004"}], "name": "Toulouse-Matabiau", "links": [], "coord": {"lat": "43.611464", "lon": "1.453558"}, "label": "Toulouse-Matabiau (Toulouse)", "administrative_regions": [{"insee": "31555", "name": "Toulouse", "level": 8, "coord": {"lat": "43.6044622", "lon": "1.4442469"}, "label": "Toulouse (31000-31500)", "id": "admin:fr:31555", "zip_code": "31000;31500"}], "timezone": "Europe/Paris", "id": "stop_area:OCE:SA:87611004"}, {"codes": [{"type": "CR-CI-CH", "value": "0087-698316-HR"}, {"type": "UIC8", "value": "87698316"}, {"type": "external_code", "value": "OCE87698316"}], "name": "Tour-de-Salvagny-Hyppo", "links": [], "coord": {"lat": "45.806348", "lon": "4.719652"}, "label": "Tour-de-Salvagny-Hyppo (La Tour-de-Salvagny)", "administrative_regions": [{"insee": "69250", "name": "La Tour-de-Salvagny", "level": 8, "coord": {"lat": "45.8129372", "lon": "4.7163893"}, "label": "La Tour-de-Salvagny (69890)", "id": "admin:fr:69250", "zip_code": "69890"}], "timezone": "Europe/Paris", "id": "stop_area:OCE:SA:87698316"}, {"codes": [{"type": "CR-CI-CH", "value": "0087-286542-BV"}, {"type": "CR-CI-CH", "value": "0087-286542-BV"}, {"type": "UIC8", "value": "87286542"}, {"type": "external_code", "value": "OCE87286542"}], "name": "Tourcoing", "links": [], "coord": {"lat": "50.716729", "lon": "3.168009"}, "label": "Tourcoing (Tourcoing)", "administrative_regions": [{"insee": "59599", "name": "Tourcoing", "level": 8, "coord": {"lat": "50.7235038", "lon": "3.1605714"}, "label": "Tourcoing (59200)", "id": "admin:fr:59599", "zip_code": "59200"}], "timezone": "Europe/Paris", "id": "stop_area:OCE:SA:87286542"}, {"codes": [{"type": "CR-CI-CH", "value": "0088-850016-BV"}, {"type": "CR-CI-CH", "value": "0088-850016-BV"}, {"type": "UIC8", "value": "88850010"}, {"type": "external_code", "value": "OCE88850010"}], "name": "Tournai", "links": [], "coord": {"lat": "50.612801", "lon": "3.3968"}, "label": "Tournai (Tournai)", "administrative_regions": [{"insee": "", "name": "Tournai", "level": 8, "coord": {"lat": "50.60566", "lon": "3.3878259"}, "label": "Tournai", "id": "admin:osm:relation:2162970", "zip_code": ""}], "timezone": "Europe/Paris", "id": "stop_area:OCE:SA:88850010"}, {"codes": [{"type": "CR-CI-CH", "value": "0087-116210-BV"}, {"type": "CR-CI-CH", "value": "0087-116210-BV"}, {"type": "UIC8", "value": "87116210"}, {"type": "external_code", "value": "OCE87116210"}], "name": "Tournan", "links": [], "coord": {"lat": "48.739199", "lon": "2.759396"}, "label": "Tournan (Tournan-en-Brie)", "administrative_regions": [{"insee": "77470", "name": "Tournan-en-Brie", "level": 8, "coord": {"lat": "48.740221", "lon": "2.7645237"}, "label": "Tournan-en-Brie (77220)", "id": "admin:fr:77470", "zip_code": "77220"}], "timezone": "Europe/Paris", "id": "stop_area:OCE:SA:87116210"}, {"codes": [{"type": "CR-CI-CH", "value": "0087-671172-00"}, {"type": "CR-CI-CH", "value": "0087-671172-00"}, {"type": "UIC8", "value": "87671172"}, {"type": "external_code", "value": "OCE87671172"}], "name": "Tournay (Htes-Pyr\u00e9n\u00e9es)", "links": [], "coord": {"lat": "43.183502", "lon": "0.238967"}, "label": "Tournay (Htes-Pyr\u00e9n\u00e9es) (Tournay)", "administrative_regions": [{"insee": "65447", "name": "Tournay", "level": 8, "coord": {"lat": "43.1838447", "lon": "0.2441345"}, "label": "Tournay (65190)", "id": "admin:fr:65447", "zip_code": "65190"}], "timezone": "Europe/Paris", "id": "stop_area:OCE:SA:87671172"}, {"codes": [{"type": "CR-CI-CH", "value": "0087-783456-00"}, {"type": "CR-CI-CH", "value": "0087-783456-00"}, {"type": "UIC8", "value": "87783456"}, {"type": "external_code", "value": "OCE87783456"}], "name": "Tournemire-Roquefort", "links": [], "coord": {"lat": "43.969983", "lon": "3.01658"}, "label": "Tournemire-Roquefort (Tournemire)", "administrative_regions": [{"insee": "12282", "name": "Tournemire", "level": 8, "coord": {"lat": "43.9694505", "lon": "3.0188119"}, "label": "Tournemire (12250)", "id": "admin:fr:12282", "zip_code": "12250"}], "timezone": "Europe/Paris", "id": "stop_area:OCE:SA:87783456"}, {"codes": [{"type": "CR-CI-CH", "value": "0087-761460-BV"}, {"type": "CR-CI-CH", "value": "0087-761460-BV"}, {"type": "UIC8", "value": "87761460"}, {"type": "external_code", "value": "OCE87761460"}], "name": "Tournon-Centre", "links": [], "coord": {"lat": "45.063213", "lon": "4.83434"}, "label": "Tournon-Centre (Tournon-sur-Rh\u00f4ne)", "administrative_regions": [{"insee": "7324", "name": "Tournon-sur-Rh\u00f4ne", "level": 8, "coord": {"lat": "45.0675156", "lon": "4.832852"}, "label": "Tournon-sur-Rh\u00f4ne (07300)", "id": "admin:fr:7324", "zip_code": "07300"}], "timezone": "Europe/Paris", "id": "stop_area:OCE:SA:87761460"}, {"codes": [{"type": "CR-CI-CH", "value": "0087-725622-00"}, {"type": "CR-CI-CH", "value": "0087-725622-00"}, {"type": "UIC8", "value": "87725622"}, {"type": "external_code", "value": "OCE87725622"}], "name": "Tournus", "links": [], "coord": {"lat": "46.566719", "lon": "4.906522"}, "label": "Tournus (Tournus)", "administrative_regions": [{"insee": "71543", "name": "Tournus", "level": 8, "coord": {"lat": "46.5636138", "lon": "4.9104079"}, "label": "Tournus (71700)", "id": "admin:fr:71543", "zip_code": "71700"}], "timezone": "Europe/Paris", "id": "stop_area:OCE:SA:87725622"}, {"codes": [{"type": "CR-CI-CH", "value": "0087-571000-BV"}, {"type": "CR-CI-CH", "value": "0087-571000-BV"}, {"type": "UIC8", "value": "87571000"}, {"type": "external_code", "value": "OCE87571000"}], "name": "Tours", "links": [], "coord": {"lat": "47.389814", "lon": "0.693505"}, "label": "Tours (Tours)", "administrative_regions": [{"insee": "37261", "name": "Tours", "level": 8, "coord": {"lat": "47.3900474", "lon": "0.6889268"}, "label": "Tours (37000-37200)", "id": "admin:fr:37261", "zip_code": "37000;37200"}], "timezone": "Europe/Paris", "id": "stop_area:OCE:SA:87571000"}, {"codes": [{"type": "CR-CI-CH", "value": "0087-411181-00"}, {"type": "CR-CI-CH", "value": "0087-411181-00"}, {"type": "UIC8", "value": "87411181"}, {"type": "external_code", "value": "OCE87411181"}], "name": "Tourville", "links": [], "coord": {"lat": "49.324554", "lon": "1.098568"}, "label": "Tourville (Tourville-la-Rivi\u00e8re)", "administrative_regions": [{"insee": "76705", "name": "Tourville-la-Rivi\u00e8re", "level": 8, "coord": {"lat": "49.330116", "lon": "1.1057844"}, "label": "Tourville-la-Rivi\u00e8re (76410)", "id": "admin:fr:76705", "zip_code": "76410"}], "timezone": "Europe/Paris", "id": "stop_area:OCE:SA:87411181"}, {"codes": [{"type": "CR-CI-CH", "value": "0087-543074-BV"}, {"type": "CR-CI-CH", "value": "0087-543074-BV"}, {"type": "UIC8", "value": "87543074"}, {"type": "external_code", "value": "OCE87543074"}], "name": "Toury", "links": [], "coord": {"lat": "48.187331", "lon": "1.936611"}, "label": "Toury (Toury)", "administrative_regions": [{"insee": "28391", "name": "Toury", "level": 8, "coord": {"lat": "48.1962708", "lon": "1.9363143"}, "label": "Toury (28310)", "id": "admin:fr:28391", "zip_code": "28310"}], "timezone": "Europe/Paris", "id": "stop_area:OCE:SA:87543074"}]}