{"pagination": {"start_page": 127, "items_on_page": 25, "items_per_page": 25, "total_result": 4343}, "links": [{"href": "https://api.sncf.com/v1/coverage/sncf/stop_areas/{stop_areas.id}", "type": "stop_areas", "rel": "stop_areas", "templated": true}, {"href": "https://api.sncf.com/v1/coverage/sncf/stop_areas/{stop_areas.id}/route_schedules", "type": "route_schedules", "rel": "route_schedules", "templated": true}, {"href": "https://api.sncf.com/v1/coverage/sncf/stop_areas/{stop_areas.id}/stop_schedules", "type": "stop_schedules", "rel": "stop_schedules", "templated": true}, {"href": "https://api.sncf.com/v1/coverage/sncf/stop_areas/{stop_areas.id}/arrivals", "type": "arrivals", "rel": "arrivals", "templated": true}, {"href": "https://api.sncf.com/v1/coverage/sncf/stop_areas/{stop_areas.id}/departures", "type": "departures", "rel": "departures", "templated": true}, {"href": "https://api.sncf.com/v1/coverage/sncf/stop_areas/{stop_areas.id}/places_nearby", "type": "places_nearby", "rel": "places_nearby", "templated": true}, {"href": "https://api.sncf.com/v1/coverage/sncf/stop_areas/{stop_areas.id}/journeys", "type": "journey", "rel": "journeys", "templated": true}, {"href": "https://api.sncf.com/v1/coverage/sncf/stop_areas/{stop_areas.id}/traffic_reports", "type": "disruption", "rel": "disruptions", "templated": true}, {"href": "https://api.sncf.com/v1/coverage/sncf/stop_areas?start_page=126", "type": "previous", "templated": false}, {"href": "https://api.sncf.com/v1/coverage/sncf/stop_areas?start_page=128", "type": "next", "templated": false}, {"href": "https://api.sncf.com/v1/coverage/sncf/stop_areas?start_page=173", "type": "last", "templated": false}, {"href": "https://api.sncf.com/v1/coverage/sncf/stop_areas", "type": "first", "templated": false}], "disruptions": [], "feed_publishers": [], "context": {"timezone": "Europe/Paris", "current_datetime": "20200210T135445"}, "stop_areas": [{"codes": [{"type": "CR-CI-CH", "value": "0087-295022-00"}, {"type": "CR-CI-CH", "value": "0087-295022-00"}, {"type": "UIC8", "value": "87295022"}, {"type": "external_code", "value": "OCE87295022"}], "name": "Recquignies", "links": [], "coord": {"lat": "50.28411", "lon": "4.044003"}, "label": "Recquignies (Recquignies)", "administrative_regions": [{"insee": "59495", "name": "Recquignies", "level": 8, "coord": {"lat": "50.2856052", "lon": "4.042929"}, "label": "Recquignies (59245)", "id": "admin:fr:59495", "zip_code": "59245"}], "timezone": "Europe/Paris", "id": "stop_area:OCE:SA:87295022"}, {"codes": [{"type": "CR-CI-CH", "value": "0087-215079-BV"}, {"type": "CR-CI-CH", "value": "0087-215079-BV"}, {"type": "UIC8", "value": "87215079"}, {"type": "external_code", "value": "OCE87215079"}], "name": "Reding", "links": [], "coord": {"lat": "48.742827", "lon": "7.09618"}, "label": "Reding (R\u00e9ding)", "administrative_regions": [{"insee": "57566", "name": "R\u00e9ding", "level": 8, "coord": {"lat": "48.7448986", "lon": "7.0977176"}, "label": "R\u00e9ding (57445)", "id": "admin:fr:57566", "zip_code": "57445"}], "timezone": "Europe/Paris", "id": "stop_area:OCE:SA:87215079"}, {"codes": [{"type": "CR-CI-CH", "value": "0087-471300-BV"}, {"type": "CR-CI-CH", "value": "0087-471300-BV"}, {"type": "UIC8", "value": "87471300"}, {"type": "external_code", "value": "OCE87471300"}], "name": "Redon", "links": [], "coord": {"lat": "47.651763", "lon": "-2.087877"}, "label": "Redon (Redon)", "administrative_regions": [{"insee": "35236", "name": "Redon", "level": 8, "coord": {"lat": "47.6510682", "lon": "-2.0842143"}, "label": "Redon (35600)", "id": "admin:fr:35236", "zip_code": "35600"}], "timezone": "Europe/Paris", "id": "stop_area:OCE:SA:87471300"}, {"codes": [{"type": "CR-CI-CH", "value": "0087-117135-00"}, {"type": "CR-CI-CH", "value": "0087-117135-00"}, {"type": "UIC8", "value": "87117135"}, {"type": "external_code", "value": "OCE87117135"}], "name": "Rehainviller Centre", "links": [], "coord": {"lat": "48.562601", "lon": "6.469999"}, "label": "Rehainviller Centre (Rehainviller)", "administrative_regions": [{"insee": "54449", "name": "Rehainviller", "level": 8, "coord": {"lat": "48.5619113", "lon": "6.4706562"}, "label": "Rehainviller (54300)", "id": "admin:fr:54449", "zip_code": "54300"}], "timezone": "Europe/Paris", "id": "stop_area:OCE:SA:87117135"}, {"codes": [{"type": "CR-CI-CH", "value": "0087-194449-00"}, {"type": "CR-CI-CH", "value": "0087-194449-00"}, {"type": "UIC8", "value": "87194449"}, {"type": "external_code", "value": "OCE87194449"}], "name": "Rehon", "links": [], "coord": {"lat": "49.50863", "lon": "5.755632"}, "label": "Rehon (R\u00e9hon)", "administrative_regions": [{"insee": "54451", "name": "R\u00e9hon", "level": 8, "coord": {"lat": "49.5014297", "lon": "5.7535172"}, "label": "R\u00e9hon (54430)", "id": "admin:fr:54451", "zip_code": "54430"}], "timezone": "Europe/Paris", "id": "stop_area:OCE:SA:87194449"}, {"codes": [{"type": "CR-CI-CH", "value": "0087-477570-HR"}, {"type": "CR-CI-CH", "value": "0087-477570-HR"}, {"type": "UIC8", "value": "87477570"}, {"type": "external_code", "value": "OCE87477570"}], "name": "Rehon-Poste", "links": [], "coord": {"lat": "49.504192", "lon": "5.754259"}, "label": "Rehon-Poste (R\u00e9hon)", "administrative_regions": [{"insee": "54451", "name": "R\u00e9hon", "level": 8, "coord": {"lat": "49.5014297", "lon": "5.7535172"}, "label": "R\u00e9hon (54430)", "id": "admin:fr:54451", "zip_code": "54430"}], "timezone": "Europe/Paris", "id": "stop_area:OCE:SA:87477570"}, {"codes": [{"type": "CR-CI-CH", "value": "0087-213231-00"}, {"type": "CR-CI-CH", "value": "0087-213231-00"}, {"type": "UIC8", "value": "87213231"}, {"type": "external_code", "value": "OCE87213231"}], "name": "Reichshoffen-Usines", "links": [], "coord": {"lat": "48.919457", "lon": "7.652459"}, "label": "Reichshoffen-Usines (Reichshoffen)", "administrative_regions": [{"insee": "67388", "name": "Reichshoffen", "level": 8, "coord": {"lat": "48.9335648", "lon": "7.667539"}, "label": "Reichshoffen (67110)", "id": "admin:fr:67388", "zip_code": "67110"}], "timezone": "Europe/Paris", "id": "stop_area:OCE:SA:87213231"}, {"codes": [{"type": "CR-CI-CH", "value": "0087-213249-00"}, {"type": "CR-CI-CH", "value": "0087-213249-00"}, {"type": "UIC8", "value": "87213249"}, {"type": "external_code", "value": "OCE87213249"}], "name": "Reichshoffen-Ville", "links": [], "coord": {"lat": "48.930713", "lon": "7.657977"}, "label": "Reichshoffen-Ville (Reichshoffen)", "administrative_regions": [{"insee": "67388", "name": "Reichshoffen", "level": 8, "coord": {"lat": "48.9335648", "lon": "7.667539"}, "label": "Reichshoffen (67110)", "id": "admin:fr:67388", "zip_code": "67110"}], "timezone": "Europe/Paris", "id": "stop_area:OCE:SA:87213249"}, {"codes": [{"type": "CR-CI-CH", "value": "0087-571455-00"}, {"type": "CR-CI-CH", "value": "0087-571455-00"}, {"type": "UIC8", "value": "87571455"}, {"type": "external_code", "value": "OCE87571455"}], "name": "Reignac", "links": [], "coord": {"lat": "47.217787", "lon": "0.901295"}, "label": "Reignac (Reignac-sur-Indre)", "administrative_regions": [{"insee": "37192", "name": "Reignac-sur-Indre", "level": 8, "coord": {"lat": "47.2323025", "lon": "0.9163536"}, "label": "Reignac-sur-Indre (37310)", "id": "admin:fr:37192", "zip_code": "37310"}], "timezone": "Europe/Paris", "id": "stop_area:OCE:SA:87571455"}, {"codes": [{"type": "CR-CI-CH", "value": "0087-689745-HR"}, {"type": "UIC8", "value": "87689745"}, {"type": "external_code", "value": "OCE87689745"}], "name": "Reignac-Bourg-Du-Fau", "links": [], "coord": {"lat": "47.227175", "lon": "0.9154"}, "label": "Reignac-Bourg-Du-Fau (Reignac-sur-Indre)", "administrative_regions": [{"insee": "37192", "name": "Reignac-sur-Indre", "level": 8, "coord": {"lat": "47.2323025", "lon": "0.9163536"}, "label": "Reignac-sur-Indre (37310)", "id": "admin:fr:37192", "zip_code": "37310"}], "timezone": "Europe/Paris", "id": "stop_area:OCE:SA:87689745"}, {"codes": [{"type": "CR-CI-CH", "value": "0087-337527-00"}, {"type": "CR-CI-CH", "value": "0087-337527-00"}, {"type": "UIC8", "value": "87337527"}, {"type": "external_code", "value": "OCE87337527"}], "name": "Reignac-Caf\u00e9-Brul\u00e9", "links": [], "coord": {"lat": "47.226936", "lon": "0.9149969999999999"}, "label": "Reignac-Caf\u00e9-Brul\u00e9 (Reignac-sur-Indre)", "administrative_regions": [{"insee": "37192", "name": "Reignac-sur-Indre", "level": 8, "coord": {"lat": "47.2323025", "lon": "0.9163536"}, "label": "Reignac-sur-Indre (37310)", "id": "admin:fr:37192", "zip_code": "37310"}], "timezone": "Europe/Paris", "id": "stop_area:OCE:SA:87337527"}, {"codes": [{"type": "CR-CI-CH", "value": "0087-644237-HR"}, {"type": "CR-CI-CH", "value": "0087-644237-HR"}, {"type": "UIC8", "value": "87644237"}, {"type": "external_code", "value": "OCE87644237"}], "name": "Reignac-Jonquilles", "links": [], "coord": {"lat": "47.225729", "lon": "0.920721"}, "label": "Reignac-Jonquilles (Reignac-sur-Indre)", "administrative_regions": [{"insee": "37192", "name": "Reignac-sur-Indre", "level": 8, "coord": {"lat": "47.2323025", "lon": "0.9163536"}, "label": "Reignac-sur-Indre (37310)", "id": "admin:fr:37192", "zip_code": "37310"}], "timezone": "Europe/Paris", "id": "stop_area:OCE:SA:87644237"}, {"codes": [{"type": "CR-CI-CH", "value": "0087-746511-00"}, {"type": "CR-CI-CH", "value": "0087-746511-00"}, {"type": "UIC8", "value": "87746511"}, {"type": "external_code", "value": "OCE87746511"}], "name": "Reignier", "links": [], "coord": {"lat": "46.125617", "lon": "6.267536"}, "label": "Reignier (Reignier-\u00c9sery)", "administrative_regions": [{"insee": "74220", "name": "Reignier-\u00c9sery", "level": 8, "coord": {"lat": "46.135912", "lon": "6.2690798"}, "label": "Reignier-\u00c9sery (74930)", "id": "admin:fr:74220", "zip_code": "74930"}], "timezone": "Europe/Paris", "id": "stop_area:OCE:SA:87746511"}, {"codes": [{"type": "CR-CI-CH", "value": "0087-171009-BV"}, {"type": "CR-CI-CH", "value": "0087-171009-BV"}, {"type": "UIC8", "value": "87171009"}, {"type": "external_code", "value": "OCE87171009"}], "name": "Reims", "links": [], "coord": {"lat": "49.259066", "lon": "4.024017"}, "label": "Reims (Reims)", "administrative_regions": [{"insee": "51454", "name": "Reims", "level": 8, "coord": {"lat": "49.2577886", "lon": "4.031926"}, "label": "Reims (51100)", "id": "admin:fr:51454", "zip_code": "51100"}], "timezone": "Europe/Paris", "id": "stop_area:OCE:SA:87171009"}, {"codes": [{"type": "CR-CI-CH", "value": "0087-171272-00"}, {"type": "CR-CI-CH", "value": "0087-171272-00"}, {"type": "UIC8", "value": "87171272"}, {"type": "external_code", "value": "OCE87171272"}], "name": "Reims-Maison-Blanche", "links": [], "coord": {"lat": "49.233392", "lon": "4.022709"}, "label": "Reims-Maison-Blanche (Reims)", "administrative_regions": [{"insee": "51454", "name": "Reims", "level": 8, "coord": {"lat": "49.2577886", "lon": "4.031926"}, "label": "Reims (51100)", "id": "admin:fr:51454", "zip_code": "51100"}], "timezone": "Europe/Paris", "id": "stop_area:OCE:SA:87171272"}, {"codes": [{"type": "CR-CI-CH", "value": "0087-654442-HR"}, {"type": "CR-CI-CH", "value": "0087-654442-HR"}, {"type": "UIC8", "value": "87654442"}, {"type": "external_code", "value": "OCE87654442"}], "name": "Reipertswiller-SP.", "links": [], "coord": {"lat": "48.933253", "lon": "7.464091"}, "label": "Reipertswiller-SP. (Reipertswiller)", "administrative_regions": [{"insee": "67392", "name": "Reipertswiller", "level": 8, "coord": {"lat": "48.9327796", "lon": "7.465091"}, "label": "Reipertswiller (67340)", "id": "admin:fr:67392", "zip_code": "67340"}], "timezone": "Europe/Paris", "id": "stop_area:OCE:SA:87654442"}, {"codes": [{"type": "CR-CI-CH", "value": "0087-407411-00"}, {"type": "CR-CI-CH", "value": "0087-407411-00"}, {"type": "UIC8", "value": "87407411"}, {"type": "external_code", "value": "OCE87407411"}], "name": "Remanvillers", "links": [], "coord": {"lat": "47.900028", "lon": "6.727834"}, "label": "Remanvillers (Ferdrupt)", "administrative_regions": [{"insee": "88170", "name": "Ferdrupt", "level": 8, "coord": {"lat": "47.9083782", "lon": "6.710042"}, "label": "Ferdrupt (88360)", "id": "admin:fr:88170", "zip_code": "88360"}], "timezone": "Europe/Paris", "id": "stop_area:OCE:SA:87407411"}, {"codes": [{"type": "CR-CI-CH", "value": "0087-191411-00"}, {"type": "CR-CI-CH", "value": "0087-191411-00"}, {"type": "UIC8", "value": "87191411"}, {"type": "external_code", "value": "OCE87191411"}], "name": "Remelfang", "links": [], "coord": {"lat": "49.272123", "lon": "6.504515"}, "label": "Remelfang (R\u00e9melfang)", "administrative_regions": [{"insee": "57567", "name": "R\u00e9melfang", "level": 8, "coord": {"lat": "49.2702644", "lon": "6.509277"}, "label": "R\u00e9melfang (57320)", "id": "admin:fr:57567", "zip_code": "57320"}], "timezone": "Europe/Paris", "id": "stop_area:OCE:SA:87191411"}, {"codes": [{"type": "CR-CI-CH", "value": "0087-703421-HR"}, {"type": "UIC8", "value": "87703421"}, {"type": "external_code", "value": "OCE87703421"}], "name": "Remelfing-Centre", "links": [], "coord": {"lat": "49.091695", "lon": "7.09252"}, "label": "Remelfing-Centre (R\u00e9melfing)", "administrative_regions": [{"insee": "57568", "name": "R\u00e9melfing", "level": 8, "coord": {"lat": "49.0919301", "lon": "7.0925786"}, "label": "R\u00e9melfing (57200)", "id": "admin:fr:57568", "zip_code": "57200"}], "timezone": "Europe/Paris", "id": "stop_area:OCE:SA:87703421"}, {"codes": [{"type": "CR-CI-CH", "value": "0087-172700-00"}, {"type": "CR-CI-CH", "value": "0087-172700-00"}, {"type": "UIC8", "value": "87172700"}, {"type": "external_code", "value": "OCE87172700"}], "name": "Remilly-Aillicourt", "links": [], "coord": {"lat": "49.655386", "lon": "4.990211"}, "label": "Remilly-Aillicourt (Remilly-Aillicourt)", "administrative_regions": [{"insee": "8357", "name": "Remilly-Aillicourt", "level": 8, "coord": {"lat": "49.65077", "lon": "4.99315"}, "label": "Remilly-Aillicourt (08450)", "id": "admin:fr:8357", "zip_code": "08450"}], "timezone": "Europe/Paris", "id": "stop_area:OCE:SA:87172700"}, {"codes": [{"type": "CR-CI-CH", "value": "0087-476853-HR"}, {"type": "CR-CI-CH", "value": "0087-476853-HR"}, {"type": "UIC8", "value": "87476853"}, {"type": "external_code", "value": "OCE87476853"}], "name": "Remilly-Place-du-11-Nov", "links": [], "coord": {"lat": "49.010793", "lon": "6.397592"}, "label": "Remilly-Place-du-11-Nov (R\u00e9milly)", "administrative_regions": [{"insee": "57572", "name": "R\u00e9milly", "level": 8, "coord": {"lat": "49.0116713", "lon": "6.3960587"}, "label": "R\u00e9milly (57580)", "id": "admin:fr:57572", "zip_code": "57580"}], "timezone": "Europe/Paris", "id": "stop_area:OCE:SA:87476853"}, {"codes": [{"type": "CR-CI-CH", "value": "0087-144451-00"}, {"type": "CR-CI-CH", "value": "0087-144451-00"}, {"type": "UIC8", "value": "87144451"}, {"type": "external_code", "value": "OCE87144451"}], "name": "Remiremont", "links": [], "coord": {"lat": "48.016367", "lon": "6.599041"}, "label": "Remiremont (Remiremont)", "administrative_regions": [{"insee": "88383", "name": "Remiremont", "level": 8, "coord": {"lat": "48.0158951", "lon": "6.5912615"}, "label": "Remiremont (88200)", "id": "admin:fr:88383", "zip_code": "88200"}], "timezone": "Europe/Paris", "id": "stop_area:OCE:SA:87144451"}, {"codes": [{"type": "CR-CI-CH", "value": "0087-405910-00"}, {"type": "CR-CI-CH", "value": "0087-405910-00"}, {"type": "UIC8", "value": "87405910"}, {"type": "external_code", "value": "OCE87405910"}], "name": "Remiremont (Cora)", "links": [], "coord": {"lat": "48.004577", "lon": "6.612661"}, "label": "Remiremont (Cora) (Remiremont)", "administrative_regions": [{"insee": "88383", "name": "Remiremont", "level": 8, "coord": {"lat": "48.0158951", "lon": "6.5912615"}, "label": "Remiremont (88200)", "id": "admin:fr:88383", "zip_code": "88200"}], "timezone": "Europe/Paris", "id": "stop_area:OCE:SA:87405910"}, {"codes": [{"type": "CR-CI-CH", "value": "0087-476846-HR"}, {"type": "CR-CI-CH", "value": "0087-476846-HR"}, {"type": "UIC8", "value": "87476846"}, {"type": "external_code", "value": "OCE87476846"}], "name": "Remiremont-Pont", "links": [], "coord": {"lat": "48.009076", "lon": "6.613764"}, "label": "Remiremont-Pont (Saint-\u00c9tienne-l\u00e8s-Remiremont)", "administrative_regions": [{"insee": "88415", "name": "Saint-\u00c9tienne-l\u00e8s-Remiremont", "level": 8, "coord": {"lat": "48.0203315", "lon": "6.6110083"}, "label": "Saint-\u00c9tienne-l\u00e8s-Remiremont (88200)", "id": "admin:fr:88415", "zip_code": "88200"}], "timezone": "Europe/Paris", "id": "stop_area:OCE:SA:87476846"}, {"codes": [{"type": "CR-CI-CH", "value": "0087-640987-HR"}, {"type": "CR-CI-CH", "value": "0087-640987-HR"}, {"type": "UIC8", "value": "87640987"}, {"type": "external_code", "value": "OCE87640987"}], "name": "Remomeix-(Abri)", "links": [], "coord": {"lat": "48.265016", "lon": "6.993338"}, "label": "Remomeix-(Abri) (Remomeix)", "administrative_regions": [{"insee": "88386", "name": "Remomeix", "level": 8, "coord": {"lat": "48.2698792", "lon": "7.001886"}, "label": "Remomeix (88100)", "id": "admin:fr:88386", "zip_code": "88100"}], "timezone": "Europe/Paris", "id": "stop_area:OCE:SA:87640987"}]}