{"pagination": {"start_page": 93, "items_on_page": 25, "items_per_page": 25, "total_result": 4343}, "links": [{"href": "https://api.sncf.com/v1/coverage/sncf/stop_areas/{stop_areas.id}", "type": "stop_areas", "rel": "stop_areas", "templated": true}, {"href": "https://api.sncf.com/v1/coverage/sncf/stop_areas/{stop_areas.id}/route_schedules", "type": "route_schedules", "rel": "route_schedules", "templated": true}, {"href": "https://api.sncf.com/v1/coverage/sncf/stop_areas/{stop_areas.id}/stop_schedules", "type": "stop_schedules", "rel": "stop_schedules", "templated": true}, {"href": "https://api.sncf.com/v1/coverage/sncf/stop_areas/{stop_areas.id}/arrivals", "type": "arrivals", "rel": "arrivals", "templated": true}, {"href": "https://api.sncf.com/v1/coverage/sncf/stop_areas/{stop_areas.id}/departures", "type": "departures", "rel": "departures", "templated": true}, {"href": "https://api.sncf.com/v1/coverage/sncf/stop_areas/{stop_areas.id}/places_nearby", "type": "places_nearby", "rel": "places_nearby", "templated": true}, {"href": "https://api.sncf.com/v1/coverage/sncf/stop_areas/{stop_areas.id}/journeys", "type": "journey", "rel": "journeys", "templated": true}, {"href": "https://api.sncf.com/v1/coverage/sncf/stop_areas/{stop_areas.id}/traffic_reports", "type": "disruption", "rel": "disruptions", "templated": true}, {"href": "https://api.sncf.com/v1/coverage/sncf/stop_areas?start_page=92", "type": "previous", "templated": false}, {"href": "https://api.sncf.com/v1/coverage/sncf/stop_areas?start_page=94", "type": "next", "templated": false}, {"href": "https://api.sncf.com/v1/coverage/sncf/stop_areas?start_page=173", "type": "last", "templated": false}, {"href": "https://api.sncf.com/v1/coverage/sncf/stop_areas", "type": "first", "templated": false}], "disruptions": [], "feed_publishers": [], "context": {"timezone": "Europe/Paris", "current_datetime": "20200210T135441"}, "stop_areas": [{"codes": [{"type": "CR-CI-CH", "value": "0087-723197-BV"}, {"type": "CR-CI-CH", "value": "0087-723197-BV"}, {"type": "UIC8", "value": "87723197"}, {"type": "external_code", "value": "OCE87723197"}], "name": "Lyon-Part-Dieu", "links": [], "coord": {"lat": "45.760585", "lon": "4.859435"}, "label": "Lyon-Part-Dieu (Lyon)", "administrative_regions": [{"insee": "69123", "name": "Lyon", "level": 8, "coord": {"lat": "45.7578137", "lon": "4.8320114"}, "label": "Lyon", "id": "admin:fr:69123", "zip_code": ""}], "timezone": "Europe/Paris", "id": "stop_area:OCE:SA:87723197"}, {"codes": [{"type": "CR-CI-CH", "value": "0087-697128-HR"}, {"type": "UIC8", "value": "87697128"}, {"type": "external_code", "value": "OCE87697128"}], "name": "Lyon-Part-Dieu-Gare-Rou", "links": [], "coord": {"lat": "45.760585", "lon": "4.859435"}, "label": "Lyon-Part-Dieu-Gare-Rou (Lyon)", "administrative_regions": [{"insee": "69123", "name": "Lyon", "level": 8, "coord": {"lat": "45.7578137", "lon": "4.8320114"}, "label": "Lyon", "id": "admin:fr:69123", "zip_code": ""}], "timezone": "Europe/Paris", "id": "stop_area:OCE:SA:87697128"}, {"codes": [{"type": "CR-CI-CH", "value": "0087-722025-BV"}, {"type": "CR-CI-CH", "value": "0087-722025-BV"}, {"type": "UIC8", "value": "87722025"}, {"type": "external_code", "value": "OCE87722025"}], "name": "Lyon-Perrache", "links": [], "coord": {"lat": "45.748785", "lon": "4.825941"}, "label": "Lyon-Perrache (Lyon)", "administrative_regions": [{"insee": "69123", "name": "Lyon", "level": 8, "coord": {"lat": "45.7578137", "lon": "4.8320114"}, "label": "Lyon", "id": "admin:fr:69123", "zip_code": ""}], "timezone": "Europe/Paris", "id": "stop_area:OCE:SA:87722025"}, {"codes": [{"type": "CR-CI-CH", "value": "0087-697136-HR"}, {"type": "UIC8", "value": "87697136"}, {"type": "external_code", "value": "OCE87697136"}], "name": "Lyon-Perrache-Gare-Rout", "links": [], "coord": {"lat": "45.749712", "lon": "4.82678"}, "label": "Lyon-Perrache-Gare-Rout (Lyon)", "administrative_regions": [{"insee": "69123", "name": "Lyon", "level": 8, "coord": {"lat": "45.7578137", "lon": "4.8320114"}, "label": "Lyon", "id": "admin:fr:69123", "zip_code": ""}], "timezone": "Europe/Paris", "id": "stop_area:OCE:SA:87697136"}, {"codes": [{"type": "CR-CI-CH", "value": "0087-762906-00"}, {"type": "CR-CI-CH", "value": "0087-762906-00"}, {"type": "UIC8", "value": "87762906"}, {"type": "external_code", "value": "OCE87762906"}], "name": "Lyon-Saint-Exupery-Tgv", "links": [], "coord": {"lat": "45.720928", "lon": "5.075833"}, "label": "Lyon-Saint-Exupery-Tgv (Colombier-Saugnieu)", "administrative_regions": [{"insee": "69299", "name": "Colombier-Saugnieu", "level": 8, "coord": {"lat": "45.7113787", "lon": "5.1119241"}, "label": "Colombier-Saugnieu (69124)", "id": "admin:fr:69299", "zip_code": "69124"}], "timezone": "Europe/Paris", "id": "stop_area:OCE:SA:87762906"}, {"codes": [{"type": "CR-CI-CH", "value": "0087-721159-00"}, {"type": "CR-CI-CH", "value": "0087-721159-00"}, {"type": "UIC8", "value": "87721159"}, {"type": "external_code", "value": "OCE87721159"}], "name": "Lyon-St-Paul", "links": [], "coord": {"lat": "45.766082", "lon": "4.826904"}, "label": "Lyon-St-Paul (Lyon)", "administrative_regions": [{"insee": "69123", "name": "Lyon", "level": 8, "coord": {"lat": "45.7578137", "lon": "4.8320114"}, "label": "Lyon", "id": "admin:fr:69123", "zip_code": ""}], "timezone": "Europe/Paris", "id": "stop_area:OCE:SA:87721159"}, {"codes": [{"type": "CR-CI-CH", "value": "0087-698332-HR"}, {"type": "UIC8", "value": "87698332"}, {"type": "external_code", "value": "OCE87698332"}], "name": "Lyon-St-Paul-Quai-Bondy", "links": [], "coord": {"lat": "45.766488", "lon": "4.828105"}, "label": "Lyon-St-Paul-Quai-Bondy (Lyon)", "administrative_regions": [{"insee": "69123", "name": "Lyon", "level": 8, "coord": {"lat": "45.7578137", "lon": "4.8320114"}, "label": "Lyon", "id": "admin:fr:69123", "zip_code": ""}], "timezone": "Europe/Paris", "id": "stop_area:OCE:SA:87698332"}, {"codes": [{"type": "CR-CI-CH", "value": "0087-698340-HR"}, {"type": "UIC8", "value": "87698340"}, {"type": "external_code", "value": "OCE87698340"}], "name": "Lyon-St-Paul-la-Feuil\u00e9e", "links": [], "coord": {"lat": "45.766342", "lon": "4.829385"}, "label": "Lyon-St-Paul-la-Feuil\u00e9e (Lyon)", "administrative_regions": [{"insee": "69123", "name": "Lyon", "level": 8, "coord": {"lat": "45.7578137", "lon": "4.8320114"}, "label": "Lyon", "id": "admin:fr:69123", "zip_code": ""}], "timezone": "Europe/Paris", "id": "stop_area:OCE:SA:87698340"}, {"codes": [{"type": "CR-CI-CH", "value": "0087-721001-BV"}, {"type": "CR-CI-CH", "value": "0087-721001-BV"}, {"type": "UIC8", "value": "87721001"}, {"type": "external_code", "value": "OCE87721001"}], "name": "Lyon-Vaise", "links": [], "coord": {"lat": "45.780142", "lon": "4.80405"}, "label": "Lyon-Vaise (Lyon)", "administrative_regions": [{"insee": "69123", "name": "Lyon", "level": 8, "coord": {"lat": "45.7578137", "lon": "4.8320114"}, "label": "Lyon", "id": "admin:fr:69123", "zip_code": ""}], "timezone": "Europe/Paris", "id": "stop_area:OCE:SA:87721001"}, {"codes": [{"type": "CR-CI-CH", "value": "0087-697045-HR"}, {"type": "UIC8", "value": "87697045"}, {"type": "external_code", "value": "OCE87697045"}], "name": "Lyon-Vaise-Gare-Routi\u00e8r", "links": [], "coord": {"lat": "45.781597", "lon": "4.805428"}, "label": "Lyon-Vaise-Gare-Routi\u00e8r (Lyon)", "administrative_regions": [{"insee": "69123", "name": "Lyon", "level": 8, "coord": {"lat": "45.7578137", "lon": "4.8320114"}, "label": "Lyon", "id": "admin:fr:69123", "zip_code": ""}], "timezone": "Europe/Paris", "id": "stop_area:OCE:SA:87697045"}, {"codes": [{"type": "CR-CI-CH", "value": "0087-611210-00"}, {"type": "CR-CI-CH", "value": "0087-611210-00"}, {"type": "UIC8", "value": "87611210"}, {"type": "external_code", "value": "OCE87611210"}], "name": "L\u00e8ge", "links": [], "coord": {"lat": "42.87718", "lon": "0.610889"}, "label": "L\u00e8ge (L\u00e8ge)", "administrative_regions": [{"insee": "31290", "name": "L\u00e8ge", "level": 8, "coord": {"lat": "42.8767279", "lon": "0.6100228"}, "label": "L\u00e8ge (31440)", "id": "admin:fr:31290", "zip_code": "31440"}], "timezone": "Europe/Paris", "id": "stop_area:OCE:SA:87611210"}, {"codes": [{"type": "CR-CI-CH", "value": "0087-704262-TT"}, {"type": "UIC8", "value": "87704262"}, {"type": "external_code", "value": "OCE87704262"}], "name": "L\u00e9on Blum T4", "links": [], "coord": {"lat": "48.90865", "lon": "2.532013"}, "label": "L\u00e9on Blum T4 (Livry-Gargan)", "administrative_regions": [{"insee": "93046", "name": "Livry-Gargan", "level": 8, "coord": {"lat": "48.917335", "lon": "2.5298854"}, "label": "Livry-Gargan (93190)", "id": "admin:fr:93046", "zip_code": "93190"}], "timezone": "Europe/Paris", "id": "stop_area:OCE:SA:87704262"}, {"codes": [{"type": "CR-CI-CH", "value": "0087-144048-00"}, {"type": "CR-CI-CH", "value": "0087-144048-00"}, {"type": "UIC8", "value": "87144048"}, {"type": "external_code", "value": "OCE87144048"}], "name": "L\u00e9panges", "links": [], "coord": {"lat": "48.17268", "lon": "6.67216"}, "label": "L\u00e9panges (L\u00e9panges-sur-Vologne)", "administrative_regions": [{"insee": "88266", "name": "L\u00e9panges-sur-Vologne", "level": 8, "coord": {"lat": "48.1731369", "lon": "6.6683407"}, "label": "L\u00e9panges-sur-Vologne (88600)", "id": "admin:fr:88266", "zip_code": "88600"}], "timezone": "Europe/Paris", "id": "stop_area:OCE:SA:87144048"}, {"codes": [{"type": "CR-CI-CH", "value": "0087-716472-HR"}, {"type": "UIC8", "value": "87716472"}, {"type": "external_code", "value": "OCE87716472"}], "name": "L\u00e9panges/Vologne Poste", "links": [], "coord": {"lat": "48.172719", "lon": "6.671597"}, "label": "L\u00e9panges/Vologne Poste (L\u00e9panges-sur-Vologne)", "administrative_regions": [{"insee": "88266", "name": "L\u00e9panges-sur-Vologne", "level": 8, "coord": {"lat": "48.1731369", "lon": "6.6683407"}, "label": "L\u00e9panges-sur-Vologne (88600)", "id": "admin:fr:88266", "zip_code": "88600"}], "timezone": "Europe/Paris", "id": "stop_area:OCE:SA:87716472"}, {"codes": [{"type": "CR-CI-CH", "value": "0087-741439-00"}, {"type": "CR-CI-CH", "value": "0087-741439-00"}, {"type": "UIC8", "value": "87741439"}, {"type": "external_code", "value": "OCE87741439"}], "name": "L\u00e9pin-le-Lac-la-Bauche", "links": [], "coord": {"lat": "45.541546", "lon": "5.764963"}, "label": "L\u00e9pin-le-Lac-la-Bauche (L\u00e9pin-le-Lac)", "administrative_regions": [{"insee": "73145", "name": "L\u00e9pin-le-Lac", "level": 8, "coord": {"lat": "45.537709", "lon": "5.7925969"}, "label": "L\u00e9pin-le-Lac (73610)", "id": "admin:fr:73145", "zip_code": "73610"}], "timezone": "Europe/Paris", "id": "stop_area:OCE:SA:87741439"}, {"codes": [{"type": "CR-CI-CH", "value": "0087-175240-BV"}, {"type": "CR-CI-CH", "value": "0087-175240-BV"}, {"type": "UIC8", "value": "87175240"}, {"type": "external_code", "value": "OCE87175240"}], "name": "L\u00e9rouville", "links": [], "coord": {"lat": "48.79625", "lon": "5.539362"}, "label": "L\u00e9rouville (L\u00e9rouville)", "administrative_regions": [{"insee": "55288", "name": "L\u00e9rouville", "level": 8, "coord": {"lat": "48.7917121", "lon": "5.5426178"}, "label": "L\u00e9rouville (55200)", "id": "admin:fr:55288", "zip_code": "55200"}], "timezone": "Europe/Paris", "id": "stop_area:OCE:SA:87175240"}, {"codes": [{"type": "CR-CI-CH", "value": "0087-615112-00"}, {"type": "CR-CI-CH", "value": "0087-615112-00"}, {"type": "UIC8", "value": "87615112"}, {"type": "external_code", "value": "OCE87615112"}], "name": "L\u00e9zignan-Corbi\u00e8res", "links": [], "coord": {"lat": "43.199971", "lon": "2.769857"}, "label": "L\u00e9zignan-Corbi\u00e8res (L\u00e9zignan-Corbi\u00e8res)", "administrative_regions": [{"insee": "11203", "name": "L\u00e9zignan-Corbi\u00e8res", "level": 8, "coord": {"lat": "43.2008841", "lon": "2.7574981"}, "label": "L\u00e9zignan-Corbi\u00e8res (11200)", "id": "admin:fr:11203", "zip_code": "11200"}], "timezone": "Europe/Paris", "id": "stop_area:OCE:SA:87615112"}, {"codes": [{"type": "CR-CI-CH", "value": "0087-417840-00"}, {"type": "CR-CI-CH", "value": "0087-417840-00"}, {"type": "CR-CI-CH", "value": "0087-417840-HR"}, {"type": "UIC8", "value": "87417840"}, {"type": "external_code", "value": "OCE87417840"}], "name": "MONTLUCON LEM", "links": [], "coord": {"lat": "46.338248", "lon": "2.609625"}, "label": "MONTLUCON LEM (Montlu\u00e7on)", "administrative_regions": [{"insee": "3185", "name": "Montlu\u00e7on", "level": 8, "coord": {"lat": "46.3399276", "lon": "2.6067229"}, "label": "Montlu\u00e7on (03100)", "id": "admin:fr:3185", "zip_code": "03100"}], "timezone": "Europe/Paris", "id": "stop_area:OCE:SA:87417840"}, {"codes": [{"type": "CR-CI-CH", "value": "0087-581199-00"}, {"type": "CR-CI-CH", "value": "0087-581199-00"}, {"type": "UIC8", "value": "87581199"}, {"type": "external_code", "value": "OCE87581199"}], "name": "Macau", "links": [], "coord": {"lat": "45.004154", "lon": "-0.619846"}, "label": "Macau (Macau)", "administrative_regions": [{"insee": "33262", "name": "Macau", "level": 8, "coord": {"lat": "45.008", "lon": "-0.61502"}, "label": "Macau (33460)", "id": "admin:fr:33262", "zip_code": "33460"}], "timezone": "Europe/Paris", "id": "stop_area:OCE:SA:87581199"}, {"codes": [{"type": "CR-CI-CH", "value": "0087-481366-00"}, {"type": "CR-CI-CH", "value": "0087-481366-00"}, {"type": "UIC8", "value": "87481366"}, {"type": "external_code", "value": "OCE87481366"}], "name": "Machecoul", "links": [], "coord": {"lat": "46.990618", "lon": "-1.82263"}, "label": "Machecoul (Machecoul-Saint-M\u00eame)", "administrative_regions": [{"insee": "44087", "name": "Machecoul-Saint-M\u00eame", "level": 8, "coord": {"lat": "46.9923401", "lon": "-1.8174743"}, "label": "Machecoul-Saint-M\u00eame (44270)", "id": "admin:fr:44087", "zip_code": "44270"}], "timezone": "Europe/Paris", "id": "stop_area:OCE:SA:87481366"}, {"codes": [{"type": "CR-CI-CH", "value": "0087-745588-BV"}, {"type": "CR-CI-CH", "value": "0087-745588-BV"}, {"type": "UIC8", "value": "87745588"}, {"type": "external_code", "value": "OCE87745588"}], "name": "Machilly", "links": [], "coord": {"lat": "46.251269", "lon": "6.328179"}, "label": "Machilly (Machilly)", "administrative_regions": [{"insee": "74158", "name": "Machilly", "level": 8, "coord": {"lat": "46.2514336", "lon": "6.3315475"}, "label": "Machilly (74140)", "id": "admin:fr:74158", "zip_code": "74140"}], "timezone": "Europe/Paris", "id": "stop_area:OCE:SA:87745588"}, {"codes": [{"type": "CR-CI-CH", "value": "0087-139873-00"}, {"type": "CR-CI-CH", "value": "0087-139873-00"}, {"type": "UIC8", "value": "87139873"}, {"type": "external_code", "value": "OCE87139873"}], "name": "Machy", "links": [], "coord": {"lat": "48.139992", "lon": "4.044165"}, "label": "Machy (Machy)", "administrative_regions": [{"insee": "10212", "name": "Machy", "level": 8, "coord": {"lat": "48.1403167", "lon": "4.0430784"}, "label": "Machy (10320)", "id": "admin:fr:10212", "zip_code": "10320"}], "timezone": "Europe/Paris", "id": "stop_area:OCE:SA:87139873"}, {"codes": [{"type": "CR-CI-CH", "value": "0087-781666-00"}, {"type": "CR-CI-CH", "value": "0087-781666-00"}, {"type": "UIC8", "value": "87781666"}, {"type": "external_code", "value": "OCE87781666"}], "name": "Magalas", "links": [], "coord": {"lat": "43.467755", "lon": "3.2295"}, "label": "Magalas (Magalas)", "administrative_regions": [{"insee": "34147", "name": "Magalas", "level": 8, "coord": {"lat": "43.4724204", "lon": "3.2221621"}, "label": "Magalas (34480)", "id": "admin:fr:34147", "zip_code": "34480"}], "timezone": "Europe/Paris", "id": "stop_area:OCE:SA:87781666"}, {"codes": [{"type": "CR-CI-CH", "value": "0087-281873-BV"}, {"type": "CR-CI-CH", "value": "0087-281873-BV"}, {"type": "UIC8", "value": "87281873"}, {"type": "external_code", "value": "OCE87281873"}], "name": "Magenta", "links": [], "coord": {"lat": "48.879455", "lon": "2.357326"}, "label": "Magenta (Paris)", "administrative_regions": [{"insee": "75056", "name": "Paris", "level": 8, "coord": {"lat": "48.8566969", "lon": "2.3514616"}, "label": "Paris (75000-75116)", "id": "admin:fr:75056", "zip_code": "75000;75116"}], "timezone": "Europe/Paris", "id": "stop_area:OCE:SA:87281873"}, {"codes": [{"type": "CR-CI-CH", "value": "0087-746412-00"}, {"type": "CR-CI-CH", "value": "0087-746412-00"}, {"type": "UIC8", "value": "87746412"}, {"type": "external_code", "value": "OCE87746412"}], "name": "Magland", "links": [], "coord": {"lat": "46.016926", "lon": "6.621531"}, "label": "Magland (Magland)", "administrative_regions": [{"insee": "74159", "name": "Magland", "level": 8, "coord": {"lat": "46.0203509", "lon": "6.6207249"}, "label": "Magland (74300)", "id": "admin:fr:74159", "zip_code": "74300"}], "timezone": "Europe/Paris", "id": "stop_area:OCE:SA:87746412"}]}