{"pagination": {"start_page": 145, "items_on_page": 25, "items_per_page": 25, "total_result": 4343}, "links": [{"href": "https://api.sncf.com/v1/coverage/sncf/stop_areas/{stop_areas.id}", "type": "stop_areas", "rel": "stop_areas", "templated": true}, {"href": "https://api.sncf.com/v1/coverage/sncf/stop_areas/{stop_areas.id}/route_schedules", "type": "route_schedules", "rel": "route_schedules", "templated": true}, {"href": "https://api.sncf.com/v1/coverage/sncf/stop_areas/{stop_areas.id}/stop_schedules", "type": "stop_schedules", "rel": "stop_schedules", "templated": true}, {"href": "https://api.sncf.com/v1/coverage/sncf/stop_areas/{stop_areas.id}/arrivals", "type": "arrivals", "rel": "arrivals", "templated": true}, {"href": "https://api.sncf.com/v1/coverage/sncf/stop_areas/{stop_areas.id}/departures", "type": "departures", "rel": "departures", "templated": true}, {"href": "https://api.sncf.com/v1/coverage/sncf/stop_areas/{stop_areas.id}/places_nearby", "type": "places_nearby", "rel": "places_nearby", "templated": true}, {"href": "https://api.sncf.com/v1/coverage/sncf/stop_areas/{stop_areas.id}/journeys", "type": "journey", "rel": "journeys", "templated": true}, {"href": "https://api.sncf.com/v1/coverage/sncf/stop_areas/{stop_areas.id}/traffic_reports", "type": "disruption", "rel": "disruptions", "templated": true}, {"href": "https://api.sncf.com/v1/coverage/sncf/stop_areas?start_page=144", "type": "previous", "templated": false}, {"href": "https://api.sncf.com/v1/coverage/sncf/stop_areas?start_page=146", "type": "next", "templated": false}, {"href": "https://api.sncf.com/v1/coverage/sncf/stop_areas?start_page=173", "type": "last", "templated": false}, {"href": "https://api.sncf.com/v1/coverage/sncf/stop_areas", "type": "first", "templated": false}], "disruptions": [], "feed_publishers": [], "context": {"timezone": "Europe/Paris", "current_datetime": "20200210T135449"}, "stop_areas": [{"codes": [{"type": "CR-CI-CH", "value": "0087-783423-00"}, {"type": "CR-CI-CH", "value": "0087-783423-00"}, {"type": "UIC8", "value": "87783423"}, {"type": "external_code", "value": "OCE87783423"}], "name": "St-Georges-de-Luzen\u00e7on", "links": [], "coord": {"lat": "44.066024", "lon": "2.983914"}, "label": "St-Georges-de-Luzen\u00e7on (Saint-Georges-de-Luzen\u00e7on)", "administrative_regions": [{"insee": "12225", "name": "Saint-Georges-de-Luzen\u00e7on", "level": 8, "coord": {"lat": "44.063084", "lon": "2.9855424"}, "label": "Saint-Georges-de-Luzen\u00e7on (12100)", "id": "admin:fr:12225", "zip_code": "12100"}], "timezone": "Europe/Paris", "id": "stop_area:OCE:SA:87783423"}, {"codes": [{"type": "CR-CI-CH", "value": "0087-721340-BV"}, {"type": "CR-CI-CH", "value": "0087-721340-BV"}, {"type": "UIC8", "value": "87721340"}, {"type": "external_code", "value": "OCE87721340"}], "name": "St-Georges-de-Reneins", "links": [], "coord": {"lat": "46.062191", "lon": "4.718887"}, "label": "St-Georges-de-Reneins (Saint-Georges-de-Reneins)", "administrative_regions": [{"insee": "69206", "name": "Saint-Georges-de-Reneins", "level": 8, "coord": {"lat": "46.0629911", "lon": "4.723272"}, "label": "Saint-Georges-de-Reneins (69830)", "id": "admin:fr:69206", "zip_code": "69830"}], "timezone": "Europe/Paris", "id": "stop_area:OCE:SA:87721340"}, {"codes": [{"type": "CR-CI-CH", "value": "0087-673269-00"}, {"type": "CR-CI-CH", "value": "0087-673269-00"}, {"type": "UIC8", "value": "87673269"}, {"type": "external_code", "value": "OCE87673269"}], "name": "St-Geours-de-Maremne", "links": [], "coord": {"lat": "43.6712", "lon": "-1.241307"}, "label": "St-Geours-de-Maremne (Saint-Geours-de-Maremne)", "administrative_regions": [{"insee": "40261", "name": "Saint-Geours-de-Maremne", "level": 8, "coord": {"lat": "43.6879086", "lon": "-1.2379292"}, "label": "Saint-Geours-de-Maremne (40230)", "id": "admin:fr:40261", "zip_code": "40230"}], "timezone": "Europe/Paris", "id": "stop_area:OCE:SA:87673269"}, {"codes": [{"type": "CR-CI-CH", "value": "0087-721282-BV"}, {"type": "CR-CI-CH", "value": "0087-721282-BV"}, {"type": "UIC8", "value": "87721282"}, {"type": "external_code", "value": "OCE87721282"}], "name": "St-Germain-au-Mont-d'Or", "links": [], "coord": {"lat": "45.888442", "lon": "4.804176"}, "label": "St-Germain-au-Mont-d'Or (Saint-Germain-au-Mont-d'Or)", "administrative_regions": [{"insee": "69207", "name": "Saint-Germain-au-Mont-d'Or", "level": 8, "coord": {"lat": "45.8828", "lon": "4.80259"}, "label": "Saint-Germain-au-Mont-d'Or (69650)", "id": "admin:fr:69207", "zip_code": "69650"}], "timezone": "Europe/Paris", "id": "stop_area:OCE:SA:87721282"}, {"codes": [{"type": "CR-CI-CH", "value": "0087-732206-BV"}, {"type": "CR-CI-CH", "value": "0087-732206-BV"}, {"type": "UIC8", "value": "87732206"}, {"type": "external_code", "value": "OCE87732206"}], "name": "St-Germain-des-Foss\u00e9s", "links": [], "coord": {"lat": "46.209103", "lon": "3.430489"}, "label": "St-Germain-des-Foss\u00e9s (Saint-Germain-des-Foss\u00e9s)", "administrative_regions": [{"insee": "3236", "name": "Saint-Germain-des-Foss\u00e9s", "level": 8, "coord": {"lat": "46.2067884", "lon": "3.4320562"}, "label": "Saint-Germain-des-Foss\u00e9s (03260)", "id": "admin:fr:3236", "zip_code": "03260"}], "timezone": "Europe/Paris", "id": "stop_area:OCE:SA:87732206"}, {"codes": [{"type": "CR-CI-CH", "value": "0087-576405-BV"}, {"type": "CR-CI-CH", "value": "0087-576405-BV"}, {"type": "UIC8", "value": "87576405"}, {"type": "external_code", "value": "OCE87576405"}], "name": "St-Germain-du-Puy", "links": [], "coord": {"lat": "47.09629", "lon": "2.484255"}, "label": "St-Germain-du-Puy (Saint-Germain-du-Puy)", "administrative_regions": [{"insee": "18213", "name": "Saint-Germain-du-Puy", "level": 8, "coord": {"lat": "47.0993603", "lon": "2.4823611"}, "label": "Saint-Germain-du-Puy (18390)", "id": "admin:fr:18213", "zip_code": "18390"}], "timezone": "Europe/Paris", "id": "stop_area:OCE:SA:87576405"}, {"codes": [{"type": "CR-CI-CH", "value": "0087-758094-00"}, {"type": "CR-CI-CH", "value": "0087-758094-00"}, {"type": "UIC8", "value": "87758094"}, {"type": "external_code", "value": "OCE87758094"}], "name": "St-Germain-en-Laye", "links": [], "coord": {"lat": "48.898469", "lon": "2.094539"}, "label": "St-Germain-en-Laye (Saint-Germain-en-Laye)", "administrative_regions": [{"insee": "78551", "name": "Saint-Germain-en-Laye", "level": 8, "coord": {"lat": "48.8990413", "lon": "2.0942792"}, "label": "Saint-Germain-en-Laye", "id": "admin:fr:78551", "zip_code": ""}], "timezone": "Europe/Paris", "id": "stop_area:OCE:SA:87758094"}, {"codes": [{"type": "CR-CI-CH", "value": "0087-592287-00"}, {"type": "CR-CI-CH", "value": "0087-592287-00"}, {"type": "UIC8", "value": "87592287"}, {"type": "external_code", "value": "OCE87592287"}], "name": "St-Germain-les-Belles", "links": [], "coord": {"lat": "45.609861", "lon": "1.479937"}, "label": "St-Germain-les-Belles (Saint-Germain-les-Belles)", "administrative_regions": [{"insee": "87146", "name": "Saint-Germain-les-Belles", "level": 8, "coord": {"lat": "45.6141406", "lon": "1.495247"}, "label": "Saint-Germain-les-Belles (87380)", "id": "admin:fr:87146", "zip_code": "87380"}], "timezone": "Europe/Paris", "id": "stop_area:OCE:SA:87592287"}, {"codes": [{"type": "CR-CI-CH", "value": "0087-478016-00"}, {"type": "CR-CI-CH", "value": "0087-478016-00"}, {"type": "UIC8", "value": "87478016"}, {"type": "external_code", "value": "OCE87478016"}], "name": "St-Germain-sur-Ille", "links": [], "coord": {"lat": "48.238917", "lon": "-1.653591"}, "label": "St-Germain-sur-Ille (Saint-Germain-sur-Ille)", "administrative_regions": [{"insee": "35274", "name": "Saint-Germain-sur-Ille", "level": 8, "coord": {"lat": "48.2489955", "lon": "-1.6594173"}, "label": "Saint-Germain-sur-Ille (35250)", "id": "admin:fr:35274", "zip_code": "35250"}], "timezone": "Europe/Paris", "id": "stop_area:OCE:SA:87478016"}, {"codes": [{"type": "CR-CI-CH", "value": "0087-680595-HR"}, {"type": "CR-CI-CH", "value": "0087-680595-HR"}, {"type": "UIC8", "value": "87680595"}, {"type": "external_code", "value": "OCE87680595"}], "name": "St-Gervais-Ch-LPA.", "links": [], "coord": {"lat": "46.030507", "lon": "2.808422"}, "label": "St-Gervais-Ch-LPA. (Saint-Gervais-d'Auvergne)", "administrative_regions": [{"insee": "63354", "name": "Saint-Gervais-d'Auvergne", "level": 8, "coord": {"lat": "46.0294688", "lon": "2.8211398"}, "label": "Saint-Gervais-d'Auvergne (63390)", "id": "admin:fr:63354", "zip_code": "63390"}], "timezone": "Europe/Paris", "id": "stop_area:OCE:SA:87680595"}, {"codes": [{"type": "CR-CI-CH", "value": "0087-746479-00"}, {"type": "CR-CI-CH", "value": "0087-746479-00"}, {"type": "UIC8", "value": "87746479"}, {"type": "external_code", "value": "OCE87746479"}], "name": "St-Gervais-L-B-Le-Fayet", "links": [], "coord": {"lat": "45.90647", "lon": "6.700717"}, "label": "St-Gervais-L-B-Le-Fayet (Saint-Gervais-les-Bains)", "administrative_regions": [{"insee": "74236", "name": "Saint-Gervais-les-Bains", "level": 8, "coord": {"lat": "45.8928549", "lon": "6.7113338"}, "label": "Saint-Gervais-les-Bains (74170)", "id": "admin:fr:74236", "zip_code": "74170"}], "timezone": "Europe/Paris", "id": "stop_area:OCE:SA:87746479"}, {"codes": [{"type": "CR-CI-CH", "value": "0087-641134-00"}, {"type": "CR-CI-CH", "value": "0087-641134-00"}, {"type": "UIC8", "value": "87641134"}, {"type": "external_code", "value": "OCE87641134"}], "name": "St-Gervais-Mairie", "links": [], "coord": {"lat": "46.030319", "lon": "2.808175"}, "label": "St-Gervais-Mairie (Saint-Gervais-d'Auvergne)", "administrative_regions": [{"insee": "63354", "name": "Saint-Gervais-d'Auvergne", "level": 8, "coord": {"lat": "46.0294688", "lon": "2.8211398"}, "label": "Saint-Gervais-d'Auvergne (63390)", "id": "admin:fr:63354", "zip_code": "63390"}], "timezone": "Europe/Paris", "id": "stop_area:OCE:SA:87641134"}, {"codes": [{"type": "CR-CI-CH", "value": "0087-476762-00"}, {"type": "CR-CI-CH", "value": "0087-476762-00"}, {"type": "UIC8", "value": "87476762"}, {"type": "external_code", "value": "OCE87476762"}], "name": "St-Gildas-des-Bois", "links": [], "coord": {"lat": "47.516565", "lon": "-2.04365"}, "label": "St-Gildas-des-Bois (Saint-Gildas-des-Bois)", "administrative_regions": [{"insee": "44161", "name": "Saint-Gildas-des-Bois", "level": 8, "coord": {"lat": "47.5174681", "lon": "-2.0369967"}, "label": "Saint-Gildas-des-Bois (44530)", "id": "admin:fr:44161", "zip_code": "44530"}], "timezone": "Europe/Paris", "id": "stop_area:OCE:SA:87476762"}, {"codes": [{"type": "CR-CI-CH", "value": "0087-486571-00"}, {"type": "CR-CI-CH", "value": "0087-486571-00"}, {"type": "UIC8", "value": "87486571"}, {"type": "external_code", "value": "OCE87486571"}], "name": "St-Gilles-Croix-de-Vie", "links": [], "coord": {"lat": "46.69638", "lon": "-1.94137"}, "label": "St-Gilles-Croix-de-Vie (Saint-Gilles-Croix-de-Vie)", "administrative_regions": [{"insee": "85222", "name": "Saint-Gilles-Croix-de-Vie", "level": 8, "coord": {"lat": "46.692985", "lon": "-1.9254545"}, "label": "Saint-Gilles-Croix-de-Vie (85800)", "id": "admin:fr:85222", "zip_code": "85800"}], "timezone": "Europe/Paris", "id": "stop_area:OCE:SA:87486571"}, {"codes": [{"type": "CR-CI-CH", "value": "0087-181552-00"}, {"type": "CR-CI-CH", "value": "0087-181552-00"}, {"type": "UIC8", "value": "87181552"}, {"type": "external_code", "value": "OCE87181552"}], "name": "St-Gilles-L (Haut-Rhin)", "links": [], "coord": {"lat": "48.075345", "lon": "7.26056"}, "label": "St-Gilles-L (Haut-Rhin) (Wintzenheim)", "administrative_regions": [{"insee": "68374", "name": "Wintzenheim", "level": 8, "coord": {"lat": "48.0724515", "lon": "7.2925545"}, "label": "Wintzenheim (68920)", "id": "admin:fr:68374", "zip_code": "68920"}], "timezone": "Europe/Paris", "id": "stop_area:OCE:SA:87181552"}, {"codes": [{"type": "CR-CI-CH", "value": "0087-276170-00"}, {"type": "CR-CI-CH", "value": "0087-276170-00"}, {"type": "UIC8", "value": "87276170"}, {"type": "external_code", "value": "OCE87276170"}], "name": "St-Gratien", "links": [], "coord": {"lat": "48.963815", "lon": "2.284831"}, "label": "St-Gratien (Saint-Gratien)", "administrative_regions": [{"insee": "95555", "name": "Saint-Gratien", "level": 8, "coord": {"lat": "48.9703664", "lon": "2.2840639"}, "label": "Saint-Gratien (95210)", "id": "admin:fr:95555", "zip_code": "95210"}], "timezone": "Europe/Paris", "id": "stop_area:OCE:SA:87276170"}, {"codes": [{"type": "CR-CI-CH", "value": "0087-491324-00"}, {"type": "CR-CI-CH", "value": "0087-491324-00"}, {"type": "UIC8", "value": "87491324"}, {"type": "external_code", "value": "OCE87491324"}], "name": "St-Hilaire-Brizambourg", "links": [], "coord": {"lat": "45.849901", "lon": "-0.534935"}, "label": "St-Hilaire-Brizambourg (Saint-Hilaire-de-Villefranche)", "administrative_regions": [{"insee": "17344", "name": "Saint-Hilaire-de-Villefranche", "level": 8, "coord": {"lat": "45.8505185", "lon": "-0.5302750000000001"}, "label": "Saint-Hilaire-de-Villefranche", "id": "admin:fr:17344", "zip_code": ""}], "timezone": "Europe/Paris", "id": "stop_area:OCE:SA:87491324"}, {"codes": [{"type": "CR-CI-CH", "value": "0087-309765-00"}, {"type": "CR-CI-CH", "value": "0087-309765-00"}, {"type": "UIC8", "value": "87309765"}, {"type": "external_code", "value": "OCE87309765"}], "name": "St-Hilaire-La-Gravelle", "links": [], "coord": {"lat": "47.924716", "lon": "1.207213"}, "label": "St-Hilaire-La-Gravelle (Saint-Hilaire-la-Gravelle)", "administrative_regions": [{"insee": "41214", "name": "Saint-Hilaire-la-Gravelle", "level": 8, "coord": {"lat": "47.9205922", "lon": "1.2007264"}, "label": "Saint-Hilaire-la-Gravelle (41160)", "id": "admin:fr:41214", "zip_code": "41160"}], "timezone": "Europe/Paris", "id": "stop_area:OCE:SA:87309765"}, {"codes": [{"type": "CR-CI-CH", "value": "0087-389924-00"}, {"type": "CR-CI-CH", "value": "0087-389924-00"}, {"type": "UIC8", "value": "87389924"}, {"type": "external_code", "value": "OCE87389924"}], "name": "St-Hilaire-Riez (Cent.)", "links": [], "coord": {"lat": "46.726109", "lon": "-1.974779"}, "label": "St-Hilaire-Riez (Cent.) (Saint-Hilaire-de-Riez)", "administrative_regions": [{"insee": "85226", "name": "Saint-Hilaire-de-Riez", "level": 8, "coord": {"lat": "46.7219444", "lon": "-1.9441667"}, "label": "Saint-Hilaire-de-Riez (85270)", "id": "admin:fr:85226", "zip_code": "85270"}], "timezone": "Europe/Paris", "id": "stop_area:OCE:SA:87389924"}, {"codes": [{"type": "CR-CI-CH", "value": "0087-761684-00"}, {"type": "CR-CI-CH", "value": "0087-761684-00"}, {"type": "UIC8", "value": "87761684"}, {"type": "external_code", "value": "OCE87761684"}], "name": "St-Hilaire-St-Nazaire", "links": [], "coord": {"lat": "45.071316", "lon": "5.243843"}, "label": "St-Hilaire-St-Nazaire (Saint-Hilaire-du-Rosier)", "administrative_regions": [{"insee": "38394", "name": "Saint-Hilaire-du-Rosier", "level": 8, "coord": {"lat": "45.099615", "lon": "5.2474528"}, "label": "Saint-Hilaire-du-Rosier (38840)", "id": "admin:fr:38394", "zip_code": "38840"}], "timezone": "Europe/Paris", "id": "stop_area:OCE:SA:87761684"}, {"codes": [{"type": "CR-CI-CH", "value": "0087-481234-00"}, {"type": "CR-CI-CH", "value": "0087-481234-00"}, {"type": "UIC8", "value": "87481234"}, {"type": "external_code", "value": "OCE87481234"}], "name": "St-Hilaire-de-Chal\u00e9ons", "links": [], "coord": {"lat": "47.105743", "lon": "-1.865168"}, "label": "St-Hilaire-de-Chal\u00e9ons (Saint-Hilaire-de-Chal\u00e9ons)", "administrative_regions": [{"insee": "44164", "name": "Saint-Hilaire-de-Chal\u00e9ons", "level": 8, "coord": {"lat": "47.1030941", "lon": "-1.8648658"}, "label": "Saint-Hilaire-de-Chal\u00e9ons (44680)", "id": "admin:fr:44164", "zip_code": "44680"}], "timezone": "Europe/Paris", "id": "stop_area:OCE:SA:87481234"}, {"codes": [{"type": "CR-CI-CH", "value": "0087-486563-00"}, {"type": "CR-CI-CH", "value": "0087-486563-00"}, {"type": "UIC8", "value": "87486563"}, {"type": "external_code", "value": "OCE87486563"}], "name": "St-Hilaire-de-Riez SNCF", "links": [], "coord": {"lat": "46.716579", "lon": "-1.949586"}, "label": "St-Hilaire-de-Riez SNCF (Saint-Hilaire-de-Riez)", "administrative_regions": [{"insee": "85226", "name": "Saint-Hilaire-de-Riez", "level": 8, "coord": {"lat": "46.7219444", "lon": "-1.9441667"}, "label": "Saint-Hilaire-de-Riez (85270)", "id": "admin:fr:85226", "zip_code": "85270"}], "timezone": "Europe/Paris", "id": "stop_area:OCE:SA:87486563"}, {"codes": [{"type": "CR-CI-CH", "value": "0087-112771-00"}, {"type": "CR-CI-CH", "value": "0087-112771-00"}, {"type": "UIC8", "value": "87112771"}, {"type": "external_code", "value": "OCE87112771"}], "name": "St-Hilaire-sous-Romilly", "links": [], "coord": {"lat": "48.515828", "lon": "3.656109"}, "label": "St-Hilaire-sous-Romilly (Saint-Hilaire-sous-Romilly)", "administrative_regions": [{"insee": "10341", "name": "Saint-Hilaire-sous-Romilly", "level": 8, "coord": {"lat": "48.5143086", "lon": "3.6598703"}, "label": "Saint-Hilaire-sous-Romilly (10100)", "id": "admin:fr:10341", "zip_code": "10100"}], "timezone": "Europe/Paris", "id": "stop_area:OCE:SA:87112771"}, {"codes": [{"type": "CR-CI-CH", "value": "0087-643437-HR"}, {"type": "CR-CI-CH", "value": "0087-643437-HR"}, {"type": "UIC8", "value": "87643437"}, {"type": "external_code", "value": "OCE87643437"}], "name": "St-Hippolyte-Hot-Munsch", "links": [], "coord": {"lat": "48.23139", "lon": "7.371127"}, "label": "St-Hippolyte-Hot-Munsch (Saint-Hippolyte)", "administrative_regions": [{"insee": "68296", "name": "Saint-Hippolyte", "level": 8, "coord": {"lat": "48.2326964", "lon": "7.3698232"}, "label": "Saint-Hippolyte (68590)", "id": "admin:fr:68296", "zip_code": "68590"}], "timezone": "Europe/Paris", "id": "stop_area:OCE:SA:87643437"}, {"codes": [{"type": "CR-CI-CH", "value": "0087-643445-HR"}, {"type": "UIC8", "value": "87643445"}, {"type": "external_code", "value": "OCE87643445"}], "name": "St-Hippolyte-Parc-Walte", "links": [], "coord": {"lat": "48.232232", "lon": "7.366407"}, "label": "St-Hippolyte-Parc-Walte (Saint-Hippolyte)", "administrative_regions": [{"insee": "68296", "name": "Saint-Hippolyte", "level": 8, "coord": {"lat": "48.2326964", "lon": "7.3698232"}, "label": "Saint-Hippolyte (68590)", "id": "admin:fr:68296", "zip_code": "68590"}], "timezone": "Europe/Paris", "id": "stop_area:OCE:SA:87643445"}]}