{"pagination": {"start_page": 76, "items_on_page": 25, "items_per_page": 25, "total_result": 4343}, "links": [{"href": "https://api.sncf.com/v1/coverage/sncf/stop_areas/{stop_areas.id}", "type": "stop_areas", "rel": "stop_areas", "templated": true}, {"href": "https://api.sncf.com/v1/coverage/sncf/stop_areas/{stop_areas.id}/route_schedules", "type": "route_schedules", "rel": "route_schedules", "templated": true}, {"href": "https://api.sncf.com/v1/coverage/sncf/stop_areas/{stop_areas.id}/stop_schedules", "type": "stop_schedules", "rel": "stop_schedules", "templated": true}, {"href": "https://api.sncf.com/v1/coverage/sncf/stop_areas/{stop_areas.id}/arrivals", "type": "arrivals", "rel": "arrivals", "templated": true}, {"href": "https://api.sncf.com/v1/coverage/sncf/stop_areas/{stop_areas.id}/departures", "type": "departures", "rel": "departures", "templated": true}, {"href": "https://api.sncf.com/v1/coverage/sncf/stop_areas/{stop_areas.id}/places_nearby", "type": "places_nearby", "rel": "places_nearby", "templated": true}, {"href": "https://api.sncf.com/v1/coverage/sncf/stop_areas/{stop_areas.id}/journeys", "type": "journey", "rel": "journeys", "templated": true}, {"href": "https://api.sncf.com/v1/coverage/sncf/stop_areas/{stop_areas.id}/traffic_reports", "type": "disruption", "rel": "disruptions", "templated": true}, {"href": "https://api.sncf.com/v1/coverage/sncf/stop_areas?start_page=75", "type": "previous", "templated": false}, {"href": "https://api.sncf.com/v1/coverage/sncf/stop_areas?start_page=77", "type": "next", "templated": false}, {"href": "https://api.sncf.com/v1/coverage/sncf/stop_areas?start_page=173", "type": "last", "templated": false}, {"href": "https://api.sncf.com/v1/coverage/sncf/stop_areas", "type": "first", "templated": false}], "disruptions": [], "feed_publishers": [], "context": {"timezone": "Europe/Paris", "current_datetime": "20200210T135437"}, "stop_areas": [{"codes": [{"type": "CR-CI-CH", "value": "0087-673293-00"}, {"type": "CR-CI-CH", "value": "0087-673293-00"}, {"type": "UIC8", "value": "87673293"}, {"type": "external_code", "value": "OCE87673293"}], "name": "Labenne", "links": [], "coord": {"lat": "43.587104", "lon": "-1.428925"}, "label": "Labenne (Labenne)", "administrative_regions": [{"insee": "40133", "name": "Labenne", "level": 8, "coord": {"lat": "43.5977", "lon": "-1.42811"}, "label": "Labenne (40530)", "id": "admin:fr:40133", "zip_code": "40530"}], "timezone": "Europe/Paris", "id": "stop_area:OCE:SA:87673293"}, {"codes": [{"type": "CR-CI-CH", "value": "0087-715219-00"}, {"type": "CR-CI-CH", "value": "0087-715219-00"}, {"type": "UIC8", "value": "87715219"}, {"type": "external_code", "value": "OCE87715219"}], "name": "Labergement-Ste-Marie", "links": [], "coord": {"lat": "46.773147", "lon": "6.280666"}, "label": "Labergement-Ste-Marie (Labergement-Sainte-Marie)", "administrative_regions": [{"insee": "25320", "name": "Labergement-Sainte-Marie", "level": 8, "coord": {"lat": "46.7718015", "lon": "6.2794072"}, "label": "Labergement-Sainte-Marie (25160)", "id": "admin:fr:25320", "zip_code": "25160"}], "timezone": "Europe/Paris", "id": "stop_area:OCE:SA:87715219"}, {"codes": [{"type": "CR-CI-CH", "value": "0087-313676-00"}, {"type": "CR-CI-CH", "value": "0087-313676-00"}, {"type": "UIC8", "value": "87313676"}, {"type": "external_code", "value": "OCE87313676"}], "name": "Laboissi\u00e8re-le-D\u00e9luge", "links": [], "coord": {"lat": "49.288532", "lon": "2.13614"}, "label": "Laboissi\u00e8re-le-D\u00e9luge (Laboissi\u00e8re-en-Thelle)", "administrative_regions": [{"insee": "60330", "name": "Laboissi\u00e8re-en-Thelle", "level": 8, "coord": {"lat": "49.2881695", "lon": "2.15817"}, "label": "Laboissi\u00e8re-en-Thelle (60570)", "id": "admin:fr:60330", "zip_code": "60570"}], "timezone": "Europe/Paris", "id": "stop_area:OCE:SA:87313676"}, {"codes": [{"type": "CR-CI-CH", "value": "0087-582551-00"}, {"type": "CR-CI-CH", "value": "0087-582551-00"}, {"type": "UIC8", "value": "87582551"}, {"type": "external_code", "value": "OCE87582551"}], "name": "Labouheyre", "links": [], "coord": {"lat": "44.210577", "lon": "-0.920996"}, "label": "Labouheyre (Labouheyre)", "administrative_regions": [{"insee": "40134", "name": "Labouheyre", "level": 8, "coord": {"lat": "44.2125451", "lon": "-0.9189952"}, "label": "Labouheyre (40210)", "id": "admin:fr:40134", "zip_code": "40210"}], "timezone": "Europe/Paris", "id": "stop_area:OCE:SA:87582551"}, {"codes": [{"type": "CR-CI-CH", "value": "0087-611160-00"}, {"type": "CR-CI-CH", "value": "0087-611160-00"}, {"type": "UIC8", "value": "87611160"}, {"type": "external_code", "value": "OCE87611160"}], "name": "Labroq.-St-Bert.-de-Com", "links": [], "coord": {"lat": "43.038185", "lon": "0.593817"}, "label": "Labroq.-St-Bert.-de-Com (Labroqu\u00e8re)", "administrative_regions": [{"insee": "31255", "name": "Labroqu\u00e8re", "level": 8, "coord": {"lat": "43.0377", "lon": "0.5928870000000001"}, "label": "Labroqu\u00e8re (31510)", "id": "admin:fr:31255", "zip_code": "31510"}], "timezone": "Europe/Paris", "id": "stop_area:OCE:SA:87611160"}, {"codes": [{"type": "CR-CI-CH", "value": "0087-615526-BV"}, {"type": "CR-CI-CH", "value": "0087-615526-BV"}, {"type": "UIC8", "value": "87615526"}, {"type": "external_code", "value": "OCE87615526"}], "name": "Labrugui\u00e8re", "links": [], "coord": {"lat": "43.542586", "lon": "2.259229"}, "label": "Labrugui\u00e8re (Labrugui\u00e8re)", "administrative_regions": [{"insee": "81120", "name": "Labrugui\u00e8re", "level": 8, "coord": {"lat": "43.5402951", "lon": "2.2634222"}, "label": "Labrugui\u00e8re (81290)", "id": "admin:fr:81120", "zip_code": "81290"}], "timezone": "Europe/Paris", "id": "stop_area:OCE:SA:87615526"}, {"codes": [{"type": "CR-CI-CH", "value": "0087-165738-00"}, {"type": "CR-CI-CH", "value": "0087-165738-00"}, {"type": "UIC8", "value": "87165738"}, {"type": "external_code", "value": "OCE87165738"}], "name": "Labrugui\u00e8re-Abri-Bus", "links": [], "coord": {"lat": "43.539192", "lon": "2.264472"}, "label": "Labrugui\u00e8re-Abri-Bus (Labrugui\u00e8re)", "administrative_regions": [{"insee": "81120", "name": "Labrugui\u00e8re", "level": 8, "coord": {"lat": "43.5402951", "lon": "2.2634222"}, "label": "Labrugui\u00e8re (81290)", "id": "admin:fr:81120", "zip_code": "81290"}], "timezone": "Europe/Paris", "id": "stop_area:OCE:SA:87165738"}, {"codes": [{"type": "CR-CI-CH", "value": "0087-612002-00"}, {"type": "CR-CI-CH", "value": "0087-612002-00"}, {"type": "UIC8", "value": "87612002"}, {"type": "external_code", "value": "OCE87612002"}], "name": "Lab\u00e8ge-Innopole", "links": [], "coord": {"lat": "43.547461", "lon": "1.512958"}, "label": "Lab\u00e8ge-Innopole (Lab\u00e8ge)", "administrative_regions": [{"insee": "31254", "name": "Lab\u00e8ge", "level": 8, "coord": {"lat": "43.5292828", "lon": "1.5299721"}, "label": "Lab\u00e8ge (31670)", "id": "admin:fr:31254", "zip_code": "31670"}], "timezone": "Europe/Paris", "id": "stop_area:OCE:SA:87612002"}, {"codes": [{"type": "CR-CI-CH", "value": "0087-612028-00"}, {"type": "CR-CI-CH", "value": "0087-612028-00"}, {"type": "UIC8", "value": "87612028"}, {"type": "external_code", "value": "OCE87612028"}], "name": "Lab\u00e8ge-Village", "links": [], "coord": {"lat": "43.53051", "lon": "1.533338"}, "label": "Lab\u00e8ge-Village (Lab\u00e8ge)", "administrative_regions": [{"insee": "31254", "name": "Lab\u00e8ge", "level": 8, "coord": {"lat": "43.5292828", "lon": "1.5299721"}, "label": "Lab\u00e8ge (31670)", "id": "admin:fr:31254", "zip_code": "31670"}], "timezone": "Europe/Paris", "id": "stop_area:OCE:SA:87612028"}, {"codes": [{"type": "CR-CI-CH", "value": "0087-592147-00"}, {"type": "CR-CI-CH", "value": "0087-592147-00"}, {"type": "UIC8", "value": "87592147"}, {"type": "external_code", "value": "OCE87592147"}], "name": "Lacelle-Corr\u00e8ze", "links": [], "coord": {"lat": "45.641324", "lon": "1.826406"}, "label": "Lacelle-Corr\u00e8ze (Lacelle)", "administrative_regions": [{"insee": "19095", "name": "Lacelle", "level": 8, "coord": {"lat": "45.640881", "lon": "1.8260453"}, "label": "Lacelle (19170)", "id": "admin:fr:19095", "zip_code": "19170"}], "timezone": "Europe/Paris", "id": "stop_area:OCE:SA:87592147"}, {"codes": [{"type": "CR-CI-CH", "value": "0087-731828-00"}, {"type": "CR-CI-CH", "value": "0087-731828-00"}, {"type": "UIC8", "value": "87731828"}, {"type": "external_code", "value": "OCE87731828"}], "name": "Lachaud-Curmilhac", "links": [], "coord": {"lat": "45.122874", "lon": "3.610398"}, "label": "Lachaud-Curmilhac (Vissac-Auteyrac)", "administrative_regions": [{"insee": "43013", "name": "Vissac-Auteyrac", "level": 8, "coord": {"lat": "45.1227568", "lon": "3.6093522"}, "label": "Vissac-Auteyrac (43300)", "id": "admin:fr:43013", "zip_code": "43300"}], "timezone": "Europe/Paris", "id": "stop_area:OCE:SA:87731828"}, {"codes": [{"type": "CR-CI-CH", "value": "0087-611434-BV"}, {"type": "CR-CI-CH", "value": "0087-611434-BV"}, {"type": "UIC8", "value": "87611434"}, {"type": "external_code", "value": "OCE87611434"}], "name": "Lacourtensourt", "links": [], "coord": {"lat": "43.663845", "lon": "1.414126"}, "label": "Lacourtensourt (Toulouse)", "administrative_regions": [{"insee": "31555", "name": "Toulouse", "level": 8, "coord": {"lat": "43.6044622", "lon": "1.4442469"}, "label": "Toulouse (31000-31500)", "id": "admin:fr:31555", "zip_code": "31000;31500"}], "timezone": "Europe/Paris", "id": "stop_area:OCE:SA:87611434"}, {"codes": [{"type": "CR-CI-CH", "value": "0087-592733-00"}, {"type": "CR-CI-CH", "value": "0087-592733-00"}, {"type": "UIC8", "value": "87592733"}, {"type": "external_code", "value": "OCE87592733"}], "name": "Lafarge", "links": [], "coord": {"lat": "45.633853", "lon": "1.130917"}, "label": "Lafarge (Saint-Hilaire-les-Places)", "administrative_regions": [{"insee": "87150", "name": "Saint-Hilaire-les-Places", "level": 8, "coord": {"lat": "45.6450393", "lon": "1.1588513"}, "label": "Saint-Hilaire-les-Places (87800)", "id": "admin:fr:87150", "zip_code": "87800"}], "timezone": "Europe/Paris", "id": "stop_area:OCE:SA:87592733"}, {"codes": [{"type": "CR-CI-CH", "value": "0087-116319-00"}, {"type": "CR-CI-CH", "value": "0087-116319-00"}, {"type": "UIC8", "value": "87116319"}, {"type": "external_code", "value": "OCE87116319"}], "name": "Lagny-Thorigny", "links": [], "coord": {"lat": "48.882011", "lon": "2.704102"}, "label": "Lagny-Thorigny (Thorigny-sur-Marne)", "administrative_regions": [{"insee": "77464", "name": "Thorigny-sur-Marne", "level": 8, "coord": {"lat": "48.8841856", "lon": "2.7115737"}, "label": "Thorigny-sur-Marne (77400)", "id": "admin:fr:77464", "zip_code": "77400"}], "timezone": "Europe/Paris", "id": "stop_area:OCE:SA:87116319"}, {"codes": [{"type": "CR-CI-CH", "value": "0087-613471-00"}, {"type": "CR-CI-CH", "value": "0087-613471-00"}, {"type": "UIC8", "value": "87613471"}, {"type": "external_code", "value": "OCE87613471"}], "name": "Lagu\u00e9pie", "links": [], "coord": {"lat": "44.145489", "lon": "1.96863"}, "label": "Lagu\u00e9pie (Lagu\u00e9pie)", "administrative_regions": [{"insee": "82088", "name": "Lagu\u00e9pie", "level": 8, "coord": {"lat": "44.1452778", "lon": "1.9705556"}, "label": "Lagu\u00e9pie (82250)", "id": "admin:fr:82088", "zip_code": "82250"}], "timezone": "Europe/Paris", "id": "stop_area:OCE:SA:87613471"}, {"codes": [{"type": "CR-CI-CH", "value": "0080-143198-00"}, {"type": "CR-CI-CH", "value": "0080-143198-00"}, {"type": "CR-CI-CH", "value": "0080-143198-BV"}, {"type": "UIC8", "value": "80143198"}, {"type": "external_code", "value": "OCE80143198"}], "name": "Lahr", "links": [], "coord": {"lat": "48.34061", "lon": "7.835311"}, "label": "Lahr (Lahr/Schwarzwald)", "administrative_regions": [{"insee": "", "name": "Lahr/Schwarzwald", "level": 8, "coord": {"lat": "48.3355119416172", "lon": "7.87423477439492"}, "label": "Lahr/Schwarzwald", "id": "admin:osm:relation:453002", "zip_code": ""}], "timezone": "Europe/Paris", "id": "stop_area:OCE:SA:80143198"}, {"codes": [{"type": "CR-CI-CH", "value": "0087-172072-00"}, {"type": "CR-CI-CH", "value": "0087-172072-00"}, {"type": "UIC8", "value": "87172072"}, {"type": "external_code", "value": "OCE87172072"}], "name": "Laifour", "links": [], "coord": {"lat": "49.911504", "lon": "4.692807"}, "label": "Laifour (Laifour)", "administrative_regions": [{"insee": "8242", "name": "Laifour", "level": 8, "coord": {"lat": "49.91235", "lon": "4.69169"}, "label": "Laifour (08800)", "id": "admin:fr:8242", "zip_code": "08800"}], "timezone": "Europe/Paris", "id": "stop_area:OCE:SA:87172072"}, {"codes": [{"type": "CR-CI-CH", "value": "0087-276204-00"}, {"type": "CR-CI-CH", "value": "0087-276204-00"}, {"type": "UIC8", "value": "87276204"}, {"type": "external_code", "value": "OCE87276204"}], "name": "Laigneville", "links": [], "coord": {"lat": "49.292664", "lon": "2.449433"}, "label": "Laigneville (Laigneville)", "administrative_regions": [{"insee": "60342", "name": "Laigneville", "level": 8, "coord": {"lat": "49.2956967", "lon": "2.4447527"}, "label": "Laigneville (60290)", "id": "admin:fr:60342", "zip_code": "60290"}], "timezone": "Europe/Paris", "id": "stop_area:OCE:SA:87276204"}, {"codes": [{"type": "CR-CI-CH", "value": "0087-396556-00"}, {"type": "CR-CI-CH", "value": "0087-396556-00"}, {"type": "UIC8", "value": "87396556"}, {"type": "external_code", "value": "OCE87396556"}], "name": "Laign\u00e9-St-Gervais", "links": [], "coord": {"lat": "47.874014", "lon": "0.217133"}, "label": "Laign\u00e9-St-Gervais (Saint-Gervais-en-Belin)", "administrative_regions": [{"insee": "72287", "name": "Saint-Gervais-en-Belin", "level": 8, "coord": {"lat": "47.8767158", "lon": "0.2177979"}, "label": "Saint-Gervais-en-Belin (72220)", "id": "admin:fr:72287", "zip_code": "72220"}], "timezone": "Europe/Paris", "id": "stop_area:OCE:SA:87396556"}, {"codes": [{"type": "CR-CI-CH", "value": "0087-471144-00"}, {"type": "CR-CI-CH", "value": "0087-471144-00"}, {"type": "UIC8", "value": "87471144"}, {"type": "external_code", "value": "OCE87471144"}], "name": "Laill\u00e9", "links": [], "coord": {"lat": "47.970606", "lon": "-1.749555"}, "label": "Laill\u00e9 (Guichen)", "administrative_regions": [{"insee": "35126", "name": "Guichen", "level": 8, "coord": {"lat": "47.9659271", "lon": "-1.7970987"}, "label": "Guichen (35580)", "id": "admin:fr:35126", "zip_code": "35580"}], "timezone": "Europe/Paris", "id": "stop_area:OCE:SA:87471144"}, {"codes": [{"type": "CR-CI-CH", "value": "0087-177170-00"}, {"type": "CR-CI-CH", "value": "0087-177170-00"}, {"type": "UIC8", "value": "87177170"}, {"type": "external_code", "value": "OCE87177170"}], "name": "Laissac-Foirail", "links": [], "coord": {"lat": "44.382408", "lon": "2.821621"}, "label": "Laissac-Foirail (Laissac-S\u00e9v\u00e9rac l'\u00c9glise)", "administrative_regions": [{"insee": "12120", "name": "Laissac-S\u00e9v\u00e9rac l'\u00c9glise", "level": 8, "coord": {"lat": "44.3809557", "lon": "2.8244663"}, "label": "Laissac-S\u00e9v\u00e9rac l'\u00c9glise (12310)", "id": "admin:fr:12120", "zip_code": "12310"}], "timezone": "Europe/Paris", "id": "stop_area:OCE:SA:87177170"}, {"codes": [{"type": "CR-CI-CH", "value": "0087-450874-HR"}, {"type": "CR-CI-CH", "value": "0087-450874-HR"}, {"type": "UIC8", "value": "87450874"}, {"type": "external_code", "value": "OCE87450874"}], "name": "Laissac-Gr\u00e8ze-Embrt", "links": [], "coord": {"lat": "44.367667", "lon": "2.851694"}, "label": "Laissac-Gr\u00e8ze-Embrt (Laissac-S\u00e9v\u00e9rac l'\u00c9glise)", "administrative_regions": [{"insee": "12120", "name": "Laissac-S\u00e9v\u00e9rac l'\u00c9glise", "level": 8, "coord": {"lat": "44.3809557", "lon": "2.8244663"}, "label": "Laissac-S\u00e9v\u00e9rac l'\u00c9glise (12310)", "id": "admin:fr:12120", "zip_code": "12310"}], "timezone": "Europe/Paris", "id": "stop_area:OCE:SA:87450874"}, {"codes": [{"type": "CR-CI-CH", "value": "0087-718437-00"}, {"type": "CR-CI-CH", "value": "0087-718437-00"}, {"type": "UIC8", "value": "87718437"}, {"type": "external_code", "value": "OCE87718437"}], "name": "Laissey", "links": [], "coord": {"lat": "47.298881", "lon": "6.23369"}, "label": "Laissey (Laissey)", "administrative_regions": [{"insee": "25323", "name": "Laissey", "level": 8, "coord": {"lat": "47.2974117", "lon": "6.2322357"}, "label": "Laissey (25820)", "id": "admin:fr:25323", "zip_code": "25820"}], "timezone": "Europe/Paris", "id": "stop_area:OCE:SA:87718437"}, {"codes": [{"type": "CR-CI-CH", "value": "0087-746842-00"}, {"type": "CR-CI-CH", "value": "0087-746842-00"}, {"type": "UIC8", "value": "87746842"}, {"type": "external_code", "value": "OCE87746842"}], "name": "Lajoux", "links": [], "coord": {"lat": "45.964979", "lon": "6.910236"}, "label": "Lajoux (Chamonix-Mont-Blanc)", "administrative_regions": [{"insee": "74056", "name": "Chamonix-Mont-Blanc", "level": 8, "coord": {"lat": "45.9246705", "lon": "6.8727506"}, "label": "Chamonix-Mont-Blanc (74400)", "id": "admin:fr:74056", "zip_code": "74400"}], "timezone": "Europe/Paris", "id": "stop_area:OCE:SA:87746842"}, {"codes": [{"type": "CR-CI-CH", "value": "0087-613323-BV"}, {"type": "CR-CI-CH", "value": "0087-613323-BV"}, {"type": "UIC8", "value": "87613323"}, {"type": "external_code", "value": "OCE87613323"}], "name": "Lalbenque-Fontanes", "links": [], "coord": {"lat": "44.332731", "lon": "1.511304"}, "label": "Lalbenque-Fontanes (Fontanes)", "administrative_regions": [{"insee": "46109", "name": "Fontanes", "level": 8, "coord": {"lat": "44.310561", "lon": "1.4965305"}, "label": "Fontanes (46230)", "id": "admin:fr:46109", "zip_code": "46230"}], "timezone": "Europe/Paris", "id": "stop_area:OCE:SA:87613323"}]}