{"pagination": {"start_page": 10, "items_on_page": 25, "items_per_page": 25, "total_result": 4343}, "links": [{"href": "https://api.sncf.com/v1/coverage/sncf/stop_areas/{stop_areas.id}", "type": "stop_areas", "rel": "stop_areas", "templated": true}, {"href": "https://api.sncf.com/v1/coverage/sncf/stop_areas/{stop_areas.id}/route_schedules", "type": "route_schedules", "rel": "route_schedules", "templated": true}, {"href": "https://api.sncf.com/v1/coverage/sncf/stop_areas/{stop_areas.id}/stop_schedules", "type": "stop_schedules", "rel": "stop_schedules", "templated": true}, {"href": "https://api.sncf.com/v1/coverage/sncf/stop_areas/{stop_areas.id}/arrivals", "type": "arrivals", "rel": "arrivals", "templated": true}, {"href": "https://api.sncf.com/v1/coverage/sncf/stop_areas/{stop_areas.id}/departures", "type": "departures", "rel": "departures", "templated": true}, {"href": "https://api.sncf.com/v1/coverage/sncf/stop_areas/{stop_areas.id}/places_nearby", "type": "places_nearby", "rel": "places_nearby", "templated": true}, {"href": "https://api.sncf.com/v1/coverage/sncf/stop_areas/{stop_areas.id}/journeys", "type": "journey", "rel": "journeys", "templated": true}, {"href": "https://api.sncf.com/v1/coverage/sncf/stop_areas/{stop_areas.id}/traffic_reports", "type": "disruption", "rel": "disruptions", "templated": true}, {"href": "https://api.sncf.com/v1/coverage/sncf/stop_areas?start_page=9", "type": "previous", "templated": false}, {"href": "https://api.sncf.com/v1/coverage/sncf/stop_areas?start_page=11", "type": "next", "templated": false}, {"href": "https://api.sncf.com/v1/coverage/sncf/stop_areas?start_page=173", "type": "last", "templated": false}, {"href": "https://api.sncf.com/v1/coverage/sncf/stop_areas", "type": "first", "templated": false}], "disruptions": [], "feed_publishers": [], "context": {"timezone": "Europe/Paris", "current_datetime": "20200210T135429"}, "stop_areas": [{"codes": [{"type": "CR-CI-CH", "value": "0087-271494-BV"}, {"type": "CR-CI-CH", "value": "0087-271494-BV"}, {"type": "UIC8", "value": "87271494"}, {"type": "external_code", "value": "OCE87271494"}], "name": "A\u00e9ropt-C-de-Gaulle-TGV", "links": [], "coord": {"lat": "49.004018", "lon": "2.571588"}, "label": "A\u00e9ropt-C-de-Gaulle-TGV (Le Mesnil-Amelot)", "administrative_regions": [{"insee": "77291", "name": "Le Mesnil-Amelot", "level": 8, "coord": {"lat": "49.0172102", "lon": "2.5910318"}, "label": "Le Mesnil-Amelot (77990)", "id": "admin:fr:77291", "zip_code": "77990"}], "timezone": "Europe/Paris", "id": "stop_area:OCE:SA:87271494"}, {"codes": [{"type": "CR-CI-CH", "value": "0087-590349-00"}, {"type": "CR-CI-CH", "value": "0087-590349-00"}, {"type": "UIC8", "value": "87590349"}, {"type": "external_code", "value": "OCE87590349"}], "name": "Babini\u00e8re", "links": [], "coord": {"lat": "47.259109", "lon": "-1.545327"}, "label": "Babini\u00e8re (La Chapelle-sur-Erdre)", "administrative_regions": [{"insee": "44035", "name": "La Chapelle-sur-Erdre", "level": 8, "coord": {"lat": "47.2996846", "lon": "-1.5518632"}, "label": "La Chapelle-sur-Erdre (44240)", "id": "admin:fr:44035", "zip_code": "44240"}], "timezone": "Europe/Paris", "id": "stop_area:OCE:SA:87590349"}, {"codes": [{"type": "CR-CI-CH", "value": "0087-141416-00"}, {"type": "CR-CI-CH", "value": "0087-141416-00"}, {"type": "UIC8", "value": "87141416"}, {"type": "external_code", "value": "OCE87141416"}], "name": "Baccarat", "links": [], "coord": {"lat": "48.452278", "lon": "6.744065"}, "label": "Baccarat (Baccarat)", "administrative_regions": [{"insee": "54039", "name": "Baccarat", "level": 8, "coord": {"lat": "48.4487414", "lon": "6.7381417"}, "label": "Baccarat (54120)", "id": "admin:fr:54039", "zip_code": "54120"}], "timezone": "Europe/Paris", "id": "stop_area:OCE:SA:87141416"}, {"codes": [{"type": "CR-CI-CH", "value": "0080-142778-BV"}, {"type": "CR-CI-CH", "value": "0080-142778-BV"}, {"type": "UIC8", "value": "80142778"}, {"type": "external_code", "value": "OCE80142778"}], "name": "Baden-Baden", "links": [], "coord": {"lat": "48.790303", "lon": "8.191193999999999"}, "label": "Baden-Baden (Baden-Baden)", "administrative_regions": [{"insee": "", "name": "Baden-Baden", "level": 8, "coord": {"lat": "48.7580777", "lon": "8.241523900000001"}, "label": "Baden-Baden", "id": "admin:osm:relation:62340", "zip_code": ""}], "timezone": "Europe/Paris", "id": "stop_area:OCE:SA:80142778"}, {"codes": [{"type": "CR-CI-CH", "value": "0087-170357-00"}, {"type": "CR-CI-CH", "value": "0087-170357-00"}, {"type": "UIC8", "value": "87170357"}, {"type": "external_code", "value": "OCE87170357"}], "name": "Bagiry", "links": [], "coord": {"lat": "42.97584", "lon": "0.625277"}, "label": "Bagiry (Bagiry)", "administrative_regions": [{"insee": "31041", "name": "Bagiry", "level": 8, "coord": {"lat": "42.9781", "lon": "0.626826"}, "label": "Bagiry (31510)", "id": "admin:fr:31041", "zip_code": "31510"}], "timezone": "Europe/Paris", "id": "stop_area:OCE:SA:87170357"}, {"codes": [{"type": "CR-CI-CH", "value": "0087-613604-BV"}, {"type": "CR-CI-CH", "value": "0087-613604-BV"}, {"type": "UIC8", "value": "87613604"}, {"type": "external_code", "value": "OCE87613604"}], "name": "Bagnac", "links": [], "coord": {"lat": "44.66528", "lon": "2.160163"}, "label": "Bagnac (Bagnac-sur-C\u00e9l\u00e9)", "administrative_regions": [{"insee": "46015", "name": "Bagnac-sur-C\u00e9l\u00e9", "level": 8, "coord": {"lat": "44.6667052", "lon": "2.1570481"}, "label": "Bagnac-sur-C\u00e9l\u00e9 (46270)", "id": "admin:fr:46015", "zip_code": "46270"}], "timezone": "Europe/Paris", "id": "stop_area:OCE:SA:87613604"}, {"codes": [{"type": "CR-CI-CH", "value": "0087-684191-00"}, {"type": "CR-CI-CH", "value": "0087-684191-00"}, {"type": "UIC8", "value": "87684191"}, {"type": "external_code", "value": "OCE87684191"}], "name": "Bagneaux-sur-Loing", "links": [], "coord": {"lat": "48.230721", "lon": "2.703253"}, "label": "Bagneaux-sur-Loing (Bagneaux-sur-Loing)", "administrative_regions": [{"insee": "77016", "name": "Bagneaux-sur-Loing", "level": 8, "coord": {"lat": "48.2314677", "lon": "2.7042711"}, "label": "Bagneaux-sur-Loing (77167)", "id": "admin:fr:77016", "zip_code": "77167"}], "timezone": "Europe/Paris", "id": "stop_area:OCE:SA:87684191"}, {"codes": [{"type": "CR-CI-CH", "value": "0087-758680-00"}, {"type": "CR-CI-CH", "value": "0087-758680-00"}, {"type": "UIC8", "value": "87758680"}, {"type": "external_code", "value": "OCE87758680"}], "name": "Bagneux", "links": [], "coord": {"lat": "48.793211", "lon": "2.321012"}, "label": "Bagneux (Cachan)", "administrative_regions": [{"insee": "94016", "name": "Cachan", "level": 8, "coord": {"lat": "48.7945413", "lon": "2.3340758"}, "label": "Cachan (94230)", "id": "admin:fr:94016", "zip_code": "94230"}], "timezone": "Europe/Paris", "id": "stop_area:OCE:SA:87758680"}, {"codes": [{"type": "CR-CI-CH", "value": "0087-449330-00"}, {"type": "CR-CI-CH", "value": "0087-449330-00"}, {"type": "UIC8", "value": "87449330"}, {"type": "external_code", "value": "OCE87449330"}], "name": "Bagnoles- Orne Egl.Mad.", "links": [], "coord": {"lat": "48.549719", "lon": "-0.424727"}, "label": "Bagnoles- Orne Egl.Mad. (Bagnoles-de-l'Orne-Normandie)", "administrative_regions": [{"insee": "61483", "name": "Bagnoles-de-l'Orne-Normandie", "level": 8, "coord": {"lat": "48.5539388", "lon": "-0.4229186"}, "label": "Bagnoles-de-l'Orne-Normandie (61140-61600)", "id": "admin:fr:61483", "zip_code": "61140;61600"}], "timezone": "Europe/Paris", "id": "stop_area:OCE:SA:87449330"}, {"codes": [{"type": "CR-CI-CH", "value": "0087-352484-00"}, {"type": "CR-CI-CH", "value": "0087-352484-00"}, {"type": "UIC8", "value": "87352484"}, {"type": "external_code", "value": "OCE87352484"}], "name": "Bagnoles-de-l'Orne O.T.", "links": [], "coord": {"lat": "48.557217", "lon": "-0.412509"}, "label": "Bagnoles-de-l'Orne O.T. (Bagnoles-de-l'Orne-Normandie)", "administrative_regions": [{"insee": "61483", "name": "Bagnoles-de-l'Orne-Normandie", "level": 8, "coord": {"lat": "48.5539388", "lon": "-0.4229186"}, "label": "Bagnoles-de-l'Orne-Normandie (61140-61600)", "id": "admin:fr:61483", "zip_code": "61140;61600"}], "timezone": "Europe/Paris", "id": "stop_area:OCE:SA:87352484"}, {"codes": [{"type": "CR-CI-CH", "value": "0087-783647-00"}, {"type": "CR-CI-CH", "value": "0087-783647-00"}, {"type": "UIC8", "value": "87783647"}, {"type": "external_code", "value": "OCE87783647"}], "name": "Bagnols-Chadenet", "links": [], "coord": {"lat": "44.528315", "lon": "3.628142"}, "label": "Bagnols-Chadenet (Chadenet)", "administrative_regions": [{"insee": "48037", "name": "Chadenet", "level": 8, "coord": {"lat": "44.5196", "lon": "3.63332"}, "label": "Chadenet (48190)", "id": "admin:fr:48037", "zip_code": "48190"}], "timezone": "Europe/Paris", "id": "stop_area:OCE:SA:87783647"}, {"codes": [{"type": "CR-CI-CH", "value": "0087-773457-BV"}, {"type": "CR-CI-CH", "value": "0087-773457-BV"}, {"type": "UIC8", "value": "87773457"}, {"type": "external_code", "value": "OCE87773457"}], "name": "Baillargues", "links": [], "coord": {"lat": "43.653117", "lon": "4.006689"}, "label": "Baillargues (Baillargues)", "administrative_regions": [{"insee": "34022", "name": "Baillargues", "level": 8, "coord": {"lat": "43.6609569", "lon": "4.0133114"}, "label": "Baillargues (34670)", "id": "admin:fr:34022", "zip_code": "34670"}], "timezone": "Europe/Paris", "id": "stop_area:OCE:SA:87773457"}, {"codes": [{"type": "CR-CI-CH", "value": "0087-394411-00"}, {"type": "CR-CI-CH", "value": "0087-394411-00"}, {"type": "UIC8", "value": "87394411"}, {"type": "external_code", "value": "OCE87394411"}], "name": "Bailleau-le-Pin", "links": [], "coord": {"lat": "48.36683", "lon": "1.325031"}, "label": "Bailleau-le-Pin (Bailleau-le-Pin)", "administrative_regions": [{"insee": "28021", "name": "Bailleau-le-Pin", "level": 8, "coord": {"lat": "48.3649496", "lon": "1.3278089"}, "label": "Bailleau-le-Pin (28120)", "id": "admin:fr:28021", "zip_code": "28120"}], "timezone": "Europe/Paris", "id": "stop_area:OCE:SA:87394411"}, {"codes": [{"type": "CR-CI-CH", "value": "0087-286179-00"}, {"type": "CR-CI-CH", "value": "0087-286179-00"}, {"type": "UIC8", "value": "87286179"}, {"type": "external_code", "value": "OCE87286179"}], "name": "Bailleul (Nord)", "links": [], "coord": {"lat": "50.729122", "lon": "2.7345"}, "label": "Bailleul (Nord) (Bailleul)", "administrative_regions": [{"insee": "59043", "name": "Bailleul", "level": 8, "coord": {"lat": "50.7396668", "lon": "2.7349286"}, "label": "Bailleul (59270)", "id": "admin:fr:59043", "zip_code": "59270"}], "timezone": "Europe/Paris", "id": "stop_area:OCE:SA:87286179"}, {"codes": [{"type": "CR-CI-CH", "value": "0087-342592-00"}, {"type": "CR-CI-CH", "value": "0087-342592-00"}, {"type": "UIC8", "value": "87342592"}, {"type": "external_code", "value": "OCE87342592"}], "name": "Bailleul Sir Berthoult", "links": [], "coord": {"lat": "50.335313", "lon": "2.841099"}, "label": "Bailleul Sir Berthoult (Bailleul-Sir-Berthoult)", "administrative_regions": [{"insee": "62073", "name": "Bailleul-Sir-Berthoult", "level": 8, "coord": {"lat": "50.3377554", "lon": "2.8514597"}, "label": "Bailleul-Sir-Berthoult (62580)", "id": "admin:fr:62073", "zip_code": "62580"}], "timezone": "Europe/Paris", "id": "stop_area:OCE:SA:87342592"}, {"codes": [{"type": "CR-CI-CH", "value": "0087-144147-00"}, {"type": "CR-CI-CH", "value": "0087-144147-00"}, {"type": "UIC8", "value": "87144147"}, {"type": "external_code", "value": "OCE87144147"}], "name": "Bains-les-Bains", "links": [], "coord": {"lat": "47.981215", "lon": "6.295184"}, "label": "Bains-les-Bains (Le Clerjus)", "administrative_regions": [{"insee": "88108", "name": "Le Clerjus", "level": 8, "coord": {"lat": "47.9601", "lon": "6.3221"}, "label": "Le Clerjus (88240)", "id": "admin:fr:88108", "zip_code": "88240"}], "timezone": "Europe/Paris", "id": "stop_area:OCE:SA:87144147"}, {"codes": [{"type": "CR-CI-CH", "value": "0087-286872-00"}, {"type": "CR-CI-CH", "value": "0087-286872-00"}, {"type": "UIC8", "value": "87286872"}, {"type": "external_code", "value": "OCE87286872"}], "name": "Baisieux", "links": [], "coord": {"lat": "50.618346", "lon": "3.23469"}, "label": "Baisieux (Baisieux)", "administrative_regions": [{"insee": "59044", "name": "Baisieux", "level": 8, "coord": {"lat": "50.6148786", "lon": "3.2410393"}, "label": "Baisieux (59780)", "id": "admin:fr:59044", "zip_code": "59780"}], "timezone": "Europe/Paris", "id": "stop_area:OCE:SA:87286872"}, {"codes": [{"type": "CR-CI-CH", "value": "0087-313569-00"}, {"type": "CR-CI-CH", "value": "0087-313569-00"}, {"type": "UIC8", "value": "87313569"}, {"type": "external_code", "value": "OCE87313569"}], "name": "Balagny-St-Epin", "links": [], "coord": {"lat": "49.294288", "lon": "2.343999"}, "label": "Balagny-St-Epin (Balagny-sur-Th\u00e9rain)", "administrative_regions": [{"insee": "60044", "name": "Balagny-sur-Th\u00e9rain", "level": 8, "coord": {"lat": "49.2959835", "lon": "2.3361068"}, "label": "Balagny-sur-Th\u00e9rain (60250)", "id": "admin:fr:60044", "zip_code": "60250"}], "timezone": "Europe/Paris", "id": "stop_area:OCE:SA:87313569"}, {"codes": [{"type": "CR-CI-CH", "value": "0087-726869-00"}, {"type": "CR-CI-CH", "value": "0087-726869-00"}, {"type": "UIC8", "value": "87726869"}, {"type": "external_code", "value": "OCE87726869"}], "name": "Balbigny", "links": [], "coord": {"lat": "45.817785", "lon": "4.187385"}, "label": "Balbigny (Balbigny)", "administrative_regions": [{"insee": "42011", "name": "Balbigny", "level": 8, "coord": {"lat": "45.8187228", "lon": "4.1833034"}, "label": "Balbigny (42510)", "id": "admin:fr:42011", "zip_code": "42510"}], "timezone": "Europe/Paris", "id": "stop_area:OCE:SA:87726869"}, {"codes": [{"type": "CR-CI-CH", "value": "0087-698399-HR"}, {"type": "UIC8", "value": "87698399"}, {"type": "external_code", "value": "OCE87698399"}], "name": "Balbigny Gare Routi\u00e8re", "links": [], "coord": {"lat": "45.817749", "lon": "4.187397"}, "label": "Balbigny Gare Routi\u00e8re (Balbigny)", "administrative_regions": [{"insee": "42011", "name": "Balbigny", "level": 8, "coord": {"lat": "45.8187228", "lon": "4.1833034"}, "label": "Balbigny (42510)", "id": "admin:fr:42011", "zip_code": "42510"}], "timezone": "Europe/Paris", "id": "stop_area:OCE:SA:87698399"}, {"codes": [{"type": "CR-CI-CH", "value": "0087-571604-00"}, {"type": "CR-CI-CH", "value": "0087-571604-00"}, {"type": "UIC8", "value": "87571604"}, {"type": "external_code", "value": "OCE87571604"}], "name": "Ballan", "links": [], "coord": {"lat": "47.336758", "lon": "0.61808"}, "label": "Ballan (Ballan-Mir\u00e9)", "administrative_regions": [{"insee": "37018", "name": "Ballan-Mir\u00e9", "level": 8, "coord": {"lat": "47.3413214", "lon": "0.6131325"}, "label": "Ballan-Mir\u00e9 (37510)", "id": "admin:fr:37018", "zip_code": "37510"}], "timezone": "Europe/Paris", "id": "stop_area:OCE:SA:87571604"}, {"codes": [{"type": "CR-CI-CH", "value": "0087-681437-00"}, {"type": "CR-CI-CH", "value": "0087-681437-00"}, {"type": "UIC8", "value": "87681437"}, {"type": "external_code", "value": "OCE87681437"}], "name": "Ballancourt", "links": [], "coord": {"lat": "48.532433", "lon": "2.371283"}, "label": "Ballancourt (Ballancourt-sur-Essonne)", "administrative_regions": [{"insee": "91045", "name": "Ballancourt-sur-Essonne", "level": 8, "coord": {"lat": "48.5262129", "lon": "2.3858373"}, "label": "Ballancourt-sur-Essonne (91610)", "id": "admin:fr:91045", "zip_code": "91610"}], "timezone": "Europe/Paris", "id": "stop_area:OCE:SA:87681437"}, {"codes": [{"type": "CR-CI-CH", "value": "0087-640656-HR"}, {"type": "CR-CI-CH", "value": "0087-640656-HR"}, {"type": "UIC8", "value": "87640656"}, {"type": "external_code", "value": "OCE87640656"}], "name": "Balsieges-Arr\u00eat-RN88", "links": [], "coord": {"lat": "44.482325", "lon": "3.456205"}, "label": "Balsieges-Arr\u00eat-RN88 (Balsi\u00e8ges)", "administrative_regions": [{"insee": "48016", "name": "Balsi\u00e8ges", "level": 8, "coord": {"lat": "44.4823208", "lon": "3.4575849"}, "label": "Balsi\u00e8ges (48000)", "id": "admin:fr:48016", "zip_code": "48000"}], "timezone": "Europe/Paris", "id": "stop_area:OCE:SA:87640656"}, {"codes": [{"type": "CR-CI-CH", "value": "0087-111864-00"}, {"type": "CR-CI-CH", "value": "0087-111864-00"}, {"type": "UIC8", "value": "87111864"}, {"type": "external_code", "value": "OCE87111864"}], "name": "Balsieges-Bourg", "links": [], "coord": {"lat": "44.482274", "lon": "3.456858"}, "label": "Balsieges-Bourg (Balsi\u00e8ges)", "administrative_regions": [{"insee": "48016", "name": "Balsi\u00e8ges", "level": 8, "coord": {"lat": "44.4823208", "lon": "3.4575849"}, "label": "Balsi\u00e8ges (48000)", "id": "admin:fr:48016", "zip_code": "48000"}], "timezone": "Europe/Paris", "id": "stop_area:OCE:SA:87111864"}, {"codes": [{"type": "CR-CI-CH", "value": "0087-783324-00"}, {"type": "CR-CI-CH", "value": "0087-783324-00"}, {"type": "UIC8", "value": "87783324"}, {"type": "external_code", "value": "OCE87783324"}], "name": "Banassac-la-Canourgue", "links": [], "coord": {"lat": "44.447642", "lon": "3.19621"}, "label": "Banassac-la-Canourgue (Banassac-Canilhac)", "administrative_regions": [{"insee": "48017", "name": "Banassac-Canilhac", "level": 8, "coord": {"lat": "44.4346927", "lon": "3.2014936"}, "label": "Banassac-Canilhac", "id": "admin:fr:48017", "zip_code": ""}], "timezone": "Europe/Paris", "id": "stop_area:OCE:SA:87783324"}]}