{"pagination": {"start_page": 77, "items_on_page": 25, "items_per_page": 25, "total_result": 4343}, "links": [{"href": "https://api.sncf.com/v1/coverage/sncf/stop_areas/{stop_areas.id}", "type": "stop_areas", "rel": "stop_areas", "templated": true}, {"href": "https://api.sncf.com/v1/coverage/sncf/stop_areas/{stop_areas.id}/route_schedules", "type": "route_schedules", "rel": "route_schedules", "templated": true}, {"href": "https://api.sncf.com/v1/coverage/sncf/stop_areas/{stop_areas.id}/stop_schedules", "type": "stop_schedules", "rel": "stop_schedules", "templated": true}, {"href": "https://api.sncf.com/v1/coverage/sncf/stop_areas/{stop_areas.id}/arrivals", "type": "arrivals", "rel": "arrivals", "templated": true}, {"href": "https://api.sncf.com/v1/coverage/sncf/stop_areas/{stop_areas.id}/departures", "type": "departures", "rel": "departures", "templated": true}, {"href": "https://api.sncf.com/v1/coverage/sncf/stop_areas/{stop_areas.id}/places_nearby", "type": "places_nearby", "rel": "places_nearby", "templated": true}, {"href": "https://api.sncf.com/v1/coverage/sncf/stop_areas/{stop_areas.id}/journeys", "type": "journey", "rel": "journeys", "templated": true}, {"href": "https://api.sncf.com/v1/coverage/sncf/stop_areas/{stop_areas.id}/traffic_reports", "type": "disruption", "rel": "disruptions", "templated": true}, {"href": "https://api.sncf.com/v1/coverage/sncf/stop_areas?start_page=76", "type": "previous", "templated": false}, {"href": "https://api.sncf.com/v1/coverage/sncf/stop_areas?start_page=78", "type": "next", "templated": false}, {"href": "https://api.sncf.com/v1/coverage/sncf/stop_areas?start_page=173", "type": "last", "templated": false}, {"href": "https://api.sncf.com/v1/coverage/sncf/stop_areas", "type": "first", "templated": false}], "disruptions": [], "feed_publishers": [], "context": {"timezone": "Europe/Paris", "current_datetime": "20200210T135438"}, "stop_areas": [{"codes": [{"type": "CR-CI-CH", "value": "0087-584441-00"}, {"type": "CR-CI-CH", "value": "0087-584441-00"}, {"type": "UIC8", "value": "87584441"}, {"type": "external_code", "value": "OCE87584441"}], "name": "Lalinde", "links": [], "coord": {"lat": "44.83951", "lon": "0.742756"}, "label": "Lalinde (Lalinde)", "administrative_regions": [{"insee": "24223", "name": "Lalinde", "level": 8, "coord": {"lat": "44.8371855", "lon": "0.7387986"}, "label": "Lalinde (24150)", "id": "admin:fr:24223", "zip_code": "24150"}], "timezone": "Europe/Paris", "id": "stop_area:OCE:SA:87584441"}, {"codes": [{"type": "CR-CI-CH", "value": "0087-611855-00"}, {"type": "CR-CI-CH", "value": "0087-611855-00"}, {"type": "UIC8", "value": "87611855"}, {"type": "external_code", "value": "OCE87611855"}], "name": "Lamagist\u00e8re", "links": [], "coord": {"lat": "44.126711", "lon": "0.825467"}, "label": "Lamagist\u00e8re (Lamagist\u00e8re)", "administrative_regions": [{"insee": "82089", "name": "Lamagist\u00e8re", "level": 8, "coord": {"lat": "44.1258333", "lon": "0.8244444"}, "label": "Lamagist\u00e8re (82360)", "id": "admin:fr:82089", "zip_code": "82360"}], "timezone": "Europe/Paris", "id": "stop_area:OCE:SA:87611855"}, {"codes": [{"type": "CR-CI-CH", "value": "0087-753731-00"}, {"type": "CR-CI-CH", "value": "0087-753731-00"}, {"type": "UIC8", "value": "87753731"}, {"type": "external_code", "value": "OCE87753731"}], "name": "Lamanon", "links": [], "coord": {"lat": "43.699991", "lon": "5.091304"}, "label": "Lamanon (Lamanon)", "administrative_regions": [{"insee": "13049", "name": "Lamanon", "level": 8, "coord": {"lat": "43.7015887", "lon": "5.0864754"}, "label": "Lamanon (13113)", "id": "admin:fr:13049", "zip_code": "13113"}], "timezone": "Europe/Paris", "id": "stop_area:OCE:SA:87753731"}, {"codes": [{"type": "CR-CI-CH", "value": "0087-144303-00"}, {"type": "CR-CI-CH", "value": "0087-144303-00"}, {"type": "UIC8", "value": "87144303"}, {"type": "external_code", "value": "OCE87144303"}], "name": "Lamarche (Vosges)", "links": [], "coord": {"lat": "48.089978", "lon": "5.76027"}, "label": "Lamarche (Vosges) (Lamarche)", "administrative_regions": [{"insee": "88258", "name": "Lamarche", "level": 8, "coord": {"lat": "48.0688", "lon": "5.7822"}, "label": "Lamarche (88320)", "id": "admin:fr:88258", "zip_code": "88320"}], "timezone": "Europe/Paris", "id": "stop_area:OCE:SA:87144303"}, {"codes": [{"type": "CR-CI-CH", "value": "0087-700997-HR"}, {"type": "UIC8", "value": "87700997"}, {"type": "external_code", "value": "OCE87700997"}], "name": "Lamarche-Centre-Arr\u00eat", "links": [], "coord": {"lat": "48.070794", "lon": "5.782189"}, "label": "Lamarche-Centre-Arr\u00eat (Lamarche)", "administrative_regions": [{"insee": "88258", "name": "Lamarche", "level": 8, "coord": {"lat": "48.0688", "lon": "5.7822"}, "label": "Lamarche (88320)", "id": "admin:fr:88258", "zip_code": "88320"}], "timezone": "Europe/Paris", "id": "stop_area:OCE:SA:87700997"}, {"codes": [{"type": "CR-CI-CH", "value": "0087-473108-BV"}, {"type": "CR-CI-CH", "value": "0087-473108-BV"}, {"type": "UIC8", "value": "87473108"}, {"type": "external_code", "value": "OCE87473108"}], "name": "Lamballe", "links": [], "coord": {"lat": "48.465922", "lon": "-2.511489"}, "label": "Lamballe (Lamballe-Armor)", "administrative_regions": [{"insee": "22093", "name": "Lamballe-Armor", "level": 8, "coord": {"lat": "48.4688058", "lon": "-2.5174411"}, "label": "Lamballe-Armor (22400)", "id": "admin:fr:22093", "zip_code": "22400"}], "timezone": "Europe/Paris", "id": "stop_area:OCE:SA:87473108"}, {"codes": [{"type": "CR-CI-CH", "value": "0087-141747-00"}, {"type": "CR-CI-CH", "value": "0087-141747-00"}, {"type": "UIC8", "value": "87141747"}, {"type": "external_code", "value": "OCE87141747"}], "name": "Lamerey", "links": [], "coord": {"lat": "48.221665", "lon": "6.2386"}, "label": "Lamerey (Madonne-et-Lamerey)", "administrative_regions": [{"insee": "88281", "name": "Madonne-et-Lamerey", "level": 8, "coord": {"lat": "48.2222", "lon": "6.237"}, "label": "Madonne-et-Lamerey (88270)", "id": "admin:fr:88281", "zip_code": "88270"}], "timezone": "Europe/Paris", "id": "stop_area:OCE:SA:87141747"}, {"codes": [{"type": "CR-CI-CH", "value": "0087-584243-BV"}, {"type": "CR-CI-CH", "value": "0087-584243-BV"}, {"type": "UIC8", "value": "87584243"}, {"type": "external_code", "value": "OCE87584243"}], "name": "Lamonzie-St-Martin", "links": [], "coord": {"lat": "44.843813", "lon": "0.380795"}, "label": "Lamonzie-St-Martin (Lamonzie-Saint-Martin)", "administrative_regions": [{"insee": "24225", "name": "Lamonzie-Saint-Martin", "level": 8, "coord": {"lat": "44.8433333", "lon": "0.3847222"}, "label": "Lamonzie-Saint-Martin (24680)", "id": "admin:fr:24225", "zip_code": "24680"}], "timezone": "Europe/Paris", "id": "stop_area:OCE:SA:87584243"}, {"codes": [{"type": "CR-CI-CH", "value": "0087-582882-00"}, {"type": "CR-CI-CH", "value": "0087-582882-00"}, {"type": "UIC8", "value": "87582882"}, {"type": "external_code", "value": "OCE87582882"}], "name": "Lamothe-Landerron", "links": [], "coord": {"lat": "44.562911", "lon": "0.045231"}, "label": "Lamothe-Landerron (Lamothe-Landerron)", "administrative_regions": [{"insee": "33221", "name": "Lamothe-Landerron", "level": 8, "coord": {"lat": "44.55737", "lon": "0.06059"}, "label": "Lamothe-Landerron (33190)", "id": "admin:fr:33221", "zip_code": "33190"}], "timezone": "Europe/Paris", "id": "stop_area:OCE:SA:87582882"}, {"codes": [{"type": "CR-CI-CH", "value": "0087-584151-00"}, {"type": "CR-CI-CH", "value": "0087-584151-00"}, {"type": "UIC8", "value": "87584151"}, {"type": "external_code", "value": "OCE87584151"}], "name": "Lamothe-Montravel", "links": [], "coord": {"lat": "44.853863", "lon": "0.021547"}, "label": "Lamothe-Montravel (Lamothe-Montravel)", "administrative_regions": [{"insee": "24226", "name": "Lamothe-Montravel", "level": 8, "coord": {"lat": "44.8503948", "lon": "0.0250918"}, "label": "Lamothe-Montravel (24230)", "id": "admin:fr:24226", "zip_code": "24230"}], "timezone": "Europe/Paris", "id": "stop_area:OCE:SA:87584151"}, {"codes": [{"type": "CR-CI-CH", "value": "0087-543140-BV"}, {"type": "CR-CI-CH", "value": "0087-543140-BV"}, {"type": "UIC8", "value": "87543140"}, {"type": "external_code", "value": "OCE87543140"}], "name": "Lamotte-Beuvron", "links": [], "coord": {"lat": "47.59397", "lon": "2.022591"}, "label": "Lamotte-Beuvron (Lamotte-Beuvron)", "administrative_regions": [{"insee": "41106", "name": "Lamotte-Beuvron", "level": 8, "coord": {"lat": "47.6052963", "lon": "2.0267353"}, "label": "Lamotte-Beuvron (41600)", "id": "admin:fr:41106", "zip_code": "41600"}], "timezone": "Europe/Paris", "id": "stop_area:OCE:SA:87543140"}, {"codes": [{"type": "CR-CI-CH", "value": "0087-484576-HR"}, {"type": "CR-CI-CH", "value": "0087-484576-HR"}, {"type": "UIC8", "value": "87484576"}, {"type": "external_code", "value": "OCE87484576"}], "name": "Lamure-Coll\u00e8ge", "links": [], "coord": {"lat": "46.052071", "lon": "4.492879"}, "label": "Lamure-Coll\u00e8ge (Lamure-sur-Azergues)", "administrative_regions": [{"insee": "69107", "name": "Lamure-sur-Azergues", "level": 8, "coord": {"lat": "46.0617093", "lon": "4.4932232"}, "label": "Lamure-sur-Azergues (69870)", "id": "admin:fr:69107", "zip_code": "69870"}], "timezone": "Europe/Paris", "id": "stop_area:OCE:SA:87484576"}, {"codes": [{"type": "CR-CI-CH", "value": "0087-721860-00"}, {"type": "CR-CI-CH", "value": "0087-721860-00"}, {"type": "UIC8", "value": "87721860"}, {"type": "external_code", "value": "OCE87721860"}], "name": "Lamure-sur-Azergues", "links": [], "coord": {"lat": "46.061095", "lon": "4.492123"}, "label": "Lamure-sur-Azergues (Lamure-sur-Azergues)", "administrative_regions": [{"insee": "69107", "name": "Lamure-sur-Azergues", "level": 8, "coord": {"lat": "46.0617093", "lon": "4.4932232"}, "label": "Lamure-sur-Azergues (69870)", "id": "admin:fr:69107", "zip_code": "69870"}], "timezone": "Europe/Paris", "id": "stop_area:OCE:SA:87721860"}, {"codes": [{"type": "CR-CI-CH", "value": "0087-473850-00"}, {"type": "CR-CI-CH", "value": "0087-473850-00"}, {"type": "UIC8", "value": "87473850"}, {"type": "external_code", "value": "OCE87473850"}], "name": "Lancerf", "links": [], "coord": {"lat": "48.761773", "lon": "-3.118068"}, "label": "Lancerf (Plourivo)", "administrative_regions": [{"insee": "22233", "name": "Plourivo", "level": 8, "coord": {"lat": "48.745214", "lon": "-3.071711"}, "label": "Plourivo (22860)", "id": "admin:fr:22233", "zip_code": "22860"}], "timezone": "Europe/Paris", "id": "stop_area:OCE:SA:87473850"}, {"codes": [{"type": "CR-CI-CH", "value": "0087-417501-00"}, {"type": "CR-CI-CH", "value": "0087-417501-00"}, {"type": "UIC8", "value": "87417501"}, {"type": "external_code", "value": "OCE87417501"}], "name": "Lancey", "links": [], "coord": {"lat": "45.234472", "lon": "5.880933"}, "label": "Lancey (Villard-Bonnot)", "administrative_regions": [{"insee": "38547", "name": "Villard-Bonnot", "level": 8, "coord": {"lat": "45.2384678", "lon": "5.8882101"}, "label": "Villard-Bonnot (38190)", "id": "admin:fr:38547", "zip_code": "38190"}], "timezone": "Europe/Paris", "id": "stop_area:OCE:SA:87417501"}, {"codes": [{"type": "CR-CI-CH", "value": "0085-171421-BV"}, {"type": "UIC8", "value": "85171421"}, {"type": "external_code", "value": "OCE85171421"}], "name": "Lancy Bachet", "links": [], "coord": {"lat": "46.173731", "lon": "6.129604"}, "label": "Lancy Bachet (Lancy)", "administrative_regions": [{"insee": "", "name": "Lancy", "level": 8, "coord": {"lat": "46.1839156", "lon": "6.1224047"}, "label": "Lancy", "id": "admin:osm:relation:1685502", "zip_code": ""}], "timezone": "Europe/Paris", "id": "stop_area:OCE:SA:85171421"}, {"codes": [{"type": "CR-CI-CH", "value": "0085-161554-BV"}, {"type": "UIC8", "value": "85161554"}, {"type": "external_code", "value": "OCE85161554"}], "name": "Lancy-Pont-Rouge", "links": [], "coord": {"lat": "46.188898", "lon": "6.125328"}, "label": "Lancy-Pont-Rouge (Lancy)", "administrative_regions": [{"insee": "", "name": "Lancy", "level": 8, "coord": {"lat": "46.1839156", "lon": "6.1224047"}, "label": "Lancy", "id": "admin:osm:relation:1685502", "zip_code": ""}], "timezone": "Europe/Paris", "id": "stop_area:OCE:SA:85161554"}, {"codes": [{"type": "CR-CI-CH", "value": "0087-286575-00"}, {"type": "CR-CI-CH", "value": "0087-286575-00"}, {"type": "UIC8", "value": "87286575"}, {"type": "external_code", "value": "OCE87286575"}], "name": "Landas", "links": [], "coord": {"lat": "50.468593", "lon": "3.290592"}, "label": "Landas (Landas)", "administrative_regions": [{"insee": "59330", "name": "Landas", "level": 8, "coord": {"lat": "50.4736312", "lon": "3.3012971"}, "label": "Landas (59310)", "id": "admin:fr:59330", "zip_code": "59310"}], "timezone": "Europe/Paris", "id": "stop_area:OCE:SA:87286575"}, {"codes": [{"type": "CR-CI-CH", "value": "0080-194266-00"}, {"type": "UIC8", "value": "80194266"}, {"type": "external_code", "value": "OCE80194266"}], "name": "Landau-Pfalz-Hbf", "links": [], "coord": {"lat": "49.198287", "lon": "8.12533"}, "label": "Landau-Pfalz-Hbf (Landau in der Pfalz)", "administrative_regions": [{"insee": "", "name": "Landau in der Pfalz", "level": 8, "coord": {"lat": "49.1982825", "lon": "8.1123441"}, "label": "Landau in der Pfalz", "id": "admin:osm:relation:62391", "zip_code": ""}], "timezone": "Europe/Paris", "id": "stop_area:OCE:SA:80194266"}, {"codes": [{"type": "CR-CI-CH", "value": "0087-476226-BV"}, {"type": "CR-CI-CH", "value": "0087-476226-BV"}, {"type": "UIC8", "value": "87476226"}, {"type": "external_code", "value": "OCE87476226"}], "name": "Landaul-Mendon", "links": [], "coord": {"lat": "47.735853", "lon": "-3.086205"}, "label": "Landaul-Mendon (Landaul)", "administrative_regions": [{"insee": "56096", "name": "Landaul", "level": 8, "coord": {"lat": "47.7483013", "lon": "-3.0756369"}, "label": "Landaul (56690)", "id": "admin:fr:56096", "zip_code": "56690"}], "timezone": "Europe/Paris", "id": "stop_area:OCE:SA:87476226"}, {"codes": [{"type": "CR-CI-CH", "value": "0087-474239-BV"}, {"type": "CR-CI-CH", "value": "0087-474239-BV"}, {"type": "UIC8", "value": "87474239"}, {"type": "external_code", "value": "OCE87474239"}], "name": "Landerneau", "links": [], "coord": {"lat": "48.453834", "lon": "-4.256209"}, "label": "Landerneau (Landerneau)", "administrative_regions": [{"insee": "29103", "name": "Landerneau", "level": 8, "coord": {"lat": "48.4514803", "lon": "-4.2557901"}, "label": "Landerneau (29800)", "id": "admin:fr:29103", "zip_code": "29800"}], "timezone": "Europe/Paris", "id": "stop_area:OCE:SA:87474239"}, {"codes": [{"type": "CR-CI-CH", "value": "0087-476234-BV"}, {"type": "CR-CI-CH", "value": "0087-476234-BV"}, {"type": "UIC8", "value": "87476234"}, {"type": "external_code", "value": "OCE87476234"}], "name": "Landevant", "links": [], "coord": {"lat": "47.759474", "lon": "-3.125688"}, "label": "Landevant (Land\u00e9vant)", "administrative_regions": [{"insee": "56097", "name": "Land\u00e9vant", "level": 8, "coord": {"lat": "47.7636187", "lon": "-3.1194205"}, "label": "Land\u00e9vant (56690)", "id": "admin:fr:56097", "zip_code": "56690"}], "timezone": "Europe/Paris", "id": "stop_area:OCE:SA:87476234"}, {"codes": [{"type": "CR-CI-CH", "value": "0087-110171-00"}, {"type": "CR-CI-CH", "value": "0087-110171-00"}, {"type": "UIC8", "value": "87110171"}, {"type": "external_code", "value": "OCE87110171"}], "name": "Landeyrat", "links": [], "coord": {"lat": "45.277543", "lon": "2.870006"}, "label": "Landeyrat (Landeyrat)", "administrative_regions": [{"insee": "15091", "name": "Landeyrat", "level": 8, "coord": {"lat": "45.2745029", "lon": "2.8633193"}, "label": "Landeyrat (15160)", "id": "admin:fr:15091", "zip_code": "15160"}], "timezone": "Europe/Paris", "id": "stop_area:OCE:SA:87110171"}, {"codes": [{"type": "CR-CI-CH", "value": "0087-474270-00"}, {"type": "CR-CI-CH", "value": "0087-474270-00"}, {"type": "UIC8", "value": "87474270"}, {"type": "external_code", "value": "OCE87474270"}], "name": "Landivisiau", "links": [], "coord": {"lat": "48.495611", "lon": "-4.082704"}, "label": "Landivisiau (Landivisiau)", "administrative_regions": [{"insee": "29105", "name": "Landivisiau", "level": 8, "coord": {"lat": "48.5127551", "lon": "-4.0699356"}, "label": "Landivisiau (29400)", "id": "admin:fr:29105", "zip_code": "29400"}], "timezone": "Europe/Paris", "id": "stop_area:OCE:SA:87474270"}, {"codes": [{"type": "CR-CI-CH", "value": "0087-295642-00"}, {"type": "CR-CI-CH", "value": "0087-295642-00"}, {"type": "UIC8", "value": "87295642"}, {"type": "external_code", "value": "OCE87295642"}], "name": "Landrecies", "links": [], "coord": {"lat": "50.128133", "lon": "3.682158"}, "label": "Landrecies (Landrecies)", "administrative_regions": [{"insee": "59331", "name": "Landrecies", "level": 8, "coord": {"lat": "50.1250142", "lon": "3.6913023"}, "label": "Landrecies (59550)", "id": "admin:fr:59331", "zip_code": "59550"}], "timezone": "Europe/Paris", "id": "stop_area:OCE:SA:87295642"}]}