{"pagination": {"start_page": 151, "items_on_page": 25, "items_per_page": 25, "total_result": 4343}, "links": [{"href": "https://api.sncf.com/v1/coverage/sncf/stop_areas/{stop_areas.id}", "type": "stop_areas", "rel": "stop_areas", "templated": true}, {"href": "https://api.sncf.com/v1/coverage/sncf/stop_areas/{stop_areas.id}/route_schedules", "type": "route_schedules", "rel": "route_schedules", "templated": true}, {"href": "https://api.sncf.com/v1/coverage/sncf/stop_areas/{stop_areas.id}/stop_schedules", "type": "stop_schedules", "rel": "stop_schedules", "templated": true}, {"href": "https://api.sncf.com/v1/coverage/sncf/stop_areas/{stop_areas.id}/arrivals", "type": "arrivals", "rel": "arrivals", "templated": true}, {"href": "https://api.sncf.com/v1/coverage/sncf/stop_areas/{stop_areas.id}/departures", "type": "departures", "rel": "departures", "templated": true}, {"href": "https://api.sncf.com/v1/coverage/sncf/stop_areas/{stop_areas.id}/places_nearby", "type": "places_nearby", "rel": "places_nearby", "templated": true}, {"href": "https://api.sncf.com/v1/coverage/sncf/stop_areas/{stop_areas.id}/journeys", "type": "journey", "rel": "journeys", "templated": true}, {"href": "https://api.sncf.com/v1/coverage/sncf/stop_areas/{stop_areas.id}/traffic_reports", "type": "disruption", "rel": "disruptions", "templated": true}, {"href": "https://api.sncf.com/v1/coverage/sncf/stop_areas?start_page=150", "type": "previous", "templated": false}, {"href": "https://api.sncf.com/v1/coverage/sncf/stop_areas?start_page=152", "type": "next", "templated": false}, {"href": "https://api.sncf.com/v1/coverage/sncf/stop_areas?start_page=173", "type": "last", "templated": false}, {"href": "https://api.sncf.com/v1/coverage/sncf/stop_areas", "type": "first", "templated": false}], "disruptions": [], "feed_publishers": [], "context": {"timezone": "Europe/Paris", "current_datetime": "20200210T135449"}, "stop_areas": [{"codes": [{"type": "CR-CI-CH", "value": "0087-314898-00"}, {"type": "CR-CI-CH", "value": "0087-314898-00"}, {"type": "UIC8", "value": "87314898"}, {"type": "external_code", "value": "OCE87314898"}], "name": "St-Satur-Place-du-Marc.", "links": [], "coord": {"lat": "47.339717", "lon": "2.856941"}, "label": "St-Satur-Place-du-Marc. (Saint-Satur)", "administrative_regions": [{"insee": "18233", "name": "Saint-Satur", "level": 8, "coord": {"lat": "47.3390546", "lon": "2.8540497"}, "label": "Saint-Satur (18300)", "id": "admin:fr:18233", "zip_code": "18300"}], "timezone": "Europe/Paris", "id": "stop_area:OCE:SA:87314898"}, {"codes": [{"type": "CR-CI-CH", "value": "0087-765438-00"}, {"type": "CR-CI-CH", "value": "0087-765438-00"}, {"type": "UIC8", "value": "87765438"}, {"type": "external_code", "value": "OCE87765438"}], "name": "St-Saturnin-d'Avignon", "links": [], "coord": {"lat": "43.953177", "lon": "4.935293"}, "label": "St-Saturnin-d'Avignon (Saint-Saturnin-l\u00e8s-Avignon)", "administrative_regions": [{"insee": "84119", "name": "Saint-Saturnin-l\u00e8s-Avignon", "level": 8, "coord": {"lat": "43.9567795", "lon": "4.9294712"}, "label": "Saint-Saturnin-l\u00e8s-Avignon (84450)", "id": "admin:fr:84119", "zip_code": "84450"}], "timezone": "Europe/Paris", "id": "stop_area:OCE:SA:87765438"}, {"codes": [{"type": "CR-CI-CH", "value": "0087-409664-00"}, {"type": "CR-CI-CH", "value": "0087-409664-00"}, {"type": "UIC8", "value": "87409664"}, {"type": "external_code", "value": "OCE87409664"}], "name": "St-Sauves-Bourg", "links": [], "coord": {"lat": "45.606799", "lon": "2.687905"}, "label": "St-Sauves-Bourg (Saint-Sauves-d'Auvergne)", "administrative_regions": [{"insee": "63397", "name": "Saint-Sauves-d'Auvergne", "level": 8, "coord": {"lat": "45.6062946", "lon": "2.6882708"}, "label": "Saint-Sauves-d'Auvergne (63950)", "id": "admin:fr:63397", "zip_code": "63950"}], "timezone": "Europe/Paris", "id": "stop_area:OCE:SA:87409664"}, {"codes": [{"type": "CR-CI-CH", "value": "0087-202440-00"}, {"type": "CR-CI-CH", "value": "0087-202440-00"}, {"type": "UIC8", "value": "87202440"}, {"type": "external_code", "value": "OCE87202440"}], "name": "St-Savin", "links": [], "coord": {"lat": "46.565795", "lon": "0.863838"}, "label": "St-Savin (Saint-Savin)", "administrative_regions": [{"insee": "86246", "name": "Saint-Savin", "level": 8, "coord": {"lat": "46.5666888", "lon": "0.8657641"}, "label": "Saint-Savin (86310)", "id": "admin:fr:86246", "zip_code": "86310"}], "timezone": "Europe/Paris", "id": "stop_area:OCE:SA:87202440"}, {"codes": [{"type": "CR-CI-CH", "value": "0087-491035-00"}, {"type": "CR-CI-CH", "value": "0087-491035-00"}, {"type": "UIC8", "value": "87491035"}, {"type": "external_code", "value": "OCE87491035"}], "name": "St-Savinien/Charente", "links": [], "coord": {"lat": "45.875842", "lon": "-0.677909"}, "label": "St-Savinien/Charente (Saint-Savinien)", "administrative_regions": [{"insee": "17397", "name": "Saint-Savinien", "level": 8, "coord": {"lat": "45.8793825", "lon": "-0.6799714"}, "label": "Saint-Savinien (17350)", "id": "admin:fr:17397", "zip_code": "17350"}], "timezone": "Europe/Paris", "id": "stop_area:OCE:SA:87491035"}, {"codes": [{"type": "CR-CI-CH", "value": "0087-575365-00"}, {"type": "CR-CI-CH", "value": "0087-575365-00"}, {"type": "UIC8", "value": "87575365"}, {"type": "external_code", "value": "OCE87575365"}], "name": "St-Saviol", "links": [], "coord": {"lat": "46.147154", "lon": "0.217889"}, "label": "St-Saviol (Saint-Saviol)", "administrative_regions": [{"insee": "86247", "name": "Saint-Saviol", "level": 8, "coord": {"lat": "46.1330509", "lon": "0.2430067"}, "label": "Saint-Saviol (86400)", "id": "admin:fr:86247", "zip_code": "86400"}], "timezone": "Europe/Paris", "id": "stop_area:OCE:SA:87575365"}, {"codes": [{"type": "CR-CI-CH", "value": "0087-471169-00"}, {"type": "CR-CI-CH", "value": "0087-471169-00"}, {"type": "UIC8", "value": "87471169"}, {"type": "external_code", "value": "OCE87471169"}], "name": "St-Senoux-Pl\u00e9chatel", "links": [], "coord": {"lat": "47.897838", "lon": "-1.766166"}, "label": "St-Senoux-Pl\u00e9chatel (Saint-Senoux)", "administrative_regions": [{"insee": "35312", "name": "Saint-Senoux", "level": 8, "coord": {"lat": "47.9049712", "lon": "-1.7881315"}, "label": "Saint-Senoux (35580)", "id": "admin:fr:35312", "zip_code": "35580"}], "timezone": "Europe/Paris", "id": "stop_area:OCE:SA:87471169"}, {"codes": [{"type": "CR-CI-CH", "value": "0087-584615-BV"}, {"type": "CR-CI-CH", "value": "0087-584615-BV"}, {"type": "UIC8", "value": "87584615"}, {"type": "external_code", "value": "OCE87584615"}], "name": "St-Seurin-sur-l'Isle", "links": [], "coord": {"lat": "45.011459", "lon": "-0.001899"}, "label": "St-Seurin-sur-l'Isle (Saint-Seurin-sur-l'Isle)", "administrative_regions": [{"insee": "33478", "name": "Saint-Seurin-sur-l'Isle", "level": 8, "coord": {"lat": "45.0124405", "lon": "-0.0009251"}, "label": "Saint-Seurin-sur-l'Isle (33660)", "id": "admin:fr:33478", "zip_code": "33660"}], "timezone": "Europe/Paris", "id": "stop_area:OCE:SA:87584615"}, {"codes": [{"type": "CR-CI-CH", "value": "0087-419291-00"}, {"type": "CR-CI-CH", "value": "0087-419291-00"}, {"type": "UIC8", "value": "87419291"}, {"type": "external_code", "value": "OCE87419291"}], "name": "St-Sever (Centre)", "links": [], "coord": {"lat": "48.840276", "lon": "-1.045835"}, "label": "St-Sever (Centre) (Noues de Sienne)", "administrative_regions": [{"insee": "14658", "name": "Noues de Sienne", "level": 8, "coord": {"lat": "48.8407379", "lon": "-1.0475967"}, "label": "Noues de Sienne", "id": "admin:fr:14658", "zip_code": ""}], "timezone": "Europe/Paris", "id": "stop_area:OCE:SA:87419291"}, {"codes": [{"type": "CR-CI-CH", "value": "0087-615344-00"}, {"type": "CR-CI-CH", "value": "0087-615344-00"}, {"type": "UIC8", "value": "87615344"}, {"type": "external_code", "value": "OCE87615344"}], "name": "St-Sulpice (Tarn)", "links": [], "coord": {"lat": "43.775412", "lon": "1.681037"}, "label": "St-Sulpice (Tarn) (Saint-Sulpice-la-Pointe)", "administrative_regions": [{"insee": "81271", "name": "Saint-Sulpice-la-Pointe", "level": 8, "coord": {"lat": "43.7737894", "lon": "1.686477"}, "label": "Saint-Sulpice-la-Pointe (81370)", "id": "admin:fr:81271", "zip_code": "81370"}], "timezone": "Europe/Paris", "id": "stop_area:OCE:SA:87615344"}, {"codes": [{"type": "CR-CI-CH", "value": "0087-313684-00"}, {"type": "CR-CI-CH", "value": "0087-313684-00"}, {"type": "UIC8", "value": "87313684"}, {"type": "external_code", "value": "OCE87313684"}], "name": "St-Sulpice-Auteuil", "links": [], "coord": {"lat": "49.347422", "lon": "2.116453"}, "label": "St-Sulpice-Auteuil (Saint-Sulpice)", "administrative_regions": [{"insee": "60598", "name": "Saint-Sulpice", "level": 8, "coord": {"lat": "49.3505211", "lon": "2.1221698"}, "label": "Saint-Sulpice (60430)", "id": "admin:fr:60598", "zip_code": "60430"}], "timezone": "Europe/Paris", "id": "stop_area:OCE:SA:87313684"}, {"codes": [{"type": "CR-CI-CH", "value": "0087-584722-BV"}, {"type": "CR-CI-CH", "value": "0087-584722-BV"}, {"type": "UIC8", "value": "87584722"}, {"type": "external_code", "value": "OCE87584722"}], "name": "St-Sulpice-Izon", "links": [], "coord": {"lat": "44.914172", "lon": "-0.392218"}, "label": "St-Sulpice-Izon (Saint-Sulpice-et-Cameyrac)", "administrative_regions": [{"insee": "33483", "name": "Saint-Sulpice-et-Cameyrac", "level": 8, "coord": {"lat": "44.9101967", "lon": "-0.3909503"}, "label": "Saint-Sulpice-et-Cameyrac (33450)", "id": "admin:fr:33483", "zip_code": "33450"}], "timezone": "Europe/Paris", "id": "stop_area:OCE:SA:87584722"}, {"codes": [{"type": "CR-CI-CH", "value": "0087-592345-BV"}, {"type": "CR-CI-CH", "value": "0087-592345-BV"}, {"type": "UIC8", "value": "87592345"}, {"type": "external_code", "value": "OCE87592345"}], "name": "St-Sulpice-Lauri\u00e8re", "links": [], "coord": {"lat": "46.046867", "lon": "1.476283"}, "label": "St-Sulpice-Lauri\u00e8re (Saint-Sulpice-Lauri\u00e8re)", "administrative_regions": [{"insee": "87181", "name": "Saint-Sulpice-Lauri\u00e8re", "level": 8, "coord": {"lat": "46.048709", "lon": "1.4794713"}, "label": "Saint-Sulpice-Lauri\u00e8re (87370)", "id": "admin:fr:87181", "zip_code": "87370"}], "timezone": "Europe/Paris", "id": "stop_area:OCE:SA:87592345"}, {"codes": [{"type": "CR-CI-CH", "value": "0087-620195-00"}, {"type": "CR-CI-CH", "value": "0087-620195-00"}, {"type": "UIC8", "value": "87620195"}, {"type": "external_code", "value": "OCE87620195"}], "name": "St-Sulpice-sur-L\u00e8ze", "links": [], "coord": {"lat": "43.329798", "lon": "1.322298"}, "label": "St-Sulpice-sur-L\u00e8ze (Saint-Sulpice-sur-L\u00e8ze)", "administrative_regions": [{"insee": "31517", "name": "Saint-Sulpice-sur-L\u00e8ze", "level": 8, "coord": {"lat": "43.3282985", "lon": "1.3204123"}, "label": "Saint-Sulpice-sur-L\u00e8ze (31410)", "id": "admin:fr:31517", "zip_code": "31410"}], "timezone": "Europe/Paris", "id": "stop_area:OCE:SA:87620195"}, {"codes": [{"type": "CR-CI-CH", "value": "0087-694174-00"}, {"type": "CR-CI-CH", "value": "0087-694174-00"}, {"type": "UIC8", "value": "87694174"}, {"type": "external_code", "value": "OCE87694174"}], "name": "St-Symphorien-de-Marma.", "links": [], "coord": {"lat": "46.844215", "lon": "4.337746"}, "label": "St-Symphorien-de-Marma. (Saint-Symphorien-de-Marmagne)", "administrative_regions": [{"insee": "71482", "name": "Saint-Symphorien-de-Marmagne", "level": 8, "coord": {"lat": "46.8392713", "lon": "4.3311516"}, "label": "Saint-Symphorien-de-Marmagne (71710)", "id": "admin:fr:71482", "zip_code": "71710"}], "timezone": "Europe/Paris", "id": "stop_area:OCE:SA:87694174"}, {"codes": [{"type": "CR-CI-CH", "value": "0087-739961-00"}, {"type": "CR-CI-CH", "value": "0087-739961-00"}, {"type": "UIC8", "value": "87739961"}, {"type": "external_code", "value": "OCE87739961"}], "name": "St-Symphorien-des-Bois", "links": [], "coord": {"lat": "46.332735", "lon": "4.2814"}, "label": "St-Symphorien-des-Bois (Saint-Symphorien-des-Bois)", "administrative_regions": [{"insee": "71483", "name": "Saint-Symphorien-des-Bois", "level": 8, "coord": {"lat": "46.3335167", "lon": "4.2833552"}, "label": "Saint-Symphorien-des-Bois (71800)", "id": "admin:fr:71483", "zip_code": "71800"}], "timezone": "Europe/Paris", "id": "stop_area:OCE:SA:87739961"}, {"codes": [{"type": "CR-CI-CH", "value": "0087-592493-00"}, {"type": "CR-CI-CH", "value": "0087-592493-00"}, {"type": "UIC8", "value": "87592493"}, {"type": "external_code", "value": "OCE87592493"}], "name": "St-S\u00e9bastien", "links": [], "coord": {"lat": "46.386035", "lon": "1.54652"}, "label": "St-S\u00e9bastien (Saint-S\u00e9bastien)", "administrative_regions": [{"insee": "23239", "name": "Saint-S\u00e9bastien", "level": 8, "coord": {"lat": "46.3909389", "lon": "1.5319779"}, "label": "Saint-S\u00e9bastien (23160)", "id": "admin:fr:23239", "zip_code": "23160"}], "timezone": "Europe/Paris", "id": "stop_area:OCE:SA:87592493"}, {"codes": [{"type": "CR-CI-CH", "value": "0087-354597-00"}, {"type": "CR-CI-CH", "value": "0087-354597-00"}, {"type": "UIC8", "value": "87354597"}, {"type": "external_code", "value": "OCE87354597"}], "name": "St-S\u00e9bastien-F-R", "links": [], "coord": {"lat": "47.190426", "lon": "-1.495794"}, "label": "St-S\u00e9bastien-F-R (Saint-S\u00e9bastien-sur-Loire)", "administrative_regions": [{"insee": "44190", "name": "Saint-S\u00e9bastien-sur-Loire", "level": 8, "coord": {"lat": "47.2035029", "lon": "-1.4992075"}, "label": "Saint-S\u00e9bastien-sur-Loire (44230)", "id": "admin:fr:44190", "zip_code": "44230"}], "timezone": "Europe/Paris", "id": "stop_area:OCE:SA:87354597"}, {"codes": [{"type": "CR-CI-CH", "value": "0087-354589-00"}, {"type": "CR-CI-CH", "value": "0087-354589-00"}, {"type": "UIC8", "value": "87354589"}, {"type": "external_code", "value": "OCE87354589"}], "name": "St-S\u00e9bastien-P-E", "links": [], "coord": {"lat": "47.206928", "lon": "-1.511118"}, "label": "St-S\u00e9bastien-P-E (Saint-S\u00e9bastien-sur-Loire)", "administrative_regions": [{"insee": "44190", "name": "Saint-S\u00e9bastien-sur-Loire", "level": 8, "coord": {"lat": "47.2035029", "lon": "-1.4992075"}, "label": "Saint-S\u00e9bastien-sur-Loire (44230)", "id": "admin:fr:44190", "zip_code": "44230"}], "timezone": "Europe/Paris", "id": "stop_area:OCE:SA:87354589"}, {"codes": [{"type": "CR-CI-CH", "value": "0087-474312-00"}, {"type": "CR-CI-CH", "value": "0087-474312-00"}, {"type": "UIC8", "value": "87474312"}, {"type": "external_code", "value": "OCE87474312"}], "name": "St-Th\u00e9gonnec", "links": [], "coord": {"lat": "48.494189", "lon": "-3.948119"}, "label": "St-Th\u00e9gonnec (Saint-Th\u00e9gonnec Loc-Eguiner)", "administrative_regions": [{"insee": "29266", "name": "Saint-Th\u00e9gonnec Loc-Eguiner", "level": 8, "coord": {"lat": "48.5226303", "lon": "-3.9408597"}, "label": "Saint-Th\u00e9gonnec Loc-Eguiner (29410)", "id": "admin:fr:29266", "zip_code": "29410"}], "timezone": "Europe/Paris", "id": "stop_area:OCE:SA:87474312"}, {"codes": [{"type": "CR-CI-CH", "value": "0087-761130-00"}, {"type": "CR-CI-CH", "value": "0087-761130-00"}, {"type": "UIC8", "value": "87761130"}, {"type": "external_code", "value": "OCE87761130"}], "name": "St-Vallier-sur-Rh\u00f4ne", "links": [], "coord": {"lat": "45.185682", "lon": "4.814339"}, "label": "St-Vallier-sur-Rh\u00f4ne (Saint-Vallier)", "administrative_regions": [{"insee": "26333", "name": "Saint-Vallier", "level": 8, "coord": {"lat": "45.1784989", "lon": "4.8157825"}, "label": "Saint-Vallier (26240)", "id": "admin:fr:26333", "zip_code": "26240"}], "timezone": "Europe/Paris", "id": "stop_area:OCE:SA:87761130"}, {"codes": [{"type": "CR-CI-CH", "value": "0087-415166-00"}, {"type": "CR-CI-CH", "value": "0087-415166-00"}, {"type": "UIC8", "value": "87415166"}, {"type": "external_code", "value": "OCE87415166"}], "name": "St-Victor", "links": [], "coord": {"lat": "49.677006", "lon": "1.109511"}, "label": "St-Victor (Saint-Maclou-de-Folleville)", "administrative_regions": [{"insee": "76602", "name": "Saint-Maclou-de-Folleville", "level": 8, "coord": {"lat": "49.6788336", "lon": "1.1076874"}, "label": "Saint-Maclou-de-Folleville (76890)", "id": "admin:fr:76602", "zip_code": "76890"}], "timezone": "Europe/Paris", "id": "stop_area:OCE:SA:87415166"}, {"codes": [{"type": "CR-CI-CH", "value": "0087-721043-00"}, {"type": "CR-CI-CH", "value": "0087-721043-00"}, {"type": "UIC8", "value": "87721043"}, {"type": "external_code", "value": "OCE87721043"}], "name": "St-Victor-Thizy", "links": [], "coord": {"lat": "46.002585", "lon": "4.281146"}, "label": "St-Victor-Thizy (Saint-Victor-sur-Rhins)", "administrative_regions": [{"insee": "42293", "name": "Saint-Victor-sur-Rhins", "level": 8, "coord": {"lat": "46.0043654", "lon": "4.2802853"}, "label": "Saint-Victor-sur-Rhins (42630)", "id": "admin:fr:42293", "zip_code": "42630"}], "timezone": "Europe/Paris", "id": "stop_area:OCE:SA:87721043"}, {"codes": [{"type": "CR-CI-CH", "value": "0087-592683-BV"}, {"type": "CR-CI-CH", "value": "0087-592683-BV"}, {"type": "UIC8", "value": "87592683"}, {"type": "external_code", "value": "OCE87592683"}], "name": "St-Victurnien", "links": [], "coord": {"lat": "45.876778", "lon": "1.009728"}, "label": "St-Victurnien (Saint-Victurnien)", "administrative_regions": [{"insee": "87185", "name": "Saint-Victurnien", "level": 8, "coord": {"lat": "45.877247", "lon": "1.0123276"}, "label": "Saint-Victurnien (87420)", "id": "admin:fr:87185", "zip_code": "87420"}], "timezone": "Europe/Paris", "id": "stop_area:OCE:SA:87592683"}, {"codes": [{"type": "CR-CI-CH", "value": "0087-673277-BV"}, {"type": "CR-CI-CH", "value": "0087-673277-BV"}, {"type": "UIC8", "value": "87673277"}, {"type": "external_code", "value": "OCE87673277"}], "name": "St-Vincent-de-Tyrosse", "links": [], "coord": {"lat": "43.657808", "lon": "-1.306385"}, "label": "St-Vincent-de-Tyrosse (Saint-Vincent-de-Tyrosse)", "administrative_regions": [{"insee": "40284", "name": "Saint-Vincent-de-Tyrosse", "level": 8, "coord": {"lat": "43.6604837", "lon": "-1.3029669"}, "label": "Saint-Vincent-de-Tyrosse (40230)", "id": "admin:fr:40284", "zip_code": "40230"}], "timezone": "Europe/Paris", "id": "stop_area:OCE:SA:87673277"}]}