{"pagination": {"start_page": 162, "items_on_page": 25, "items_per_page": 25, "total_result": 4343}, "links": [{"href": "https://api.sncf.com/v1/coverage/sncf/stop_areas/{stop_areas.id}", "type": "stop_areas", "rel": "stop_areas", "templated": true}, {"href": "https://api.sncf.com/v1/coverage/sncf/stop_areas/{stop_areas.id}/route_schedules", "type": "route_schedules", "rel": "route_schedules", "templated": true}, {"href": "https://api.sncf.com/v1/coverage/sncf/stop_areas/{stop_areas.id}/stop_schedules", "type": "stop_schedules", "rel": "stop_schedules", "templated": true}, {"href": "https://api.sncf.com/v1/coverage/sncf/stop_areas/{stop_areas.id}/arrivals", "type": "arrivals", "rel": "arrivals", "templated": true}, {"href": "https://api.sncf.com/v1/coverage/sncf/stop_areas/{stop_areas.id}/departures", "type": "departures", "rel": "departures", "templated": true}, {"href": "https://api.sncf.com/v1/coverage/sncf/stop_areas/{stop_areas.id}/places_nearby", "type": "places_nearby", "rel": "places_nearby", "templated": true}, {"href": "https://api.sncf.com/v1/coverage/sncf/stop_areas/{stop_areas.id}/journeys", "type": "journey", "rel": "journeys", "templated": true}, {"href": "https://api.sncf.com/v1/coverage/sncf/stop_areas/{stop_areas.id}/traffic_reports", "type": "disruption", "rel": "disruptions", "templated": true}, {"href": "https://api.sncf.com/v1/coverage/sncf/stop_areas?start_page=161", "type": "previous", "templated": false}, {"href": "https://api.sncf.com/v1/coverage/sncf/stop_areas?start_page=163", "type": "next", "templated": false}, {"href": "https://api.sncf.com/v1/coverage/sncf/stop_areas?start_page=173", "type": "last", "templated": false}, {"href": "https://api.sncf.com/v1/coverage/sncf/stop_areas", "type": "first", "templated": false}], "disruptions": [], "feed_publishers": [], "context": {"timezone": "Europe/Paris", "current_datetime": "20200210T135450"}, "stop_areas": [{"codes": [{"type": "CR-CI-CH", "value": "0087-745414-BV"}, {"type": "CR-CI-CH", "value": "0087-745414-BV"}, {"type": "UIC8", "value": "87745414"}, {"type": "external_code", "value": "OCE87745414"}], "name": "Valleiry", "links": [], "coord": {"lat": "46.109345", "lon": "5.967392"}, "label": "Valleiry (Valleiry)", "administrative_regions": [{"insee": "74288", "name": "Valleiry", "level": 8, "coord": {"lat": "46.1079478", "lon": "5.967928"}, "label": "Valleiry (74520)", "id": "admin:fr:74288", "zip_code": "74520"}], "timezone": "Europe/Paris", "id": "stop_area:OCE:SA:87745414"}, {"codes": [{"type": "CR-CI-CH", "value": "0087-192732-BV"}, {"type": "CR-CI-CH", "value": "0087-192732-BV"}, {"type": "UIC8", "value": "87192732"}, {"type": "external_code", "value": "OCE87192732"}], "name": "Valleroy-Moineville", "links": [], "coord": {"lat": "49.20574", "lon": "5.935926"}, "label": "Valleroy-Moineville (Valleroy)", "administrative_regions": [{"insee": "54542", "name": "Valleroy", "level": 8, "coord": {"lat": "49.2096137", "lon": "5.9352826"}, "label": "Valleroy (54910)", "id": "admin:fr:54542", "zip_code": "54910"}], "timezone": "Europe/Paris", "id": "stop_area:OCE:SA:87192732"}, {"codes": [{"type": "CR-CI-CH", "value": "0087-405704-00"}, {"type": "CR-CI-CH", "value": "0087-405704-00"}, {"type": "UIC8", "value": "87405704"}, {"type": "external_code", "value": "OCE87405704"}], "name": "Vallois (Centre)", "links": [], "coord": {"lat": "48.463329", "lon": "6.548602"}, "label": "Vallois (Centre) (Vallois)", "administrative_regions": [{"insee": "54543", "name": "Vallois", "level": 8, "coord": {"lat": "48.4634", "lon": "6.549"}, "label": "Vallois (54830)", "id": "admin:fr:54543", "zip_code": "54830"}], "timezone": "Europe/Paris", "id": "stop_area:OCE:SA:87405704"}, {"codes": [{"type": "CR-CI-CH", "value": "0087-641357-00"}, {"type": "CR-CI-CH", "value": "0087-641357-00"}, {"type": "UIC8", "value": "87641357"}, {"type": "external_code", "value": "OCE87641357"}], "name": "Vallon-en-Sully", "links": [], "coord": {"lat": "46.536485", "lon": "2.610803"}, "label": "Vallon-en-Sully (Vallon-en-Sully)", "administrative_regions": [{"insee": "3297", "name": "Vallon-en-Sully", "level": 8, "coord": {"lat": "46.5375", "lon": "2.60656"}, "label": "Vallon-en-Sully (03190)", "id": "admin:fr:3297", "zip_code": "03190"}], "timezone": "Europe/Paris", "id": "stop_area:OCE:SA:87641357"}, {"codes": [{"type": "CR-CI-CH", "value": "0087-715938-WS"}, {"type": "CR-CI-CH", "value": "0087-715938-WS"}, {"type": "UIC8", "value": "85011031"}, {"type": "external_code", "value": "OCE85011031"}], "name": "Vallorbe-Cff", "links": [], "coord": {"lat": "46.712229", "lon": "6.370815"}, "label": "Vallorbe-Cff (Vallorbe)", "administrative_regions": [{"insee": "", "name": "Vallorbe", "level": 8, "coord": {"lat": "46.7078232599077", "lon": "6.37140604510916"}, "label": "Vallorbe (1337)", "id": "admin:osm:relation:1685174", "zip_code": "1337"}], "timezone": "Europe/Paris", "id": "stop_area:OCE:SA:85011031"}, {"codes": [{"type": "CR-CI-CH", "value": "0087-746875-00"}, {"type": "CR-CI-CH", "value": "0087-746875-00"}, {"type": "UIC8", "value": "87746875"}, {"type": "external_code", "value": "OCE87746875"}], "name": "Vallorcine", "links": [], "coord": {"lat": "46.032673", "lon": "6.93299"}, "label": "Vallorcine (Vallorcine)", "administrative_regions": [{"insee": "74290", "name": "Vallorcine", "level": 8, "coord": {"lat": "46.0340383", "lon": "6.9324887"}, "label": "Vallorcine (74660)", "id": "admin:fr:74290", "zip_code": "74660"}], "timezone": "Europe/Paris", "id": "stop_area:OCE:SA:87746875"}, {"codes": [{"type": "CR-CI-CH", "value": "0087-276535-00"}, {"type": "CR-CI-CH", "value": "0087-276535-00"}, {"type": "UIC8", "value": "87276535"}, {"type": "external_code", "value": "OCE87276535"}], "name": "Valmondois", "links": [], "coord": {"lat": "49.09183", "lon": "2.202376"}, "label": "Valmondois (Butry-sur-Oise)", "administrative_regions": [{"insee": "95120", "name": "Butry-sur-Oise", "level": 8, "coord": {"lat": "49.0856723", "lon": "2.1979556"}, "label": "Butry-sur-Oise (95430)", "id": "admin:fr:95120", "zip_code": "95430"}], "timezone": "Europe/Paris", "id": "stop_area:OCE:SA:87276535"}, {"codes": [{"type": "CR-CI-CH", "value": "0087-447284-00"}, {"type": "CR-CI-CH", "value": "0087-447284-00"}, {"type": "UIC8", "value": "87447284"}, {"type": "external_code", "value": "OCE87447284"}], "name": "Valognes", "links": [], "coord": {"lat": "49.505386", "lon": "-1.480323"}, "label": "Valognes (Valognes)", "administrative_regions": [{"insee": "50615", "name": "Valognes", "level": 8, "coord": {"lat": "49.5089547", "lon": "-1.4708174"}, "label": "Valognes (50700)", "id": "admin:fr:50615", "zip_code": "50700"}], "timezone": "Europe/Paris", "id": "stop_area:OCE:SA:87447284"}, {"codes": [{"type": "CR-CI-CH", "value": "0087-192476-BV"}, {"type": "CR-CI-CH", "value": "0087-192476-BV"}, {"type": "UIC8", "value": "87192476"}, {"type": "external_code", "value": "OCE87192476"}], "name": "Vandi\u00e8res", "links": [], "coord": {"lat": "48.952497", "lon": "6.038855"}, "label": "Vandi\u00e8res (Vandi\u00e8res)", "administrative_regions": [{"insee": "54546", "name": "Vandi\u00e8res", "level": 8, "coord": {"lat": "48.9546746", "lon": "6.0370361"}, "label": "Vandi\u00e8res (54121)", "id": "admin:fr:54546", "zip_code": "54121"}], "timezone": "Europe/Paris", "id": "stop_area:OCE:SA:87192476"}, {"codes": [{"type": "CR-CI-CH", "value": "0087-476606-00"}, {"type": "CR-CI-CH", "value": "0087-476606-00"}, {"type": "UIC8", "value": "87476606"}, {"type": "external_code", "value": "OCE87476606"}], "name": "Vannes", "links": [], "coord": {"lat": "47.665324", "lon": "-2.752523"}, "label": "Vannes (Vannes)", "administrative_regions": [{"insee": "56260", "name": "Vannes", "level": 8, "coord": {"lat": "47.6586772", "lon": "-2.7599079"}, "label": "Vannes (56000)", "id": "admin:fr:56260", "zip_code": "56000"}], "timezone": "Europe/Paris", "id": "stop_area:OCE:SA:87476606"}, {"codes": [{"type": "CR-CI-CH", "value": "0087-391532-BV"}, {"type": "CR-CI-CH", "value": "0087-391532-BV"}, {"type": "UIC8", "value": "87391532"}, {"type": "external_code", "value": "OCE87391532"}], "name": "Vanves-Malakoff", "links": [], "coord": {"lat": "48.818522", "lon": "2.291538"}, "label": "Vanves-Malakoff (Vanves)", "administrative_regions": [{"insee": "92075", "name": "Vanves", "level": 8, "coord": {"lat": "48.8212037", "lon": "2.289259"}, "label": "Vanves (92170)", "id": "admin:fr:92075", "zip_code": "92170"}], "timezone": "Europe/Paris", "id": "stop_area:OCE:SA:87391532"}, {"codes": [{"type": "CR-CI-CH", "value": "0087-484386-BV"}, {"type": "CR-CI-CH", "value": "0087-484386-BV"}, {"type": "UIC8", "value": "87484386"}, {"type": "external_code", "value": "OCE87484386"}], "name": "Varades-St-Florent Le V", "links": [], "coord": {"lat": "47.374543", "lon": "-1.019803"}, "label": "Varades-St-Florent Le V (Loireauxence)", "administrative_regions": [{"insee": "44213", "name": "Loireauxence", "level": 8, "coord": {"lat": "47.3846806", "lon": "-1.0285051"}, "label": "Loireauxence (44370)", "id": "admin:fr:44213", "zip_code": "44370"}], "timezone": "Europe/Paris", "id": "stop_area:OCE:SA:87484386"}, {"codes": [{"type": "CR-CI-CH", "value": "0087-141101-BV"}, {"type": "CR-CI-CH", "value": "0087-141101-BV"}, {"type": "UIC8", "value": "87141101"}, {"type": "external_code", "value": "OCE87141101"}], "name": "Varang\u00e9ville-St-Nicolas", "links": [], "coord": {"lat": "48.63515", "lon": "6.313367"}, "label": "Varang\u00e9ville-St-Nicolas (Varang\u00e9ville)", "administrative_regions": [{"insee": "54549", "name": "Varang\u00e9ville", "level": 8, "coord": {"lat": "48.6340871", "lon": "6.3130958"}, "label": "Varang\u00e9ville (54110)", "id": "admin:fr:54549", "zip_code": "54110"}], "timezone": "Europe/Paris", "id": "stop_area:OCE:SA:87141101"}, {"codes": [{"type": "CR-CI-CH", "value": "0087-696351-BV"}, {"type": "CR-CI-CH", "value": "0087-696351-BV"}, {"type": "UIC8", "value": "87696351"}, {"type": "external_code", "value": "OCE87696351"}], "name": "Varennes-sur-Allier", "links": [], "coord": {"lat": "46.315442", "lon": "3.394161"}, "label": "Varennes-sur-Allier (Varennes-sur-Allier)", "administrative_regions": [{"insee": "3298", "name": "Varennes-sur-Allier", "level": 8, "coord": {"lat": "46.3127469", "lon": "3.4033756"}, "label": "Varennes-sur-Allier (03150)", "id": "admin:fr:3298", "zip_code": "03150"}], "timezone": "Europe/Paris", "id": "stop_area:OCE:SA:87696351"}, {"codes": [{"type": "CR-CI-CH", "value": "0087-576231-00"}, {"type": "CR-CI-CH", "value": "0087-576231-00"}, {"type": "UIC8", "value": "87576231"}, {"type": "external_code", "value": "OCE87576231"}], "name": "Varennes-sur-Fouzon", "links": [], "coord": {"lat": "47.214383", "lon": "1.614208"}, "label": "Varennes-sur-Fouzon (Val-Fouzon)", "administrative_regions": [{"insee": "36229", "name": "Val-Fouzon", "level": 8, "coord": {"lat": "47.2121017", "lon": "1.6057335"}, "label": "Val-Fouzon (36210)", "id": "admin:fr:36229", "zip_code": "36210"}], "timezone": "Europe/Paris", "id": "stop_area:OCE:SA:87576231"}, {"codes": [{"type": "CR-CI-CH", "value": "0087-594606-00"}, {"type": "CR-CI-CH", "value": "0087-594606-00"}, {"type": "UIC8", "value": "87594606"}, {"type": "external_code", "value": "OCE87594606"}], "name": "Varetz", "links": [], "coord": {"lat": "45.191065", "lon": "1.447351"}, "label": "Varetz (Varetz)", "administrative_regions": [{"insee": "19278", "name": "Varetz", "level": 8, "coord": {"lat": "45.1937382", "lon": "1.451279"}, "label": "Varetz (19240)", "id": "admin:fr:19278", "zip_code": "19240"}], "timezone": "Europe/Paris", "id": "stop_area:OCE:SA:87594606"}, {"codes": [{"type": "CR-CI-CH", "value": "0087-611327-00"}, {"type": "CR-CI-CH", "value": "0087-611327-00"}, {"type": "UIC8", "value": "87611327"}, {"type": "external_code", "value": "OCE87611327"}], "name": "Varilhes", "links": [], "coord": {"lat": "43.04149", "lon": "1.628576"}, "label": "Varilhes (Varilhes)", "administrative_regions": [{"insee": "9324", "name": "Varilhes", "level": 8, "coord": {"lat": "43.0424295", "lon": "1.6272972"}, "label": "Varilhes (09120)", "id": "admin:fr:9324", "zip_code": "09120"}], "timezone": "Europe/Paris", "id": "stop_area:OCE:SA:87611327"}, {"codes": [{"type": "CR-CI-CH", "value": "0087-130898-00"}, {"type": "CR-CI-CH", "value": "0087-130898-00"}, {"type": "UIC8", "value": "87130898"}, {"type": "external_code", "value": "OCE87130898"}], "name": "Varilhes-Centre", "links": [], "coord": {"lat": "43.044978", "lon": "1.627614"}, "label": "Varilhes-Centre (Varilhes)", "administrative_regions": [{"insee": "9324", "name": "Varilhes", "level": 8, "coord": {"lat": "43.0424295", "lon": "1.6272972"}, "label": "Varilhes (09120)", "id": "admin:fr:9324", "zip_code": "09120"}], "timezone": "Europe/Paris", "id": "stop_area:OCE:SA:87130898"}, {"codes": [{"type": "CR-CI-CH", "value": "0087-476929-HR"}, {"type": "CR-CI-CH", "value": "0087-476929-HR"}, {"type": "UIC8", "value": "87476929"}, {"type": "external_code", "value": "OCE87476929"}], "name": "Vatimont-Mairie", "links": [], "coord": {"lat": "48.980021", "lon": "6.464405"}, "label": "Vatimont-Mairie (Vatimont)", "administrative_regions": [{"insee": "57698", "name": "Vatimont", "level": 8, "coord": {"lat": "48.9808121", "lon": "6.4664978"}, "label": "Vatimont (57580)", "id": "admin:fr:57698", "zip_code": "57580"}], "timezone": "Europe/Paris", "id": "stop_area:OCE:SA:87476929"}, {"codes": [{"type": "CR-CI-CH", "value": "0087-393538-00"}, {"type": "CR-CI-CH", "value": "0087-393538-00"}, {"type": "UIC8", "value": "87393538"}, {"type": "external_code", "value": "OCE87393538"}], "name": "Vauboyen", "links": [], "coord": {"lat": "48.759131", "lon": "2.192038"}, "label": "Vauboyen (Jouy-en-Josas)", "administrative_regions": [{"insee": "78322", "name": "Jouy-en-Josas", "level": 8, "coord": {"lat": "48.76464", "lon": "2.1684529"}, "label": "Jouy-en-Josas (78350)", "id": "admin:fr:78322", "zip_code": "78350"}], "timezone": "Europe/Paris", "id": "stop_area:OCE:SA:87393538"}, {"codes": [{"type": "CR-CI-CH", "value": "0087-276626-00"}, {"type": "CR-CI-CH", "value": "0087-276626-00"}, {"type": "UIC8", "value": "87276626"}, {"type": "external_code", "value": "OCE87276626"}], "name": "Vaucelles", "links": [], "coord": {"lat": "49.021391", "lon": "2.230748"}, "label": "Vaucelles (Taverny)", "administrative_regions": [{"insee": "95607", "name": "Taverny", "level": 8, "coord": {"lat": "49.0265888", "lon": "2.2234971"}, "label": "Taverny (95150)", "id": "admin:fr:95607", "zip_code": "95150"}], "timezone": "Europe/Paris", "id": "stop_area:OCE:SA:87276626"}, {"codes": [{"type": "CR-CI-CH", "value": "0087-279927-00"}, {"type": "CR-CI-CH", "value": "0087-279927-00"}, {"type": "UIC8", "value": "87279927"}, {"type": "external_code", "value": "OCE87279927"}], "name": "Vauchonvilliers-Mairie", "links": [], "coord": {"lat": "48.265555", "lon": "4.5261"}, "label": "Vauchonvilliers-Mairie (Vauchonvilliers)", "administrative_regions": [{"insee": "10397", "name": "Vauchonvilliers", "level": 8, "coord": {"lat": "48.2645149", "lon": "4.5268894"}, "label": "Vauchonvilliers (10140)", "id": "admin:fr:10397", "zip_code": "10140"}], "timezone": "Europe/Paris", "id": "stop_area:OCE:SA:87279927"}, {"codes": [{"type": "CR-CI-CH", "value": "0087-382267-00"}, {"type": "CR-CI-CH", "value": "0087-382267-00"}, {"type": "UIC8", "value": "87382267"}, {"type": "external_code", "value": "OCE87382267"}], "name": "Vaucresson", "links": [], "coord": {"lat": "48.836785", "lon": "2.152555"}, "label": "Vaucresson (Vaucresson)", "administrative_regions": [{"insee": "92076", "name": "Vaucresson", "level": 8, "coord": {"lat": "48.8392676", "lon": "2.1575981"}, "label": "Vaucresson (92420)", "id": "admin:fr:92076", "zip_code": "92420"}], "timezone": "Europe/Paris", "id": "stop_area:OCE:SA:87382267"}, {"codes": [{"type": "CR-CI-CH", "value": "0087-746727-00"}, {"type": "CR-CI-CH", "value": "0087-746727-00"}, {"type": "UIC8", "value": "87746727"}, {"type": "external_code", "value": "OCE87746727"}], "name": "Vaudagne", "links": [], "coord": {"lat": "45.90902", "lon": "6.772588"}, "label": "Vaudagne (Les Houches)", "administrative_regions": [{"insee": "74143", "name": "Les Houches", "level": 8, "coord": {"lat": "45.891508", "lon": "6.799138"}, "label": "Les Houches (74310)", "id": "admin:fr:74143", "zip_code": "74310"}], "timezone": "Europe/Paris", "id": "stop_area:OCE:SA:87746727"}, {"codes": [{"type": "CR-CI-CH", "value": "0087-117507-00"}, {"type": "CR-CI-CH", "value": "0087-117507-00"}, {"type": "UIC8", "value": "87117507"}, {"type": "external_code", "value": "OCE87117507"}], "name": "Vaudreching", "links": [], "coord": {"lat": "49.285177", "lon": "6.524443"}, "label": "Vaudreching (Vaudreching)", "administrative_regions": [{"insee": "57700", "name": "Vaudreching", "level": 8, "coord": {"lat": "49.2853", "lon": "6.526"}, "label": "Vaudreching (57320)", "id": "admin:fr:57700", "zip_code": "57320"}], "timezone": "Europe/Paris", "id": "stop_area:OCE:SA:87117507"}]}