{"pagination": {"start_page": 25, "items_on_page": 25, "items_per_page": 25, "total_result": 4343}, "links": [{"href": "https://api.sncf.com/v1/coverage/sncf/stop_areas/{stop_areas.id}", "type": "stop_areas", "rel": "stop_areas", "templated": true}, {"href": "https://api.sncf.com/v1/coverage/sncf/stop_areas/{stop_areas.id}/route_schedules", "type": "route_schedules", "rel": "route_schedules", "templated": true}, {"href": "https://api.sncf.com/v1/coverage/sncf/stop_areas/{stop_areas.id}/stop_schedules", "type": "stop_schedules", "rel": "stop_schedules", "templated": true}, {"href": "https://api.sncf.com/v1/coverage/sncf/stop_areas/{stop_areas.id}/arrivals", "type": "arrivals", "rel": "arrivals", "templated": true}, {"href": "https://api.sncf.com/v1/coverage/sncf/stop_areas/{stop_areas.id}/departures", "type": "departures", "rel": "departures", "templated": true}, {"href": "https://api.sncf.com/v1/coverage/sncf/stop_areas/{stop_areas.id}/places_nearby", "type": "places_nearby", "rel": "places_nearby", "templated": true}, {"href": "https://api.sncf.com/v1/coverage/sncf/stop_areas/{stop_areas.id}/journeys", "type": "journey", "rel": "journeys", "templated": true}, {"href": "https://api.sncf.com/v1/coverage/sncf/stop_areas/{stop_areas.id}/traffic_reports", "type": "disruption", "rel": "disruptions", "templated": true}, {"href": "https://api.sncf.com/v1/coverage/sncf/stop_areas?start_page=24", "type": "previous", "templated": false}, {"href": "https://api.sncf.com/v1/coverage/sncf/stop_areas?start_page=26", "type": "next", "templated": false}, {"href": "https://api.sncf.com/v1/coverage/sncf/stop_areas?start_page=173", "type": "last", "templated": false}, {"href": "https://api.sncf.com/v1/coverage/sncf/stop_areas", "type": "first", "templated": false}], "disruptions": [], "feed_publishers": [], "context": {"timezone": "Europe/Paris", "current_datetime": "20200210T135431"}, "stop_areas": [{"codes": [{"type": "CR-CI-CH", "value": "0087-407114-00"}, {"type": "CR-CI-CH", "value": "0087-407114-00"}, {"type": "UIC8", "value": "87407114"}, {"type": "external_code", "value": "OCE87407114"}], "name": "B\u00e9nestroff (Centre)", "links": [], "coord": {"lat": "48.904418", "lon": "6.758631"}, "label": "B\u00e9nestroff (Centre) (B\u00e9nestroff)", "administrative_regions": [{"insee": "57060", "name": "B\u00e9nestroff", "level": 8, "coord": {"lat": "48.9051253", "lon": "6.7600862"}, "label": "B\u00e9nestroff (57670)", "id": "admin:fr:57060", "zip_code": "57670"}], "timezone": "Europe/Paris", "id": "stop_area:OCE:SA:87407114"}, {"codes": [{"type": "CR-CI-CH", "value": "0087-594747-00"}, {"type": "CR-CI-CH", "value": "0087-594747-00"}, {"type": "UIC8", "value": "87594747"}, {"type": "external_code", "value": "OCE87594747"}], "name": "B\u00e9taille", "links": [], "coord": {"lat": "44.942532", "lon": "1.734529"}, "label": "B\u00e9taille (B\u00e9taille)", "administrative_regions": [{"insee": "46028", "name": "B\u00e9taille", "level": 8, "coord": {"lat": "44.9431294", "lon": "1.7332339"}, "label": "B\u00e9taille (46110)", "id": "admin:fr:46028", "zip_code": "46110"}], "timezone": "Europe/Paris", "id": "stop_area:OCE:SA:87594747"}, {"codes": [{"type": "CR-CI-CH", "value": "0087-342006-BV"}, {"type": "CR-CI-CH", "value": "0087-342006-BV"}, {"type": "UIC8", "value": "87342006"}, {"type": "external_code", "value": "OCE87342006"}], "name": "B\u00e9thune", "links": [], "coord": {"lat": "50.521434", "lon": "2.640398"}, "label": "B\u00e9thune (B\u00e9thune)", "administrative_regions": [{"insee": "62119", "name": "B\u00e9thune", "level": 8, "coord": {"lat": "50.5199", "lon": "2.64781"}, "label": "B\u00e9thune (62400)", "id": "admin:fr:62119", "zip_code": "62400"}], "timezone": "Europe/Paris", "id": "stop_area:OCE:SA:87342006"}, {"codes": [{"type": "CR-CI-CH", "value": "0087-781005-BV"}, {"type": "CR-CI-CH", "value": "0087-781005-BV"}, {"type": "UIC8", "value": "87781005"}, {"type": "external_code", "value": "OCE87781005"}], "name": "B\u00e9ziers", "links": [], "coord": {"lat": "43.336225", "lon": "3.219218"}, "label": "B\u00e9ziers (B\u00e9ziers)", "administrative_regions": [{"insee": "34032", "name": "B\u00e9ziers", "level": 8, "coord": {"lat": "43.3426562", "lon": "3.2131307"}, "label": "B\u00e9ziers (34500)", "id": "admin:fr:34032", "zip_code": "34500"}], "timezone": "Europe/Paris", "id": "stop_area:OCE:SA:87781005"}, {"codes": [{"type": "CR-CI-CH", "value": "0087-582684-00"}, {"type": "CR-CI-CH", "value": "0087-582684-00"}, {"type": "UIC8", "value": "87582684"}, {"type": "external_code", "value": "OCE87582684"}], "name": "Cadaujac", "links": [], "coord": {"lat": "44.752079", "lon": "-0.537669"}, "label": "Cadaujac (Cadaujac)", "administrative_regions": [{"insee": "33080", "name": "Cadaujac", "level": 8, "coord": {"lat": "44.7555035", "lon": "-0.529702"}, "label": "Cadaujac (33140)", "id": "admin:fr:33080", "zip_code": "33140"}], "timezone": "Europe/Paris", "id": "stop_area:OCE:SA:87582684"}, {"codes": [{"type": "CR-CI-CH", "value": "0087-444000-BV"}, {"type": "CR-CI-CH", "value": "0087-444000-BV"}, {"type": "UIC8", "value": "87444000"}, {"type": "external_code", "value": "OCE87444000"}], "name": "Caen", "links": [], "coord": {"lat": "49.176544", "lon": "-0.34827"}, "label": "Caen (Caen)", "administrative_regions": [{"insee": "14118", "name": "Caen", "level": 8, "coord": {"lat": "49.1828008", "lon": "-0.3690815"}, "label": "Caen (14000)", "id": "admin:fr:14118", "zip_code": "14000"}], "timezone": "Europe/Paris", "id": "stop_area:OCE:SA:87444000"}, {"codes": [{"type": "CR-CI-CH", "value": "0087-317321-BV"}, {"type": "CR-CI-CH", "value": "0087-317321-BV"}, {"type": "UIC8", "value": "87317321"}, {"type": "external_code", "value": "OCE87317321"}], "name": "Caffiers", "links": [], "coord": {"lat": "50.84977", "lon": "1.812153"}, "label": "Caffiers (Caffiers)", "administrative_regions": [{"insee": "62191", "name": "Caffiers", "level": 8, "coord": {"lat": "50.8412015", "lon": "1.809751"}, "label": "Caffiers (62132)", "id": "admin:fr:62191", "zip_code": "62132"}], "timezone": "Europe/Paris", "id": "stop_area:OCE:SA:87317321"}, {"codes": [{"type": "CR-CI-CH", "value": "0087-756320-BV"}, {"type": "CR-CI-CH", "value": "0087-756320-BV"}, {"type": "UIC8", "value": "87756320"}, {"type": "external_code", "value": "OCE87756320"}], "name": "Cagnes-sur-Mer", "links": [], "coord": {"lat": "43.65769", "lon": "7.148161"}, "label": "Cagnes-sur-Mer (Cagnes-sur-Mer)", "administrative_regions": [{"insee": "6027", "name": "Cagnes-sur-Mer", "level": 8, "coord": {"lat": "43.6612012", "lon": "7.1513834"}, "label": "Cagnes-sur-Mer (06800)", "id": "admin:fr:6027", "zip_code": "06800"}], "timezone": "Europe/Paris", "id": "stop_area:OCE:SA:87756320"}, {"codes": [{"type": "CR-CI-CH", "value": "0087-613000-BV"}, {"type": "CR-CI-CH", "value": "0087-613000-BV"}, {"type": "UIC8", "value": "87613000"}, {"type": "external_code", "value": "OCE87613000"}], "name": "Cahors", "links": [], "coord": {"lat": "44.44916", "lon": "1.433238"}, "label": "Cahors (Cahors)", "administrative_regions": [{"insee": "46042", "name": "Cahors", "level": 8, "coord": {"lat": "44.4495", "lon": "1.4364999"}, "label": "Cahors (46000)", "id": "admin:fr:46042", "zip_code": "46000"}], "timezone": "Europe/Paris", "id": "stop_area:OCE:SA:87613000"}, {"codes": [{"type": "CR-CI-CH", "value": "0087-281071-BV"}, {"type": "CR-CI-CH", "value": "0087-281071-BV"}, {"type": "UIC8", "value": "87281071"}, {"type": "external_code", "value": "OCE87281071"}], "name": "Calais Fr\u00e9thun", "links": [], "coord": {"lat": "50.901263", "lon": "1.811027"}, "label": "Calais Fr\u00e9thun (Fr\u00e9thun)", "administrative_regions": [{"insee": "62360", "name": "Fr\u00e9thun", "level": 8, "coord": {"lat": "50.9195914", "lon": "1.8256029"}, "label": "Fr\u00e9thun (62185)", "id": "admin:fr:62360", "zip_code": "62185"}], "timezone": "Europe/Paris", "id": "stop_area:OCE:SA:87281071"}, {"codes": [{"type": "CR-CI-CH", "value": "0087-317263-BV"}, {"type": "CR-CI-CH", "value": "0087-317263-BV"}, {"type": "UIC8", "value": "87317263"}, {"type": "external_code", "value": "OCE87317263"}], "name": "Calais Ville", "links": [], "coord": {"lat": "50.953456", "lon": "1.850745"}, "label": "Calais Ville (Calais)", "administrative_regions": [{"insee": "62193", "name": "Calais", "level": 8, "coord": {"lat": "50.9488", "lon": "1.87468"}, "label": "Calais (62100)", "id": "admin:fr:62193", "zip_code": "62100"}], "timezone": "Europe/Paris", "id": "stop_area:OCE:SA:87317263"}, {"codes": [{"type": "CR-CI-CH", "value": "0087-473546-00"}, {"type": "CR-CI-CH", "value": "0087-473546-00"}, {"type": "UIC8", "value": "87473546"}, {"type": "external_code", "value": "OCE87473546"}], "name": "Callac", "links": [], "coord": {"lat": "48.40689", "lon": "-3.418668"}, "label": "Callac (Callac)", "administrative_regions": [{"insee": "22025", "name": "Callac", "level": 8, "coord": {"lat": "48.4049107", "lon": "-3.426315"}, "label": "Callac (22160)", "id": "admin:fr:22025", "zip_code": "22160"}], "timezone": "Europe/Paris", "id": "stop_area:OCE:SA:87473546"}, {"codes": [{"type": "CR-CI-CH", "value": "0087-165498-00"}, {"type": "CR-CI-CH", "value": "0087-165498-00"}, {"type": "UIC8", "value": "87165498"}, {"type": "external_code", "value": "OCE87165498"}], "name": "Cambes-Village", "links": [], "coord": {"lat": "44.614695", "lon": "1.941021"}, "label": "Cambes-Village (Cambes)", "administrative_regions": [{"insee": "46051", "name": "Cambes", "level": 8, "coord": {"lat": "44.6139003", "lon": "1.942427"}, "label": "Cambes (46100)", "id": "admin:fr:46051", "zip_code": "46100"}], "timezone": "Europe/Paris", "id": "stop_area:OCE:SA:87165498"}, {"codes": [{"type": "CR-CI-CH", "value": "0087-673657-00"}, {"type": "CR-CI-CH", "value": "0087-673657-00"}, {"type": "UIC8", "value": "87673657"}, {"type": "external_code", "value": "OCE87673657"}], "name": "Cambo-les-Bains", "links": [], "coord": {"lat": "43.365543", "lon": "-1.396706"}, "label": "Cambo-les-Bains (Cambo-les-Bains)", "administrative_regions": [{"insee": "64160", "name": "Cambo-les-Bains", "level": 8, "coord": {"lat": "43.3609139", "lon": "-1.3994687"}, "label": "Cambo-les-Bains (64250)", "id": "admin:fr:64160", "zip_code": "64250"}], "timezone": "Europe/Paris", "id": "stop_area:OCE:SA:87673657"}, {"codes": [{"type": "CR-CI-CH", "value": "0087-345520-BV"}, {"type": "CR-CI-CH", "value": "0087-345520-BV"}, {"type": "UIC8", "value": "87345520"}, {"type": "external_code", "value": "OCE87345520"}], "name": "Cambrai Ville", "links": [], "coord": {"lat": "50.176611", "lon": "3.241216"}, "label": "Cambrai Ville (Cambrai)", "administrative_regions": [{"insee": "59122", "name": "Cambrai", "level": 8, "coord": {"lat": "50.1759602", "lon": "3.2356613"}, "label": "Cambrai (59400)", "id": "admin:fr:59122", "zip_code": "59400"}], "timezone": "Europe/Paris", "id": "stop_area:OCE:SA:87345520"}, {"codes": [{"type": "CR-CI-CH", "value": "0087-783340-00"}, {"type": "CR-CI-CH", "value": "0087-783340-00"}, {"type": "UIC8", "value": "87783340"}, {"type": "external_code", "value": "OCE87783340"}], "name": "Campagnac-St-Geniez", "links": [], "coord": {"lat": "44.422134", "lon": "3.06613"}, "label": "Campagnac-St-Geniez (Campagnac)", "administrative_regions": [{"insee": "12047", "name": "Campagnac", "level": 8, "coord": {"lat": "44.4174", "lon": "3.08708"}, "label": "Campagnac (12560)", "id": "admin:fr:12047", "zip_code": "12560"}], "timezone": "Europe/Paris", "id": "stop_area:OCE:SA:87783340"}, {"codes": [{"type": "CR-CI-CH", "value": "0087-640706-HR"}, {"type": "CR-CI-CH", "value": "0087-640706-HR"}, {"type": "UIC8", "value": "87640706"}, {"type": "external_code", "value": "OCE87640706"}], "name": "Campagne-sur-Aude-Pont", "links": [], "coord": {"lat": "42.915905", "lon": "2.205422"}, "label": "Campagne-sur-Aude-Pont (Campagne-sur-Aude)", "administrative_regions": [{"insee": "11063", "name": "Campagne-sur-Aude", "level": 8, "coord": {"lat": "42.9160337", "lon": "2.2068468"}, "label": "Campagne-sur-Aude (11260)", "id": "admin:fr:11063", "zip_code": "11260"}], "timezone": "Europe/Paris", "id": "stop_area:OCE:SA:87640706"}, {"codes": [{"type": "CR-CI-CH", "value": "0087-757625-00"}, {"type": "CR-CI-CH", "value": "0087-757625-00"}, {"type": "UIC8", "value": "87757625"}, {"type": "external_code", "value": "OCE87757625"}], "name": "Cannes", "links": [], "coord": {"lat": "43.553913", "lon": "7.019725"}, "label": "Cannes (Cannes)", "administrative_regions": [{"insee": "6029", "name": "Cannes", "level": 8, "coord": {"lat": "43.5515198", "lon": "7.0134418"}, "label": "Cannes (06150-06400)", "id": "admin:fr:6029", "zip_code": "06150;06400"}], "timezone": "Europe/Paris", "id": "stop_area:OCE:SA:87757625"}, {"codes": [{"type": "CR-CI-CH", "value": "0087-757617-00"}, {"type": "CR-CI-CH", "value": "0087-757617-00"}, {"type": "UIC8", "value": "87757617"}, {"type": "external_code", "value": "OCE87757617"}], "name": "Cannes-la-Bocca", "links": [], "coord": {"lat": "43.54881", "lon": "6.986579"}, "label": "Cannes-la-Bocca (Cannes)", "administrative_regions": [{"insee": "6029", "name": "Cannes", "level": 8, "coord": {"lat": "43.5515198", "lon": "7.0134418"}, "label": "Cannes (06150-06400)", "id": "admin:fr:6029", "zip_code": "06150;06400"}], "timezone": "Europe/Paris", "id": "stop_area:OCE:SA:87757617"}, {"codes": [{"type": "CR-CI-CH", "value": "0087-345413-00"}, {"type": "CR-CI-CH", "value": "0087-345413-00"}, {"type": "UIC8", "value": "87345413"}, {"type": "external_code", "value": "OCE87345413"}], "name": "Cantin", "links": [], "coord": {"lat": "50.312508", "lon": "3.12194"}, "label": "Cantin (Cantin)", "administrative_regions": [{"insee": "59126", "name": "Cantin", "level": 8, "coord": {"lat": "50.3112491", "lon": "3.1248878"}, "label": "Cantin (59169)", "id": "admin:fr:59126", "zip_code": "59169"}], "timezone": "Europe/Paris", "id": "stop_area:OCE:SA:87345413"}, {"codes": [{"type": "CR-CI-CH", "value": "0087-756460-00"}, {"type": "CR-CI-CH", "value": "0087-756460-00"}, {"type": "UIC8", "value": "87756460"}, {"type": "external_code", "value": "OCE87756460"}], "name": "Cap-Martin-Roquebrune", "links": [], "coord": {"lat": "43.760723", "lon": "7.457538"}, "label": "Cap-Martin-Roquebrune (Roquebrune-Cap-Martin)", "administrative_regions": [{"insee": "6104", "name": "Roquebrune-Cap-Martin", "level": 8, "coord": {"lat": "43.7641047", "lon": "7.4565697"}, "label": "Roquebrune-Cap-Martin (06190)", "id": "admin:fr:6104", "zip_code": "06190"}], "timezone": "Europe/Paris", "id": "stop_area:OCE:SA:87756460"}, {"codes": [{"type": "CR-CI-CH", "value": "0087-756395-00"}, {"type": "CR-CI-CH", "value": "0087-756395-00"}, {"type": "UIC8", "value": "87756395"}, {"type": "external_code", "value": "OCE87756395"}], "name": "Cap-d'Ail", "links": [], "coord": {"lat": "43.720596", "lon": "7.394439"}, "label": "Cap-d'Ail (Cap-d'Ail)", "administrative_regions": [{"insee": "6032", "name": "Cap-d'Ail", "level": 8, "coord": {"lat": "43.7230453", "lon": "7.3969373"}, "label": "Cap-d'Ail (06320)", "id": "admin:fr:6032", "zip_code": "06320"}], "timezone": "Europe/Paris", "id": "stop_area:OCE:SA:87756395"}, {"codes": [{"type": "CR-CI-CH", "value": "0087-613109-BV"}, {"type": "CR-CI-CH", "value": "0087-613109-BV"}, {"type": "UIC8", "value": "87613109"}, {"type": "external_code", "value": "OCE87613109"}], "name": "Capdenac", "links": [], "coord": {"lat": "44.577656", "lon": "2.078902"}, "label": "Capdenac (Capdenac-Gare)", "administrative_regions": [{"insee": "12052", "name": "Capdenac-Gare", "level": 8, "coord": {"lat": "44.5741127", "lon": "2.0805165"}, "label": "Capdenac-Gare (12700)", "id": "admin:fr:12052", "zip_code": "12700"}], "timezone": "Europe/Paris", "id": "stop_area:OCE:SA:87613109"}, {"codes": [{"type": "CR-CI-CH", "value": "0087-613018-00"}, {"type": "CR-CI-CH", "value": "0087-613018-00"}, {"type": "UIC8", "value": "87613018"}, {"type": "external_code", "value": "OCE87613018"}], "name": "Capens", "links": [], "coord": {"lat": "43.337142", "lon": "1.259612"}, "label": "Capens (Capens)", "administrative_regions": [{"insee": "31104", "name": "Capens", "level": 8, "coord": {"lat": "43.33602", "lon": "1.25844"}, "label": "Capens (31410)", "id": "admin:fr:31104", "zip_code": "31410"}], "timezone": "Europe/Paris", "id": "stop_area:OCE:SA:87613018"}, {"codes": [{"type": "CR-CI-CH", "value": "0087-439943-00"}, {"type": "CR-CI-CH", "value": "0087-439943-00"}, {"type": "UIC8", "value": "87439943"}, {"type": "external_code", "value": "OCE87439943"}], "name": "Capens-la-Girouette", "links": [], "coord": {"lat": "43.342765", "lon": "1.254002"}, "label": "Capens-la-Girouette (Capens)", "administrative_regions": [{"insee": "31104", "name": "Capens", "level": 8, "coord": {"lat": "43.33602", "lon": "1.25844"}, "label": "Capens (31410)", "id": "admin:fr:31104", "zip_code": "31410"}], "timezone": "Europe/Paris", "id": "stop_area:OCE:SA:87439943"}]}