{"pagination": {"start_page": 66, "items_on_page": 25, "items_per_page": 25, "total_result": 4343}, "links": [{"href": "https://api.sncf.com/v1/coverage/sncf/stop_areas/{stop_areas.id}", "type": "stop_areas", "rel": "stop_areas", "templated": true}, {"href": "https://api.sncf.com/v1/coverage/sncf/stop_areas/{stop_areas.id}/route_schedules", "type": "route_schedules", "rel": "route_schedules", "templated": true}, {"href": "https://api.sncf.com/v1/coverage/sncf/stop_areas/{stop_areas.id}/stop_schedules", "type": "stop_schedules", "rel": "stop_schedules", "templated": true}, {"href": "https://api.sncf.com/v1/coverage/sncf/stop_areas/{stop_areas.id}/arrivals", "type": "arrivals", "rel": "arrivals", "templated": true}, {"href": "https://api.sncf.com/v1/coverage/sncf/stop_areas/{stop_areas.id}/departures", "type": "departures", "rel": "departures", "templated": true}, {"href": "https://api.sncf.com/v1/coverage/sncf/stop_areas/{stop_areas.id}/places_nearby", "type": "places_nearby", "rel": "places_nearby", "templated": true}, {"href": "https://api.sncf.com/v1/coverage/sncf/stop_areas/{stop_areas.id}/journeys", "type": "journey", "rel": "journeys", "templated": true}, {"href": "https://api.sncf.com/v1/coverage/sncf/stop_areas/{stop_areas.id}/traffic_reports", "type": "disruption", "rel": "disruptions", "templated": true}, {"href": "https://api.sncf.com/v1/coverage/sncf/stop_areas?start_page=65", "type": "previous", "templated": false}, {"href": "https://api.sncf.com/v1/coverage/sncf/stop_areas?start_page=67", "type": "next", "templated": false}, {"href": "https://api.sncf.com/v1/coverage/sncf/stop_areas?start_page=173", "type": "last", "templated": false}, {"href": "https://api.sncf.com/v1/coverage/sncf/stop_areas", "type": "first", "templated": false}], "disruptions": [], "feed_publishers": [], "context": {"timezone": "Europe/Paris", "current_datetime": "20200210T135436"}, "stop_areas": [{"codes": [{"type": "CR-CI-CH", "value": "0087-393033-BV"}, {"type": "CR-CI-CH", "value": "0087-393033-BV"}, {"type": "UIC8", "value": "87393033"}, {"type": "external_code", "value": "OCE87393033"}], "name": "Invalides", "links": [], "coord": {"lat": "48.862369", "lon": "2.3126"}, "label": "Invalides (Paris)", "administrative_regions": [{"insee": "75056", "name": "Paris", "level": 8, "coord": {"lat": "48.8566969", "lon": "2.3514616"}, "label": "Paris (75000-75116)", "id": "admin:fr:75056", "zip_code": "75000;75116"}], "timezone": "Europe/Paris", "id": "stop_area:OCE:SA:87393033"}, {"codes": [{"type": "CR-CI-CH", "value": "0087-193565-00"}, {"type": "CR-CI-CH", "value": "0087-193565-00"}, {"type": "UIC8", "value": "87193565"}, {"type": "external_code", "value": "OCE87193565"}], "name": "Ippling", "links": [], "coord": {"lat": "49.106363", "lon": "7.004946"}, "label": "Ippling (Ippling)", "administrative_regions": [{"insee": "57348", "name": "Ippling", "level": 8, "coord": {"lat": "49.1058158", "lon": "7.003635"}, "label": "Ippling (57990)", "id": "admin:fr:57348", "zip_code": "57990"}], "timezone": "Europe/Paris", "id": "stop_area:OCE:SA:87193565"}, {"codes": [{"type": "CR-CI-CH", "value": "0087-193243-00"}, {"type": "CR-CI-CH", "value": "0087-193243-00"}, {"type": "UIC8", "value": "87193243"}, {"type": "external_code", "value": "OCE87193243"}], "name": "Ire-le-Sec", "links": [], "coord": {"lat": "49.476132", "lon": "5.386517"}, "label": "Ire-le-Sec (Ir\u00e9-le-Sec)", "administrative_regions": [{"insee": "55252", "name": "Ir\u00e9-le-Sec", "level": 8, "coord": {"lat": "49.4753847", "lon": "5.3890698"}, "label": "Ir\u00e9-le-Sec (55600)", "id": "admin:fr:55252", "zip_code": "55600"}], "timezone": "Europe/Paris", "id": "stop_area:OCE:SA:87193243"}, {"codes": [{"type": "CR-CI-CH", "value": "0087-722249-BV"}, {"type": "CR-CI-CH", "value": "0087-722249-00"}, {"type": "CR-CI-CH", "value": "0087-722249-BV"}, {"type": "UIC8", "value": "87722249"}, {"type": "external_code", "value": "OCE87722249"}], "name": "Irigny - Yvours", "links": [], "coord": {"lat": "45.69002", "lon": "4.832288"}, "label": "Irigny - Yvours (Irigny)", "administrative_regions": [{"insee": "69100", "name": "Irigny", "level": 8, "coord": {"lat": "45.6733141", "lon": "4.8216902"}, "label": "Irigny (69540)", "id": "admin:fr:69100", "zip_code": "69540"}], "timezone": "Europe/Paris", "id": "stop_area:OCE:SA:87722249"}, {"codes": [{"type": "CR-CI-CH", "value": "0087-677914-WE"}, {"type": "CR-CI-CH", "value": "0087-677914-WE"}, {"type": "UIC8", "value": "71116000"}, {"type": "external_code", "value": "OCE71116000"}], "name": "Irun", "links": [], "coord": {"lat": "43.339453", "lon": "-1.801311"}, "label": "Irun (Irun)", "administrative_regions": [{"insee": "", "name": "Irun", "level": 8, "coord": {"lat": "43.3383176", "lon": "-1.7888095"}, "label": "Irun", "id": "admin:osm:relation:346782", "zip_code": ""}], "timezone": "Europe/Paris", "id": "stop_area:OCE:SA:71116000"}, {"codes": [{"type": "CR-CI-CH", "value": "0087-713859-00"}, {"type": "CR-CI-CH", "value": "0087-713859-00"}, {"type": "UIC8", "value": "87713859"}, {"type": "external_code", "value": "OCE87713859"}], "name": "Is-sur-Tille", "links": [], "coord": {"lat": "47.520228", "lon": "5.129833"}, "label": "Is-sur-Tille (Marcilly-sur-Tille)", "administrative_regions": [{"insee": "21383", "name": "Marcilly-sur-Tille", "level": 8, "coord": {"lat": "47.5198319", "lon": "5.1333847"}, "label": "Marcilly-sur-Tille (21120)", "id": "admin:fr:21383", "zip_code": "21120"}], "timezone": "Europe/Paris", "id": "stop_area:OCE:SA:87713859"}, {"codes": [{"type": "CR-CI-CH", "value": "0087-342279-00"}, {"type": "CR-CI-CH", "value": "0087-342279-00"}, {"type": "UIC8", "value": "87342279"}, {"type": "external_code", "value": "OCE87342279"}], "name": "Isbergues", "links": [], "coord": {"lat": "50.613953", "lon": "2.462785"}, "label": "Isbergues (Isbergues)", "administrative_regions": [{"insee": "62473", "name": "Isbergues", "level": 8, "coord": {"lat": "50.6211244", "lon": "2.4574631"}, "label": "Isbergues (62330)", "id": "admin:fr:62473", "zip_code": "62330"}], "timezone": "Europe/Paris", "id": "stop_area:OCE:SA:87342279"}, {"codes": [{"type": "CR-CI-CH", "value": "0087-116616-BV"}, {"type": "CR-CI-CH", "value": "0087-116616-BV"}, {"type": "UIC8", "value": "87116616"}, {"type": "external_code", "value": "OCE87116616"}], "name": "Isles-Armenti\u00e8res-Cong.", "links": [], "coord": {"lat": "48.998074", "lon": "3.007088"}, "label": "Isles-Armenti\u00e8res-Cong. (Isles-les-Meldeuses)", "administrative_regions": [{"insee": "77231", "name": "Isles-les-Meldeuses", "level": 8, "coord": {"lat": "48.9988416", "lon": "3.0032414"}, "label": "Isles-les-Meldeuses (77440)", "id": "admin:fr:77231", "zip_code": "77440"}], "timezone": "Europe/Paris", "id": "stop_area:OCE:SA:87116616"}, {"codes": [{"type": "CR-CI-CH", "value": "0087-734202-BV"}, {"type": "CR-CI-CH", "value": "0087-734202-BV"}, {"type": "UIC8", "value": "87734202"}, {"type": "external_code", "value": "OCE87734202"}], "name": "Issoire", "links": [], "coord": {"lat": "45.543953", "lon": "3.254071"}, "label": "Issoire (Issoire)", "administrative_regions": [{"insee": "63178", "name": "Issoire", "level": 8, "coord": {"lat": "45.5432973", "lon": "3.2502213"}, "label": "Issoire (63500)", "id": "admin:fr:63178", "zip_code": "63500"}], "timezone": "Europe/Paris", "id": "stop_area:OCE:SA:87734202"}, {"codes": [{"type": "CR-CI-CH", "value": "0087-395665-00"}, {"type": "CR-CI-CH", "value": "0087-395665-00"}, {"type": "UIC8", "value": "87395665"}, {"type": "external_code", "value": "OCE87395665"}], "name": "Issoire-Lyc\u00e9e-Deville", "links": [], "coord": {"lat": "45.539936", "lon": "3.257986"}, "label": "Issoire-Lyc\u00e9e-Deville (Issoire)", "administrative_regions": [{"insee": "63178", "name": "Issoire", "level": 8, "coord": {"lat": "45.5432973", "lon": "3.2502213"}, "label": "Issoire (63500)", "id": "admin:fr:63178", "zip_code": "63500"}], "timezone": "Europe/Paris", "id": "stop_area:OCE:SA:87395665"}, {"codes": [{"type": "CR-CI-CH", "value": "0087-395673-00"}, {"type": "CR-CI-CH", "value": "0087-395673-00"}, {"type": "UIC8", "value": "87395673"}, {"type": "external_code", "value": "OCE87395673"}], "name": "Issoire-Lyc\u00e9e-Murat", "links": [], "coord": {"lat": "45.550384", "lon": "3.249926"}, "label": "Issoire-Lyc\u00e9e-Murat (Issoire)", "administrative_regions": [{"insee": "63178", "name": "Issoire", "level": 8, "coord": {"lat": "45.5432973", "lon": "3.2502213"}, "label": "Issoire (63500)", "id": "admin:fr:63178", "zip_code": "63500"}], "timezone": "Europe/Paris", "id": "stop_area:OCE:SA:87395673"}, {"codes": [{"type": "CR-CI-CH", "value": "0087-381574-00"}, {"type": "CR-CI-CH", "value": "0087-381574-00"}, {"type": "UIC8", "value": "87381574"}, {"type": "external_code", "value": "OCE87381574"}], "name": "Issou-Porcheville", "links": [], "coord": {"lat": "48.979309", "lon": "1.785079"}, "label": "Issou-Porcheville (Issou)", "administrative_regions": [{"insee": "78314", "name": "Issou", "level": 8, "coord": {"lat": "48.988093", "lon": "1.7924733"}, "label": "Issou (78440)", "id": "admin:fr:78314", "zip_code": "78440"}], "timezone": "Europe/Paris", "id": "stop_area:OCE:SA:87381574"}, {"codes": [{"type": "CR-CI-CH", "value": "0087-597062-BV"}, {"type": "CR-CI-CH", "value": "0087-597062-BV"}, {"type": "UIC8", "value": "87597062"}, {"type": "external_code", "value": "OCE87597062"}], "name": "Issoudun", "links": [], "coord": {"lat": "46.947849", "lon": "1.984921"}, "label": "Issoudun (Issoudun)", "administrative_regions": [{"insee": "36088", "name": "Issoudun", "level": 8, "coord": {"lat": "46.9477826", "lon": "1.9889131"}, "label": "Issoudun (36100)", "id": "admin:fr:36088", "zip_code": "36100"}], "timezone": "Europe/Paris", "id": "stop_area:OCE:SA:87597062"}, {"codes": [{"type": "CR-CI-CH", "value": "0087-643767-HR"}, {"type": "CR-CI-CH", "value": "0087-643767-HR"}, {"type": "UIC8", "value": "87643767"}, {"type": "external_code", "value": "OCE87643767"}], "name": "Issoudun-CHU", "links": [], "coord": {"lat": "46.957808", "lon": "1.996957"}, "label": "Issoudun-CHU (Issoudun)", "administrative_regions": [{"insee": "36088", "name": "Issoudun", "level": 8, "coord": {"lat": "46.9477826", "lon": "1.9889131"}, "label": "Issoudun (36100)", "id": "admin:fr:36088", "zip_code": "36100"}], "timezone": "Europe/Paris", "id": "stop_area:OCE:SA:87643767"}, {"codes": [{"type": "CR-CI-CH", "value": "0087-689935-HR"}, {"type": "UIC8", "value": "87689935"}, {"type": "external_code", "value": "OCE87689935"}], "name": "Issoudun-Jardin", "links": [], "coord": {"lat": "46.949686", "lon": "1.994683"}, "label": "Issoudun-Jardin (Issoudun)", "administrative_regions": [{"insee": "36088", "name": "Issoudun", "level": 8, "coord": {"lat": "46.9477826", "lon": "1.9889131"}, "label": "Issoudun (36100)", "id": "admin:fr:36088", "zip_code": "36100"}], "timezone": "Europe/Paris", "id": "stop_area:OCE:SA:87689935"}, {"codes": [{"type": "CR-CI-CH", "value": "0087-304642-00"}, {"type": "CR-CI-CH", "value": "0087-304642-00"}, {"type": "UIC8", "value": "87304642"}, {"type": "external_code", "value": "OCE87304642"}], "name": "Issoudun-Place-de-la-G.", "links": [], "coord": {"lat": "46.948607", "lon": "1.985823"}, "label": "Issoudun-Place-de-la-G. (Issoudun)", "administrative_regions": [{"insee": "36088", "name": "Issoudun", "level": 8, "coord": {"lat": "46.9477826", "lon": "1.9889131"}, "label": "Issoudun (36100)", "id": "admin:fr:36088", "zip_code": "36100"}], "timezone": "Europe/Paris", "id": "stop_area:OCE:SA:87304642"}, {"codes": [{"type": "CR-CI-CH", "value": "0087-393074-00"}, {"type": "CR-CI-CH", "value": "0087-393074-00"}, {"type": "UIC8", "value": "87393074"}, {"type": "external_code", "value": "OCE87393074"}], "name": "Issy", "links": [], "coord": {"lat": "48.819709", "lon": "2.259008"}, "label": "Issy (Issy-les-Moulineaux)", "administrative_regions": [{"insee": "92040", "name": "Issy-les-Moulineaux", "level": 8, "coord": {"lat": "48.8250508", "lon": "2.273457"}, "label": "Issy-les-Moulineaux (92130)", "id": "admin:fr:92040", "zip_code": "92130"}], "timezone": "Europe/Paris", "id": "stop_area:OCE:SA:87393074"}, {"codes": [{"type": "CR-CI-CH", "value": "0087-393306-BV"}, {"type": "CR-CI-CH", "value": "0087-393306-BV"}, {"type": "UIC8", "value": "87393306"}, {"type": "external_code", "value": "OCE87393306"}], "name": "Issy Val de Seine", "links": [], "coord": {"lat": "48.829868", "lon": "2.26324"}, "label": "Issy Val de Seine (Issy-les-Moulineaux)", "administrative_regions": [{"insee": "92040", "name": "Issy-les-Moulineaux", "level": 8, "coord": {"lat": "48.8250508", "lon": "2.273457"}, "label": "Issy-les-Moulineaux (92130)", "id": "admin:fr:92040", "zip_code": "92130"}], "timezone": "Europe/Paris", "id": "stop_area:OCE:SA:87393306"}, {"codes": [{"type": "CR-CI-CH", "value": "0087-481622-00"}, {"type": "CR-CI-CH", "value": "0087-481622-00"}, {"type": "UIC8", "value": "87481622"}, {"type": "external_code", "value": "OCE87481622"}], "name": "Iss\u00e9", "links": [], "coord": {"lat": "47.627038", "lon": "-1.450334"}, "label": "Iss\u00e9 (Iss\u00e9)", "administrative_regions": [{"insee": "44075", "name": "Iss\u00e9", "level": 8, "coord": {"lat": "47.6240382", "lon": "-1.4527406"}, "label": "Iss\u00e9 (44520)", "id": "admin:fr:44075", "zip_code": "44520"}], "timezone": "Europe/Paris", "id": "stop_area:OCE:SA:87481622"}, {"codes": [{"type": "CR-CI-CH", "value": "0087-753418-BV"}, {"type": "CR-CI-CH", "value": "0087-753418-BV"}, {"type": "UIC8", "value": "87753418"}, {"type": "external_code", "value": "OCE87753418"}], "name": "Istres", "links": [], "coord": {"lat": "43.515376", "lon": "4.980434"}, "label": "Istres (Istres)", "administrative_regions": [{"insee": "13047", "name": "Istres", "level": 8, "coord": {"lat": "43.5139051", "lon": "4.9884323"}, "label": "Istres (13800)", "id": "admin:fr:13047", "zip_code": "13800"}], "timezone": "Europe/Paris", "id": "stop_area:OCE:SA:87753418"}, {"codes": [{"type": "CR-CI-CH", "value": "0087-577403-00"}, {"type": "CR-CI-CH", "value": "0087-577403-00"}, {"type": "UIC8", "value": "87577403"}, {"type": "external_code", "value": "OCE87577403"}], "name": "Iteuil (Centre)", "links": [], "coord": {"lat": "46.484213", "lon": "0.316845"}, "label": "Iteuil (Centre) (Iteuil)", "administrative_regions": [{"insee": "86113", "name": "Iteuil", "level": 8, "coord": {"lat": "46.4887916", "lon": "0.3113773"}, "label": "Iteuil (86240)", "id": "admin:fr:86113", "zip_code": "86240"}], "timezone": "Europe/Paris", "id": "stop_area:OCE:SA:87577403"}, {"codes": [{"type": "CR-CI-CH", "value": "0087-545301-00"}, {"type": "CR-CI-CH", "value": "0087-545301-00"}, {"type": "UIC8", "value": "87545301"}, {"type": "external_code", "value": "OCE87545301"}], "name": "Ivry-sur-Seine", "links": [], "coord": {"lat": "48.814348", "lon": "2.391146"}, "label": "Ivry-sur-Seine (Ivry-sur-Seine)", "administrative_regions": [{"insee": "94041", "name": "Ivry-sur-Seine", "level": 8, "coord": {"lat": "48.8122302", "lon": "2.3872525"}, "label": "Ivry-sur-Seine (94200)", "id": "admin:fr:94041", "zip_code": "94200"}], "timezone": "Europe/Paris", "id": "stop_area:OCE:SA:87545301"}, {"codes": [{"type": "CR-CI-CH", "value": "0087-345397-00"}, {"type": "CR-CI-CH", "value": "0087-345397-00"}, {"type": "UIC8", "value": "87345397"}, {"type": "external_code", "value": "OCE87345397"}], "name": "Iwuy", "links": [], "coord": {"lat": "50.225677", "lon": "3.329873"}, "label": "Iwuy (Iwuy)", "administrative_regions": [{"insee": "59322", "name": "Iwuy", "level": 8, "coord": {"lat": "50.2329376", "lon": "3.3216106"}, "label": "Iwuy (59141)", "id": "admin:fr:59322", "zip_code": "59141"}], "timezone": "Europe/Paris", "id": "stop_area:OCE:SA:87345397"}, {"codes": [{"type": "CR-CI-CH", "value": "0087-413716-00"}, {"type": "CR-CI-CH", "value": "0087-413716-00"}, {"type": "UIC8", "value": "87413716"}, {"type": "external_code", "value": "OCE87413716"}], "name": "J.Monod-la-Demi-Lieue", "links": [], "coord": {"lat": "49.526962", "lon": "0.186048"}, "label": "J.Monod-la-Demi-Lieue (Montivilliers)", "administrative_regions": [{"insee": "76447", "name": "Montivilliers", "level": 8, "coord": {"lat": "49.5456435", "lon": "0.192418"}, "label": "Montivilliers (76290)", "id": "admin:fr:76447", "zip_code": "76290"}], "timezone": "Europe/Paris", "id": "stop_area:OCE:SA:87413716"}, {"codes": [{"type": "CR-CI-CH", "value": "0087-471334-00"}, {"type": "CR-CI-CH", "value": "0087-471334-00"}, {"type": "UIC8", "value": "87471334"}, {"type": "external_code", "value": "OCE87471334"}], "name": "Janz\u00e9", "links": [], "coord": {"lat": "47.955123", "lon": "-1.49741"}, "label": "Janz\u00e9 (Janz\u00e9)", "administrative_regions": [{"insee": "35136", "name": "Janz\u00e9", "level": 8, "coord": {"lat": "47.9556915", "lon": "-1.495366"}, "label": "Janz\u00e9 (35150)", "id": "admin:fr:35136", "zip_code": "35150"}], "timezone": "Europe/Paris", "id": "stop_area:OCE:SA:87471334"}]}