{"pagination": {"start_page": 73, "items_on_page": 25, "items_per_page": 25, "total_result": 4343}, "links": [{"href": "https://api.sncf.com/v1/coverage/sncf/stop_areas/{stop_areas.id}", "type": "stop_areas", "rel": "stop_areas", "templated": true}, {"href": "https://api.sncf.com/v1/coverage/sncf/stop_areas/{stop_areas.id}/route_schedules", "type": "route_schedules", "rel": "route_schedules", "templated": true}, {"href": "https://api.sncf.com/v1/coverage/sncf/stop_areas/{stop_areas.id}/stop_schedules", "type": "stop_schedules", "rel": "stop_schedules", "templated": true}, {"href": "https://api.sncf.com/v1/coverage/sncf/stop_areas/{stop_areas.id}/arrivals", "type": "arrivals", "rel": "arrivals", "templated": true}, {"href": "https://api.sncf.com/v1/coverage/sncf/stop_areas/{stop_areas.id}/departures", "type": "departures", "rel": "departures", "templated": true}, {"href": "https://api.sncf.com/v1/coverage/sncf/stop_areas/{stop_areas.id}/places_nearby", "type": "places_nearby", "rel": "places_nearby", "templated": true}, {"href": "https://api.sncf.com/v1/coverage/sncf/stop_areas/{stop_areas.id}/journeys", "type": "journey", "rel": "journeys", "templated": true}, {"href": "https://api.sncf.com/v1/coverage/sncf/stop_areas/{stop_areas.id}/traffic_reports", "type": "disruption", "rel": "disruptions", "templated": true}, {"href": "https://api.sncf.com/v1/coverage/sncf/stop_areas?start_page=72", "type": "previous", "templated": false}, {"href": "https://api.sncf.com/v1/coverage/sncf/stop_areas?start_page=74", "type": "next", "templated": false}, {"href": "https://api.sncf.com/v1/coverage/sncf/stop_areas?start_page=173", "type": "last", "templated": false}, {"href": "https://api.sncf.com/v1/coverage/sncf/stop_areas", "type": "first", "templated": false}], "disruptions": [], "feed_publishers": [], "context": {"timezone": "Europe/Paris", "current_datetime": "20200210T135437"}, "stop_areas": [{"codes": [{"type": "CR-CI-CH", "value": "0087-396036-00"}, {"type": "CR-CI-CH", "value": "0087-396036-00"}, {"type": "UIC8", "value": "87396036"}, {"type": "external_code", "value": "OCE87396036"}], "name": "La Guierche", "links": [], "coord": {"lat": "48.114021", "lon": "0.193131"}, "label": "La Guierche (La Guierche)", "administrative_regions": [{"insee": "72147", "name": "La Guierche", "level": 8, "coord": {"lat": "48.1132085", "lon": "0.1943092"}, "label": "La Guierche (72380)", "id": "admin:fr:72147", "zip_code": "72380"}], "timezone": "Europe/Paris", "id": "stop_area:OCE:SA:87396036"}, {"codes": [{"type": "CR-CI-CH", "value": "0087-758862-00"}, {"type": "CR-CI-CH", "value": "0087-758862-00"}, {"type": "UIC8", "value": "87758862"}, {"type": "external_code", "value": "OCE87758862"}], "name": "La Hacquini\u00e8re", "links": [], "coord": {"lat": "48.694765", "lon": "2.153181"}, "label": "La Hacquini\u00e8re (Bures-sur-Yvette)", "administrative_regions": [{"insee": "91122", "name": "Bures-sur-Yvette", "level": 8, "coord": {"lat": "48.6972179", "lon": "2.1632719"}, "label": "Bures-sur-Yvette (91440)", "id": "admin:fr:91122", "zip_code": "91440"}], "timezone": "Europe/Paris", "id": "stop_area:OCE:SA:87758862"}, {"codes": [{"type": "CR-CI-CH", "value": "0087-481416-00"}, {"type": "CR-CI-CH", "value": "0087-481416-00"}, {"type": "UIC8", "value": "87481416"}, {"type": "external_code", "value": "OCE87481416"}], "name": "La Haie-Fouassi\u00e8re", "links": [], "coord": {"lat": "47.161618", "lon": "-1.392282"}, "label": "La Haie-Fouassi\u00e8re (La Haie-Fouassi\u00e8re)", "administrative_regions": [{"insee": "44070", "name": "La Haie-Fouassi\u00e8re", "level": 8, "coord": {"lat": "47.1546806", "lon": "-1.4000716"}, "label": "La Haie-Fouassi\u00e8re (44690)", "id": "admin:fr:44070", "zip_code": "44690"}], "timezone": "Europe/Paris", "id": "stop_area:OCE:SA:87481416"}, {"codes": [{"type": "CR-CI-CH", "value": "0087-478156-00"}, {"type": "CR-CI-CH", "value": "0087-478156-00"}, {"type": "UIC8", "value": "87478156"}, {"type": "external_code", "value": "OCE87478156"}], "name": "La Hisse", "links": [], "coord": {"lat": "48.49607", "lon": "-2.003037"}, "label": "La Hisse (Saint-Samson-sur-Rance)", "administrative_regions": [{"insee": "22327", "name": "Saint-Samson-sur-Rance", "level": 8, "coord": {"lat": "48.4920673", "lon": "-2.028553"}, "label": "Saint-Samson-sur-Rance (22100)", "id": "admin:fr:22327", "zip_code": "22100"}], "timezone": "Europe/Paris", "id": "stop_area:OCE:SA:87478156"}, {"codes": [{"type": "CR-CI-CH", "value": "0087-716811-HR"}, {"type": "UIC8", "value": "87716811"}, {"type": "external_code", "value": "OCE87716811"}], "name": "La Houssi\u00e8re Van\u00e9mont Centre", "links": [], "coord": {"lat": "48.200402", "lon": "6.878474"}, "label": "La Houssi\u00e8re Van\u00e9mont Centre (La Houssi\u00e8re)", "administrative_regions": [{"insee": "88244", "name": "La Houssi\u00e8re", "level": 8, "coord": {"lat": "48.1960542", "lon": "6.8541435"}, "label": "La Houssi\u00e8re (88430)", "id": "admin:fr:88244", "zip_code": "88430"}], "timezone": "Europe/Paris", "id": "stop_area:OCE:SA:87716811"}, {"codes": [{"type": "CR-CI-CH", "value": "0087-582635-00"}, {"type": "CR-CI-CH", "value": "0087-582635-00"}, {"type": "UIC8", "value": "87582635"}, {"type": "external_code", "value": "OCE87582635"}], "name": "La Hume", "links": [], "coord": {"lat": "44.639905", "lon": "-1.116065"}, "label": "La Hume (Gujan-Mestras)", "administrative_regions": [{"insee": "33199", "name": "Gujan-Mestras", "level": 8, "coord": {"lat": "44.6338602", "lon": "-1.0845304"}, "label": "Gujan-Mestras (33470)", "id": "admin:fr:33199", "zip_code": "33470"}], "timezone": "Europe/Paris", "id": "stop_area:OCE:SA:87582635"}, {"codes": [{"type": "CR-CI-CH", "value": "0087-396093-00"}, {"type": "CR-CI-CH", "value": "0087-396093-00"}, {"type": "UIC8", "value": "87396093"}, {"type": "external_code", "value": "OCE87396093"}], "name": "La Hutte-Coulombiers", "links": [], "coord": {"lat": "48.303346", "lon": "0.105456"}, "label": "La Hutte-Coulombiers (Fresnay-sur-Sarthe)", "administrative_regions": [{"insee": "72138", "name": "Fresnay-sur-Sarthe", "level": 8, "coord": {"lat": "48.2807744", "lon": "0.0222512"}, "label": "Fresnay-sur-Sarthe (72130)", "id": "admin:fr:72138", "zip_code": "72130"}], "timezone": "Europe/Paris", "id": "stop_area:OCE:SA:87396093"}, {"codes": [{"type": "CR-CI-CH", "value": "0087-592337-BV"}, {"type": "CR-CI-CH", "value": "0087-592337-BV"}, {"type": "UIC8", "value": "87592337"}, {"type": "external_code", "value": "OCE87592337"}], "name": "La Jonch\u00e8re", "links": [], "coord": {"lat": "45.994286", "lon": "1.479859"}, "label": "La Jonch\u00e8re (La Jonch\u00e8re-Saint-Maurice)", "administrative_regions": [{"insee": "87079", "name": "La Jonch\u00e8re-Saint-Maurice", "level": 8, "coord": {"lat": "45.9986601", "lon": "1.4686302"}, "label": "La Jonch\u00e8re-Saint-Maurice (87340)", "id": "admin:fr:87079", "zip_code": "87340"}], "timezone": "Europe/Paris", "id": "stop_area:OCE:SA:87592337"}, {"codes": [{"type": "CR-CI-CH", "value": "0087-775247-00"}, {"type": "CR-CI-CH", "value": "0087-775247-00"}, {"type": "UIC8", "value": "87775247"}, {"type": "external_code", "value": "OCE87775247"}], "name": "La Levade", "links": [], "coord": {"lat": "44.228296", "lon": "4.01069"}, "label": "La Levade (La Grand-Combe)", "administrative_regions": [{"insee": "30132", "name": "La Grand-Combe", "level": 8, "coord": {"lat": "44.2102417", "lon": "4.0294228"}, "label": "La Grand-Combe (30110)", "id": "admin:fr:30132", "zip_code": "30110"}], "timezone": "Europe/Paris", "id": "stop_area:OCE:SA:87775247"}, {"codes": [{"type": "CR-CI-CH", "value": "0087-394254-BV"}, {"type": "CR-CI-CH", "value": "0087-394254-BV"}, {"type": "UIC8", "value": "87394254"}, {"type": "external_code", "value": "OCE87394254"}], "name": "La Loupe", "links": [], "coord": {"lat": "48.473845", "lon": "1.010874"}, "label": "La Loupe (La Loupe)", "administrative_regions": [{"insee": "28214", "name": "La Loupe", "level": 8, "coord": {"lat": "48.4737", "lon": "1.02521"}, "label": "La Loupe (28240)", "id": "admin:fr:28214", "zip_code": "28240"}], "timezone": "Europe/Paris", "id": "stop_area:OCE:SA:87394254"}, {"codes": [{"type": "CR-CI-CH", "value": "0087-286187-BV"}, {"type": "CR-CI-CH", "value": "0087-286187-BV"}, {"type": "UIC8", "value": "87286187"}, {"type": "external_code", "value": "OCE87286187"}], "name": "La Madeleine (Nord)", "links": [], "coord": {"lat": "50.6606", "lon": "3.072567"}, "label": "La Madeleine (Nord) (La Madeleine)", "administrative_regions": [{"insee": "59368", "name": "La Madeleine", "level": 8, "coord": {"lat": "50.6565418", "lon": "3.0678164"}, "label": "La Madeleine (59110)", "id": "admin:fr:59368", "zip_code": "59110"}], "timezone": "Europe/Paris", "id": "stop_area:OCE:SA:87286187"}, {"codes": [{"type": "CR-CI-CH", "value": "0087-691394-00"}, {"type": "CR-CI-CH", "value": "0087-691394-00"}, {"type": "UIC8", "value": "87691394"}, {"type": "external_code", "value": "OCE87691394"}], "name": "La Marche", "links": [], "coord": {"lat": "47.139763", "lon": "3.039386"}, "label": "La Marche (La Marche)", "administrative_regions": [{"insee": "58155", "name": "La Marche", "level": 8, "coord": {"lat": "47.1387911", "lon": "3.035225"}, "label": "La Marche (58400)", "id": "admin:fr:58155", "zip_code": "58400"}], "timezone": "Europe/Paris", "id": "stop_area:OCE:SA:87691394"}, {"codes": [{"type": "CR-CI-CH", "value": "0087-571513-BV"}, {"type": "CR-CI-CH", "value": "0087-571513-BV"}, {"type": "UIC8", "value": "87571513"}, {"type": "external_code", "value": "OCE87571513"}], "name": "La Membrolle-sur-Chois.", "links": [], "coord": {"lat": "47.431824", "lon": "0.641308"}, "label": "La Membrolle-sur-Chois. (Saint-Cyr-sur-Loire)", "administrative_regions": [{"insee": "37214", "name": "Saint-Cyr-sur-Loire", "level": 8, "coord": {"lat": "47.4052448", "lon": "0.6658199"}, "label": "Saint-Cyr-sur-Loire (37540)", "id": "admin:fr:37214", "zip_code": "37540"}], "timezone": "Europe/Paris", "id": "stop_area:OCE:SA:87571513"}, {"codes": [{"type": "CR-CI-CH", "value": "0087-487884-BV"}, {"type": "CR-CI-CH", "value": "0087-487884-BV"}, {"type": "UIC8", "value": "87487884"}, {"type": "external_code", "value": "OCE87487884"}], "name": "La Menitr\u00e9", "links": [], "coord": {"lat": "47.397369", "lon": "-0.275869"}, "label": "La Menitr\u00e9 (La M\u00e9nitr\u00e9)", "administrative_regions": [{"insee": "49201", "name": "La M\u00e9nitr\u00e9", "level": 8, "coord": {"lat": "47.4016646", "lon": "-0.2702849"}, "label": "La M\u00e9nitr\u00e9 (49250)", "id": "admin:fr:49201", "zip_code": "49250"}], "timezone": "Europe/Paris", "id": "stop_area:OCE:SA:87487884"}, {"codes": [{"type": "CR-CI-CH", "value": "0087-592808-00"}, {"type": "CR-CI-CH", "value": "0087-592808-00"}, {"type": "UIC8", "value": "87592808"}, {"type": "external_code", "value": "OCE87592808"}], "name": "La Meyze", "links": [], "coord": {"lat": "45.621338", "lon": "1.212189"}, "label": "La Meyze (La Meyze)", "administrative_regions": [{"insee": "87096", "name": "La Meyze", "level": 8, "coord": {"lat": "45.6163333", "lon": "1.2141383"}, "label": "La Meyze (87800)", "id": "admin:fr:87096", "zip_code": "87800"}], "timezone": "Europe/Paris", "id": "stop_area:OCE:SA:87592808"}, {"codes": [{"type": "CR-CI-CH", "value": "0087-486423-BV"}, {"type": "CR-CI-CH", "value": "0087-486423-BV"}, {"type": "UIC8", "value": "87486423"}, {"type": "external_code", "value": "OCE87486423"}], "name": "La Mothe-Achard", "links": [], "coord": {"lat": "46.606815", "lon": "-1.659679"}, "label": "La Mothe-Achard (Les Achards)", "administrative_regions": [{"insee": "85152", "name": "Les Achards", "level": 8, "coord": {"lat": "46.6180017", "lon": "-1.6591947"}, "label": "Les Achards (85150)", "id": "admin:fr:85152", "zip_code": "85150"}], "timezone": "Europe/Paris", "id": "stop_area:OCE:SA:87486423"}, {"codes": [{"type": "CR-CI-CH", "value": "0087-485508-00"}, {"type": "CR-CI-CH", "value": "0087-485508-00"}, {"type": "UIC8", "value": "87485508"}, {"type": "external_code", "value": "OCE87485508"}], "name": "La Mothe-St-H\u00e9ray", "links": [], "coord": {"lat": "46.380923", "lon": "-0.129873"}, "label": "La Mothe-St-H\u00e9ray (Sainte-Eanne)", "administrative_regions": [{"insee": "79246", "name": "Sainte-Eanne", "level": 8, "coord": {"lat": "46.3974505", "lon": "-0.1352774"}, "label": "Sainte-Eanne (79800)", "id": "admin:fr:79246", "zip_code": "79800"}], "timezone": "Europe/Paris", "id": "stop_area:OCE:SA:87485508"}, {"codes": [{"type": "CR-CI-CH", "value": "0087-473124-00"}, {"type": "CR-CI-CH", "value": "0087-473124-00"}, {"type": "UIC8", "value": "87473124"}, {"type": "external_code", "value": "OCE87473124"}], "name": "La M\u00e9augon", "links": [], "coord": {"lat": "48.499975", "lon": "-2.845023"}, "label": "La M\u00e9augon (La M\u00e9augon)", "administrative_regions": [{"insee": "22144", "name": "La M\u00e9augon", "level": 8, "coord": {"lat": "48.4997094", "lon": "-2.8399002"}, "label": "La M\u00e9augon (22440)", "id": "admin:fr:22144", "zip_code": "22440"}], "timezone": "Europe/Paris", "id": "stop_area:OCE:SA:87473124"}, {"codes": [{"type": "CR-CI-CH", "value": "0087-755314-BV"}, {"type": "CR-CI-CH", "value": "0087-755314-BV"}, {"type": "UIC8", "value": "87755314"}, {"type": "external_code", "value": "OCE87755314"}], "name": "La Pauline-Hy\u00e8res", "links": [], "coord": {"lat": "43.136247", "lon": "6.03508"}, "label": "La Pauline-Hy\u00e8res (La Garde)", "administrative_regions": [{"insee": "83062", "name": "La Garde", "level": 8, "coord": {"lat": "43.1249185", "lon": "6.0128532"}, "label": "La Garde (83130)", "id": "admin:fr:83062", "zip_code": "83130"}], "timezone": "Europe/Paris", "id": "stop_area:OCE:SA:87755314"}, {"codes": [{"type": "CR-CI-CH", "value": "0087-751743-BV"}, {"type": "CR-CI-CH", "value": "0087-751743-BV"}, {"type": "UIC8", "value": "87751743"}, {"type": "external_code", "value": "OCE87751743"}], "name": "La Penne-sur-Huveaune", "links": [], "coord": {"lat": "43.284665", "lon": "5.515512"}, "label": "La Penne-sur-Huveaune (La Penne-sur-Huveaune)", "administrative_regions": [{"insee": "13070", "name": "La Penne-sur-Huveaune", "level": 8, "coord": {"lat": "43.2810535", "lon": "5.515363"}, "label": "La Penne-sur-Huveaune (13821)", "id": "admin:fr:13070", "zip_code": "13821"}], "timezone": "Europe/Paris", "id": "stop_area:OCE:SA:87751743"}, {"codes": [{"type": "CR-CI-CH", "value": "0087-745950-WS"}, {"type": "CR-CI-CH", "value": "0087-745950-WS"}, {"type": "CR-CI-CH", "value": "0087-745950-XS"}, {"type": "UIC8", "value": "87745901"}, {"type": "external_code", "value": "OCE87745901"}], "name": "La Plaine", "links": [], "coord": {"lat": "46.178661", "lon": "5.999998"}, "label": "La Plaine (Dardagny)", "administrative_regions": [{"insee": "", "name": "Dardagny", "level": 8, "coord": {"lat": "46.1984978910784", "lon": "5.98907871041393"}, "label": "Dardagny (1283)", "id": "admin:osm:relation:1685479", "zip_code": "1283"}], "timezone": "Europe/Paris", "id": "stop_area:OCE:SA:87745901"}, {"codes": [{"type": "CR-CI-CH", "value": "0087-164798-00"}, {"type": "CR-CI-CH", "value": "0087-164798-00"}, {"type": "UIC8", "value": "87164798"}, {"type": "external_code", "value": "OCE87164798"}], "name": "La Plaine-Stade-France", "links": [], "coord": {"lat": "48.91826", "lon": "2.362645"}, "label": "La Plaine-Stade-France (Saint-Denis)", "administrative_regions": [{"insee": "93066", "name": "Saint-Denis", "level": 8, "coord": {"lat": "48.935773", "lon": "2.3580232"}, "label": "Saint-Denis (93200)", "id": "admin:fr:93066", "zip_code": "93200"}], "timezone": "Europe/Paris", "id": "stop_area:OCE:SA:87164798"}, {"codes": [{"type": "CR-CI-CH", "value": "0087-751719-00"}, {"type": "CR-CI-CH", "value": "0087-751719-00"}, {"type": "UIC8", "value": "87751719"}, {"type": "external_code", "value": "OCE87751719"}], "name": "La Pomme", "links": [], "coord": {"lat": "43.290477", "lon": "5.441256"}, "label": "La Pomme (Marseille)", "administrative_regions": [{"insee": "13055", "name": "Marseille", "level": 8, "coord": {"lat": "43.2961743", "lon": "5.3699525"}, "label": "Marseille (13000)", "id": "admin:fr:13055", "zip_code": "13000"}], "timezone": "Europe/Paris", "id": "stop_area:OCE:SA:87751719"}, {"codes": [{"type": "CR-CI-CH", "value": "0087-484337-00"}, {"type": "CR-CI-CH", "value": "0087-484337-00"}, {"type": "UIC8", "value": "87484337"}, {"type": "external_code", "value": "OCE87484337"}], "name": "La Possonni\u00e8re", "links": [], "coord": {"lat": "47.371493", "lon": "-0.691742"}, "label": "La Possonni\u00e8re (La Possonni\u00e8re)", "administrative_regions": [{"insee": "49247", "name": "La Possonni\u00e8re", "level": 8, "coord": {"lat": "47.3747181", "lon": "-0.6853654"}, "label": "La Possonni\u00e8re (49170)", "id": "admin:fr:49247", "zip_code": "49170"}], "timezone": "Europe/Paris", "id": "stop_area:OCE:SA:87484337"}, {"codes": [{"type": "CR-CI-CH", "value": "0087-334508-00"}, {"type": "CR-CI-CH", "value": "0087-334508-00"}, {"type": "UIC8", "value": "87334508"}, {"type": "external_code", "value": "OCE87334508"}], "name": "La Poterie", "links": [], "coord": {"lat": "48.092062", "lon": "-1.630786"}, "label": "La Poterie (Rennes)", "administrative_regions": [{"insee": "35238", "name": "Rennes", "level": 8, "coord": {"lat": "48.1113387", "lon": "-1.6800198"}, "label": "Rennes (35000-35700)", "id": "admin:fr:35238", "zip_code": "35000;35700"}], "timezone": "Europe/Paris", "id": "stop_area:OCE:SA:87334508"}]}