{"pagination": {"start_page": 57, "items_on_page": 25, "items_per_page": 25, "total_result": 4343}, "links": [{"href": "https://api.sncf.com/v1/coverage/sncf/stop_areas/{stop_areas.id}", "type": "stop_areas", "rel": "stop_areas", "templated": true}, {"href": "https://api.sncf.com/v1/coverage/sncf/stop_areas/{stop_areas.id}/route_schedules", "type": "route_schedules", "rel": "route_schedules", "templated": true}, {"href": "https://api.sncf.com/v1/coverage/sncf/stop_areas/{stop_areas.id}/stop_schedules", "type": "stop_schedules", "rel": "stop_schedules", "templated": true}, {"href": "https://api.sncf.com/v1/coverage/sncf/stop_areas/{stop_areas.id}/arrivals", "type": "arrivals", "rel": "arrivals", "templated": true}, {"href": "https://api.sncf.com/v1/coverage/sncf/stop_areas/{stop_areas.id}/departures", "type": "departures", "rel": "departures", "templated": true}, {"href": "https://api.sncf.com/v1/coverage/sncf/stop_areas/{stop_areas.id}/places_nearby", "type": "places_nearby", "rel": "places_nearby", "templated": true}, {"href": "https://api.sncf.com/v1/coverage/sncf/stop_areas/{stop_areas.id}/journeys", "type": "journey", "rel": "journeys", "templated": true}, {"href": "https://api.sncf.com/v1/coverage/sncf/stop_areas/{stop_areas.id}/traffic_reports", "type": "disruption", "rel": "disruptions", "templated": true}, {"href": "https://api.sncf.com/v1/coverage/sncf/stop_areas?start_page=56", "type": "previous", "templated": false}, {"href": "https://api.sncf.com/v1/coverage/sncf/stop_areas?start_page=58", "type": "next", "templated": false}, {"href": "https://api.sncf.com/v1/coverage/sncf/stop_areas?start_page=173", "type": "last", "templated": false}, {"href": "https://api.sncf.com/v1/coverage/sncf/stop_areas", "type": "first", "templated": false}], "disruptions": [], "feed_publishers": [], "context": {"timezone": "Europe/Paris", "current_datetime": "20200210T135436"}, "stop_areas": [{"codes": [{"type": "CR-CI-CH", "value": "0087-113860-BV"}, {"type": "CR-CI-CH", "value": "0087-113860-BV"}, {"type": "UIC8", "value": "87113860"}, {"type": "external_code", "value": "OCE87113860"}], "name": "Gargan", "links": [], "coord": {"lat": "48.908233", "lon": "2.517124"}, "label": "Gargan (Les Pavillons-sous-Bois)", "administrative_regions": [{"insee": "93057", "name": "Les Pavillons-sous-Bois", "level": 8, "coord": {"lat": "48.9082988", "lon": "2.5034999"}, "label": "Les Pavillons-sous-Bois (93320)", "id": "admin:fr:93057", "zip_code": "93320"}], "timezone": "Europe/Paris", "id": "stop_area:OCE:SA:87113860"}, {"codes": [{"type": "CR-CI-CH", "value": "0087-381566-00"}, {"type": "CR-CI-CH", "value": "0087-381566-00"}, {"type": "UIC8", "value": "87381566"}, {"type": "external_code", "value": "OCE87381566"}], "name": "Gargenville", "links": [], "coord": {"lat": "48.983111", "lon": "1.809028"}, "label": "Gargenville (Gargenville)", "administrative_regions": [{"insee": "78267", "name": "Gargenville", "level": 8, "coord": {"lat": "48.9901469", "lon": "1.8104637"}, "label": "Gargenville (78440)", "id": "admin:fr:78267", "zip_code": "78440"}], "timezone": "Europe/Paris", "id": "stop_area:OCE:SA:87381566"}, {"codes": [{"type": "CR-CI-CH", "value": "0087-276196-00"}, {"type": "CR-CI-CH", "value": "0087-276196-00"}, {"type": "UIC8", "value": "87276196"}, {"type": "external_code", "value": "OCE87276196"}], "name": "Garges-Sarcelles", "links": [], "coord": {"lat": "48.976656", "lon": "2.39036"}, "label": "Garges-Sarcelles (Garges-l\u00e8s-Gonesse)", "administrative_regions": [{"insee": "95268", "name": "Garges-l\u00e8s-Gonesse", "level": 8, "coord": {"lat": "48.9703841", "lon": "2.399024"}, "label": "Garges-l\u00e8s-Gonesse (95140)", "id": "admin:fr:95268", "zip_code": "95140"}], "timezone": "Europe/Paris", "id": "stop_area:OCE:SA:87276196"}, {"codes": [{"type": "CR-CI-CH", "value": "0087-170811-00"}, {"type": "CR-CI-CH", "value": "0087-170811-00"}, {"type": "UIC8", "value": "87170811"}, {"type": "external_code", "value": "OCE87170811"}], "name": "Gaud", "links": [], "coord": {"lat": "42.914303", "lon": "0.647954"}, "label": "Gaud (Cierp-Gaud)", "administrative_regions": [{"insee": "31144", "name": "Cierp-Gaud", "level": 8, "coord": {"lat": "42.9134556", "lon": "0.6387284"}, "label": "Cierp-Gaud (31440)", "id": "admin:fr:31144", "zip_code": "31440"}], "timezone": "Europe/Paris", "id": "stop_area:OCE:SA:87170811"}, {"codes": [{"type": "CR-CI-CH", "value": "0087-491225-00"}, {"type": "CR-CI-CH", "value": "0087-491225-00"}, {"type": "UIC8", "value": "87491225"}, {"type": "external_code", "value": "OCE87491225"}], "name": "Gauriaguet", "links": [], "coord": {"lat": "45.053486", "lon": "-0.399998"}, "label": "Gauriaguet (Gauriaguet)", "administrative_regions": [{"insee": "33183", "name": "Gauriaguet", "level": 8, "coord": {"lat": "45.0390969", "lon": "-0.392978"}, "label": "Gauriaguet (33240)", "id": "admin:fr:33183", "zip_code": "33240"}], "timezone": "Europe/Paris", "id": "stop_area:OCE:SA:87491225"}, {"codes": [{"type": "CR-CI-CH", "value": "0087-393348-00"}, {"type": "CR-CI-CH", "value": "0087-393348-00"}, {"type": "UIC8", "value": "87393348"}, {"type": "external_code", "value": "OCE87393348"}], "name": "Gazeran", "links": [], "coord": {"lat": "48.625959", "lon": "1.772769"}, "label": "Gazeran (Gazeran)", "administrative_regions": [{"insee": "78269", "name": "Gazeran", "level": 8, "coord": {"lat": "48.6348196", "lon": "1.771981"}, "label": "Gazeran (78125)", "id": "admin:fr:78269", "zip_code": "78125"}], "timezone": "Europe/Paris", "id": "stop_area:OCE:SA:87393348"}, {"codes": [{"type": "CR-CI-CH", "value": "0087-582403-BV"}, {"type": "CR-CI-CH", "value": "0087-582403-BV"}, {"type": "UIC8", "value": "87582403"}, {"type": "external_code", "value": "OCE87582403"}], "name": "Gazinet-Cestas", "links": [], "coord": {"lat": "44.772233", "lon": "-0.699428"}, "label": "Gazinet-Cestas (Cestas)", "administrative_regions": [{"insee": "33122", "name": "Cestas", "level": 8, "coord": {"lat": "44.7411574", "lon": "-0.6841225"}, "label": "Cestas (33610)", "id": "admin:fr:33122", "zip_code": "33610"}], "timezone": "Europe/Paris", "id": "stop_area:OCE:SA:87582403"}, {"codes": [{"type": "CR-CI-CH", "value": "0087-212258-00"}, {"type": "CR-CI-CH", "value": "0087-212258-00"}, {"type": "UIC8", "value": "87212258"}, {"type": "external_code", "value": "OCE87212258"}], "name": "Geispolsheim", "links": [], "coord": {"lat": "48.521919", "lon": "7.68537"}, "label": "Geispolsheim (Geispolsheim)", "administrative_regions": [{"insee": "67152", "name": "Geispolsheim", "level": 8, "coord": {"lat": "48.5146952", "lon": "7.6437386"}, "label": "Geispolsheim (67118)", "id": "admin:fr:67152", "zip_code": "67118"}], "timezone": "Europe/Paris", "id": "stop_area:OCE:SA:87212258"}, {"codes": [{"type": "CR-CI-CH", "value": "0087-678847-HR"}, {"type": "CR-CI-CH", "value": "0087-678847-HR"}, {"type": "UIC8", "value": "87678847"}, {"type": "external_code", "value": "OCE87678847"}], "name": "Geispolsheim Cts Gare", "links": [], "coord": {"lat": "48.5196", "lon": "7.684047"}, "label": "Geispolsheim Cts Gare (Geispolsheim)", "administrative_regions": [{"insee": "67152", "name": "Geispolsheim", "level": 8, "coord": {"lat": "48.5146952", "lon": "7.6437386"}, "label": "Geispolsheim (67118)", "id": "admin:fr:67152", "zip_code": "67118"}], "timezone": "Europe/Paris", "id": "stop_area:OCE:SA:87678847"}, {"codes": [{"type": "CR-CI-CH", "value": "0087-713842-00"}, {"type": "CR-CI-CH", "value": "0087-713842-00"}, {"type": "UIC8", "value": "87713842"}, {"type": "external_code", "value": "OCE87713842"}], "name": "Gemeaux", "links": [], "coord": {"lat": "47.477803", "lon": "5.130078"}, "label": "Gemeaux (Gemeaux)", "administrative_regions": [{"insee": "21290", "name": "Gemeaux", "level": 8, "coord": {"lat": "47.477696", "lon": "5.1344937"}, "label": "Gemeaux (21120)", "id": "admin:fr:21290", "zip_code": "21120"}], "timezone": "Europe/Paris", "id": "stop_area:OCE:SA:87713842"}, {"codes": [{"type": "CR-CI-CH", "value": "0087-713313-BV"}, {"type": "CR-CI-CH", "value": "0087-713313-BV"}, {"type": "UIC8", "value": "87713313"}, {"type": "external_code", "value": "OCE87713313"}], "name": "Genlis", "links": [], "coord": {"lat": "47.244309", "lon": "5.22378"}, "label": "Genlis (Genlis)", "administrative_regions": [{"insee": "21292", "name": "Genlis", "level": 8, "coord": {"lat": "47.241208", "lon": "5.221361"}, "label": "Genlis (21110)", "id": "admin:fr:21292", "zip_code": "21110"}], "timezone": "Europe/Paris", "id": "stop_area:OCE:SA:87713313"}, {"codes": [{"type": "CR-CI-CH", "value": "0087-271205-BV"}, {"type": "CR-CI-CH", "value": "0087-271205-BV"}, {"type": "UIC8", "value": "87271205"}, {"type": "external_code", "value": "OCE87271205"}], "name": "Gennevilliers", "links": [], "coord": {"lat": "48.933339", "lon": "2.307628"}, "label": "Gennevilliers (Gennevilliers)", "administrative_regions": [{"insee": "92036", "name": "Gennevilliers", "level": 8, "coord": {"lat": "48.9254221", "lon": "2.2940122"}, "label": "Gennevilliers (92230)", "id": "admin:fr:92036", "zip_code": "92230"}], "timezone": "Europe/Paris", "id": "stop_area:OCE:SA:87271205"}, {"codes": [{"type": "CR-CI-CH", "value": "0085-010215-BV"}, {"type": "UIC8", "value": "85010215"}, {"type": "external_code", "value": "OCE85010215"}], "name": "Genthod-Bellevue", "links": [], "coord": {"lat": "46.256727", "lon": "6.153964"}, "label": "Genthod-Bellevue (Genthod)", "administrative_regions": [{"insee": "", "name": "Genthod", "level": 8, "coord": {"lat": "46.2635931913", "lon": "6.16174105929456"}, "label": "Genthod (1294)", "id": "admin:osm:relation:1685487", "zip_code": "1294"}], "timezone": "Europe/Paris", "id": "stop_area:OCE:SA:85010215"}, {"codes": [{"type": "CR-CI-CH", "value": "0087-758656-00"}, {"type": "CR-CI-CH", "value": "0087-758656-00"}, {"type": "UIC8", "value": "87758656"}, {"type": "external_code", "value": "OCE87758656"}], "name": "Gentilly", "links": [], "coord": {"lat": "48.815547", "lon": "2.340861"}, "label": "Gentilly (Gentilly)", "administrative_regions": [{"insee": "94037", "name": "Gentilly", "level": 8, "coord": {"lat": "48.8153095", "lon": "2.3480887"}, "label": "Gentilly (94250)", "id": "admin:fr:94037", "zip_code": "94250"}], "timezone": "Europe/Paris", "id": "stop_area:OCE:SA:87758656"}, {"codes": [{"type": "CR-CI-CH", "value": "0085-010082-BV"}, {"type": "CR-CI-CH", "value": "0085-010082-BV"}, {"type": "UIC8", "value": "85010082"}, {"type": "external_code", "value": "OCE85010082"}], "name": "Gen\u00e8ve", "links": [], "coord": {"lat": "46.210558", "lon": "6.143155"}, "label": "Gen\u00e8ve (Gen\u00e8ve)", "administrative_regions": [{"insee": "", "name": "Gen\u00e8ve", "level": 8, "coord": {"lat": "46.2017559", "lon": "6.1466014"}, "label": "Gen\u00e8ve", "id": "admin:osm:relation:1685488", "zip_code": ""}], "timezone": "Europe/Paris", "id": "stop_area:OCE:SA:85010082"}, {"codes": [{"type": "CR-CI-CH", "value": "0085-162735-BV"}, {"type": "UIC8", "value": "85162735"}, {"type": "external_code", "value": "OCE85162735"}], "name": "Gen\u00e8ve Eaux-Vives", "links": [], "coord": {"lat": "46.201444", "lon": "6.166583"}, "label": "Gen\u00e8ve Eaux-Vives (Gen\u00e8ve)", "administrative_regions": [{"insee": "", "name": "Gen\u00e8ve", "level": 8, "coord": {"lat": "46.2017559", "lon": "6.1466014"}, "label": "Gen\u00e8ve", "id": "admin:osm:relation:1685488", "zip_code": ""}], "timezone": "Europe/Paris", "id": "stop_area:OCE:SA:85162735"}, {"codes": [{"type": "CR-CI-CH", "value": "0085-162727-BV"}, {"type": "UIC8", "value": "85162727"}, {"type": "external_code", "value": "OCE85162727"}], "name": "Gen\u00e8ve-Champel", "links": [], "coord": {"lat": "46.192166", "lon": "6.15326"}, "label": "Gen\u00e8ve-Champel (Gen\u00e8ve)", "administrative_regions": [{"insee": "", "name": "Gen\u00e8ve", "level": 8, "coord": {"lat": "46.2017559", "lon": "6.1466014"}, "label": "Gen\u00e8ve", "id": "admin:osm:relation:1685488", "zip_code": ""}], "timezone": "Europe/Paris", "id": "stop_area:OCE:SA:85162727"}, {"codes": [{"type": "CR-CI-CH", "value": "0085-162834-BV"}, {"type": "UIC8", "value": "85162834"}, {"type": "external_code", "value": "OCE85162834"}], "name": "Gen\u00e8ve-S\u00e9cheron", "links": [], "coord": {"lat": "46.222436", "lon": "6.144555"}, "label": "Gen\u00e8ve-S\u00e9cheron (Gen\u00e8ve)", "administrative_regions": [{"insee": "", "name": "Gen\u00e8ve", "level": 8, "coord": {"lat": "46.2017559", "lon": "6.1466014"}, "label": "Gen\u00e8ve", "id": "admin:osm:relation:1685488", "zip_code": ""}], "timezone": "Europe/Paris", "id": "stop_area:OCE:SA:85162834"}, {"codes": [{"type": "CR-CI-CH", "value": "0087-659094-HR"}, {"type": "CR-CI-CH", "value": "0087-659094-HR"}, {"type": "UIC8", "value": "87659094"}, {"type": "external_code", "value": "OCE87659094"}], "name": "Gerbeviller-Barbe", "links": [], "coord": {"lat": "48.496204", "lon": "6.509128"}, "label": "Gerbeviller-Barbe (Gerb\u00e9viller)", "administrative_regions": [{"insee": "54222", "name": "Gerb\u00e9viller", "level": 8, "coord": {"lat": "48.4955", "lon": "6.5104"}, "label": "Gerb\u00e9viller (54830)", "id": "admin:fr:54222", "zip_code": "54830"}], "timezone": "Europe/Paris", "id": "stop_area:OCE:SA:87659094"}, {"codes": [{"type": "CR-CI-CH", "value": "0087-476788-HR"}, {"type": "CR-CI-CH", "value": "0087-476788-HR"}, {"type": "UIC8", "value": "87476788"}, {"type": "external_code", "value": "OCE87476788"}], "name": "Gerbeviller-Foch", "links": [], "coord": {"lat": "48.502221", "lon": "6.5103"}, "label": "Gerbeviller-Foch (Gerb\u00e9viller)", "administrative_regions": [{"insee": "54222", "name": "Gerb\u00e9viller", "level": 8, "coord": {"lat": "48.4955", "lon": "6.5104"}, "label": "Gerb\u00e9viller (54830)", "id": "admin:fr:54222", "zip_code": "54830"}], "timezone": "Europe/Paris", "id": "stop_area:OCE:SA:87476788"}, {"codes": [{"type": "CR-CI-CH", "value": "0087-141234-00"}, {"type": "CR-CI-CH", "value": "0087-141234-00"}, {"type": "UIC8", "value": "87141234"}, {"type": "external_code", "value": "OCE87141234"}], "name": "Gerb\u00e9viller", "links": [], "coord": {"lat": "48.497216", "lon": "6.51055"}, "label": "Gerb\u00e9viller (Gerb\u00e9viller)", "administrative_regions": [{"insee": "54222", "name": "Gerb\u00e9viller", "level": 8, "coord": {"lat": "48.4955", "lon": "6.5104"}, "label": "Gerb\u00e9viller (54830)", "id": "admin:fr:54222", "zip_code": "54830"}], "timezone": "Europe/Paris", "id": "stop_area:OCE:SA:87141234"}, {"codes": [{"type": "CR-CI-CH", "value": "0087-405621-00"}, {"type": "CR-CI-CH", "value": "0087-405621-00"}, {"type": "UIC8", "value": "87405621"}, {"type": "external_code", "value": "OCE87405621"}], "name": "Gerb\u00e9viller (Rue Gambet", "links": [], "coord": {"lat": "48.500221", "lon": "6.512376"}, "label": "Gerb\u00e9viller (Rue Gambet (Gerb\u00e9viller)", "administrative_regions": [{"insee": "54222", "name": "Gerb\u00e9viller", "level": 8, "coord": {"lat": "48.4955", "lon": "6.5104"}, "label": "Gerb\u00e9viller (54830)", "id": "admin:fr:54222", "zip_code": "54830"}], "timezone": "Europe/Paris", "id": "stop_area:OCE:SA:87405621"}, {"codes": [{"type": "CR-CI-CH", "value": "0087-171587-BV"}, {"type": "CR-CI-CH", "value": "0087-171587-BV"}, {"type": "UIC8", "value": "87171587"}, {"type": "external_code", "value": "OCE87171587"}], "name": "Germaine", "links": [], "coord": {"lat": "49.127942", "lon": "4.022495"}, "label": "Germaine (Germaine)", "administrative_regions": [{"insee": "51266", "name": "Germaine", "level": 8, "coord": {"lat": "49.1133923", "lon": "4.0300039"}, "label": "Germaine (51160)", "id": "admin:fr:51266", "zip_code": "51160"}], "timezone": "Europe/Paris", "id": "stop_area:OCE:SA:87171587"}, {"codes": [{"type": "CR-CI-CH", "value": "0087-214254-00"}, {"type": "CR-CI-CH", "value": "0087-214254-00"}, {"type": "UIC8", "value": "87214254"}, {"type": "external_code", "value": "OCE87214254"}], "name": "Gertwiller", "links": [], "coord": {"lat": "48.413295", "lon": "7.465911"}, "label": "Gertwiller (Gertwiller)", "administrative_regions": [{"insee": "67155", "name": "Gertwiller", "level": 8, "coord": {"lat": "48.4111648", "lon": "7.4676526"}, "label": "Gertwiller (67140)", "id": "admin:fr:67155", "zip_code": "67140"}], "timezone": "Europe/Paris", "id": "stop_area:OCE:SA:87214254"}, {"codes": [{"type": "CR-CI-CH", "value": "0087-734046-00"}, {"type": "CR-CI-CH", "value": "0087-734046-00"}, {"type": "UIC8", "value": "87734046"}, {"type": "external_code", "value": "OCE87734046"}], "name": "Gerzat", "links": [], "coord": {"lat": "45.833317", "lon": "3.143098"}, "label": "Gerzat (Gerzat)", "administrative_regions": [{"insee": "63164", "name": "Gerzat", "level": 8, "coord": {"lat": "45.8250404", "lon": "3.1435185"}, "label": "Gerzat (63360)", "id": "admin:fr:63164", "zip_code": "63360"}], "timezone": "Europe/Paris", "id": "stop_area:OCE:SA:87734046"}]}