{"pagination": {"start_page": 123, "items_on_page": 25, "items_per_page": 25, "total_result": 4343}, "links": [{"href": "https://api.sncf.com/v1/coverage/sncf/stop_areas/{stop_areas.id}", "type": "stop_areas", "rel": "stop_areas", "templated": true}, {"href": "https://api.sncf.com/v1/coverage/sncf/stop_areas/{stop_areas.id}/route_schedules", "type": "route_schedules", "rel": "route_schedules", "templated": true}, {"href": "https://api.sncf.com/v1/coverage/sncf/stop_areas/{stop_areas.id}/stop_schedules", "type": "stop_schedules", "rel": "stop_schedules", "templated": true}, {"href": "https://api.sncf.com/v1/coverage/sncf/stop_areas/{stop_areas.id}/arrivals", "type": "arrivals", "rel": "arrivals", "templated": true}, {"href": "https://api.sncf.com/v1/coverage/sncf/stop_areas/{stop_areas.id}/departures", "type": "departures", "rel": "departures", "templated": true}, {"href": "https://api.sncf.com/v1/coverage/sncf/stop_areas/{stop_areas.id}/places_nearby", "type": "places_nearby", "rel": "places_nearby", "templated": true}, {"href": "https://api.sncf.com/v1/coverage/sncf/stop_areas/{stop_areas.id}/journeys", "type": "journey", "rel": "journeys", "templated": true}, {"href": "https://api.sncf.com/v1/coverage/sncf/stop_areas/{stop_areas.id}/traffic_reports", "type": "disruption", "rel": "disruptions", "templated": true}, {"href": "https://api.sncf.com/v1/coverage/sncf/stop_areas?start_page=122", "type": "previous", "templated": false}, {"href": "https://api.sncf.com/v1/coverage/sncf/stop_areas?start_page=124", "type": "next", "templated": false}, {"href": "https://api.sncf.com/v1/coverage/sncf/stop_areas?start_page=173", "type": "last", "templated": false}, {"href": "https://api.sncf.com/v1/coverage/sncf/stop_areas", "type": "first", "templated": false}], "disruptions": [], "feed_publishers": [], "context": {"timezone": "Europe/Paris", "current_datetime": "20200210T135445"}, "stop_areas": [{"codes": [{"type": "CR-CI-CH", "value": "0087-409425-00"}, {"type": "CR-CI-CH", "value": "0087-409425-00"}, {"type": "UIC8", "value": "87409425"}, {"type": "external_code", "value": "OCE87409425"}], "name": "Pontgibaud-Ville", "links": [], "coord": {"lat": "45.832268", "lon": "2.851228"}, "label": "Pontgibaud-Ville (Pontgibaud)", "administrative_regions": [{"insee": "63285", "name": "Pontgibaud", "level": 8, "coord": {"lat": "45.8326833", "lon": "2.8517658"}, "label": "Pontgibaud (63230)", "id": "admin:fr:63285", "zip_code": "63230"}], "timezone": "Europe/Paris", "id": "stop_area:OCE:SA:87409425"}, {"codes": [{"type": "CR-CI-CH", "value": "0087-394247-00"}, {"type": "CR-CI-CH", "value": "0087-394247-00"}, {"type": "UIC8", "value": "87394247"}, {"type": "external_code", "value": "OCE87394247"}], "name": "Pontgouin", "links": [], "coord": {"lat": "48.477854", "lon": "1.141446"}, "label": "Pontgouin (Pontgouin)", "administrative_regions": [{"insee": "28302", "name": "Pontgouin", "level": 8, "coord": {"lat": "48.4815953", "lon": "1.160981"}, "label": "Pontgouin (28190)", "id": "admin:fr:28302", "zip_code": "28190"}], "timezone": "Europe/Paris", "id": "stop_area:OCE:SA:87394247"}, {"codes": [{"type": "CR-CI-CH", "value": "0087-682526-00"}, {"type": "CR-CI-CH", "value": "0087-682526-00"}, {"type": "UIC8", "value": "87682526"}, {"type": "external_code", "value": "OCE87682526"}], "name": "Ponthierry-Pringy", "links": [], "coord": {"lat": "48.535007", "lon": "2.544602"}, "label": "Ponthierry-Pringy (Saint-Fargeau-Ponthierry)", "administrative_regions": [{"insee": "77407", "name": "Saint-Fargeau-Ponthierry", "level": 8, "coord": {"lat": "48.5361215", "lon": "2.5273471"}, "label": "Saint-Fargeau-Ponthierry (77310)", "id": "admin:fr:77407", "zip_code": "77310"}], "timezone": "Europe/Paris", "id": "stop_area:OCE:SA:87682526"}, {"codes": [{"type": "CR-CI-CH", "value": "0087-734103-00"}, {"type": "CR-CI-CH", "value": "0087-734103-00"}, {"type": "UIC8", "value": "87734103"}, {"type": "external_code", "value": "OCE87734103"}], "name": "Pontmort", "links": [], "coord": {"lat": "45.939487", "lon": "3.160301"}, "label": "Pontmort (Chambaron-sur-Morge)", "administrative_regions": [{"insee": "63244", "name": "Chambaron-sur-Morge", "level": 8, "coord": {"lat": "45.9681", "lon": "3.1614"}, "label": "Chambaron-sur-Morge (63200)", "id": "admin:fr:63244", "zip_code": "63200"}], "timezone": "Europe/Paris", "id": "stop_area:OCE:SA:87734103"}, {"codes": [{"type": "CR-CI-CH", "value": "0087-409417-00"}, {"type": "CR-CI-CH", "value": "0087-409417-00"}, {"type": "UIC8", "value": "87409417"}, {"type": "external_code", "value": "OCE87409417"}], "name": "Pontmort RN9/D17", "links": [], "coord": {"lat": "45.943802", "lon": "3.166905"}, "label": "Pontmort RN9/D17 (Chambaron-sur-Morge)", "administrative_regions": [{"insee": "63244", "name": "Chambaron-sur-Morge", "level": 8, "coord": {"lat": "45.9681", "lon": "3.1614"}, "label": "Chambaron-sur-Morge (63200)", "id": "admin:fr:63244", "zip_code": "63200"}], "timezone": "Europe/Paris", "id": "stop_area:OCE:SA:87409417"}, {"codes": [{"type": "CR-CI-CH", "value": "0087-276139-BV"}, {"type": "CR-CI-CH", "value": "0087-276139-BV"}, {"type": "UIC8", "value": "87276139"}, {"type": "external_code", "value": "OCE87276139"}], "name": "Pontoise", "links": [], "coord": {"lat": "49.047019", "lon": "2.095331"}, "label": "Pontoise (Pontoise)", "administrative_regions": [{"insee": "95500", "name": "Pontoise", "level": 8, "coord": {"lat": "49.0508845", "lon": "2.1008067"}, "label": "Pontoise (95300)", "id": "admin:fr:95500", "zip_code": "95300"}], "timezone": "Europe/Paris", "id": "stop_area:OCE:SA:87276139"}, {"codes": [{"type": "CR-CI-CH", "value": "0087-478263-00"}, {"type": "CR-CI-CH", "value": "0087-478263-00"}, {"type": "UIC8", "value": "87478263"}, {"type": "external_code", "value": "OCE87478263"}], "name": "Pontorson-Mt-St-Michel", "links": [], "coord": {"lat": "48.552444", "lon": "-1.505068"}, "label": "Pontorson-Mt-St-Michel (Pontorson)", "administrative_regions": [{"insee": "50410", "name": "Pontorson", "level": 8, "coord": {"lat": "48.5546677", "lon": "-1.5097775"}, "label": "Pontorson", "id": "admin:fr:50410", "zip_code": ""}], "timezone": "Europe/Paris", "id": "stop_area:OCE:SA:87478263"}, {"codes": [{"type": "CR-CI-CH", "value": "0087-473843-00"}, {"type": "CR-CI-CH", "value": "0087-473843-00"}, {"type": "UIC8", "value": "87473843"}, {"type": "external_code", "value": "OCE87473843"}], "name": "Pontrieux", "links": [], "coord": {"lat": "48.705577", "lon": "-3.156709"}, "label": "Pontrieux (Pontrieux)", "administrative_regions": [{"insee": "22250", "name": "Pontrieux", "level": 8, "coord": {"lat": "48.6972419", "lon": "-3.1629787"}, "label": "Pontrieux (22260)", "id": "admin:fr:22250", "zip_code": "22260"}], "timezone": "Europe/Paris", "id": "stop_area:OCE:SA:87473843"}, {"codes": [{"type": "CR-CI-CH", "value": "0087-473835-00"}, {"type": "CR-CI-CH", "value": "0087-473835-00"}, {"type": "UIC8", "value": "87473835"}, {"type": "external_code", "value": "OCE87473835"}], "name": "Pontrieux (Halte)", "links": [], "coord": {"lat": "48.698004", "lon": "-3.164374"}, "label": "Pontrieux (Halte) (Pontrieux)", "administrative_regions": [{"insee": "22250", "name": "Pontrieux", "level": 8, "coord": {"lat": "48.6972419", "lon": "-3.1629787"}, "label": "Pontrieux (22260)", "id": "admin:fr:22250", "zip_code": "22260"}], "timezone": "Europe/Paris", "id": "stop_area:OCE:SA:87473835"}, {"codes": [{"type": "CR-CI-CH", "value": "0087-393165-00"}, {"type": "CR-CI-CH", "value": "0087-393165-00"}, {"type": "UIC8", "value": "87393165"}, {"type": "external_code", "value": "OCE87393165"}], "name": "Porchefontaine", "links": [], "coord": {"lat": "48.796872", "lon": "2.153703"}, "label": "Porchefontaine (Versailles)", "administrative_regions": [{"insee": "78646", "name": "Versailles", "level": 8, "coord": {"lat": "48.8035403", "lon": "2.1266886"}, "label": "Versailles (78000)", "id": "admin:fr:78646", "zip_code": "78000"}], "timezone": "Europe/Paris", "id": "stop_area:OCE:SA:87393165"}, {"codes": [{"type": "CR-CI-CH", "value": "0087-481283-00"}, {"type": "CR-CI-CH", "value": "0087-481283-00"}, {"type": "UIC8", "value": "87481283"}, {"type": "external_code", "value": "OCE87481283"}], "name": "Pornic", "links": [], "coord": {"lat": "47.114495", "lon": "-2.097789"}, "label": "Pornic (Pornic)", "administrative_regions": [{"insee": "44131", "name": "Pornic", "level": 8, "coord": {"lat": "47.1152695", "lon": "-2.1040102"}, "label": "Pornic (44210)", "id": "admin:fr:44131", "zip_code": "44210"}], "timezone": "Europe/Paris", "id": "stop_area:OCE:SA:87481283"}, {"codes": [{"type": "CR-CI-CH", "value": "0087-481747-00"}, {"type": "CR-CI-CH", "value": "0087-481747-00"}, {"type": "UIC8", "value": "87481747"}, {"type": "external_code", "value": "OCE87481747"}], "name": "Pornichet", "links": [], "coord": {"lat": "47.270485", "lon": "-2.344737"}, "label": "Pornichet (Pornichet)", "administrative_regions": [{"insee": "44132", "name": "Pornichet", "level": 8, "coord": {"lat": "47.2613293", "lon": "-2.3364238"}, "label": "Pornichet (44380)", "id": "admin:fr:44132", "zip_code": "44380"}], "timezone": "Europe/Paris", "id": "stop_area:OCE:SA:87481747"}, {"codes": [{"type": "CR-CI-CH", "value": "0085-001263-00"}, {"type": "CR-CI-CH", "value": "0085-001263-00"}, {"type": "UIC8", "value": "85001263"}, {"type": "external_code", "value": "OCE85001263"}], "name": "Porrentruy", "links": [], "coord": {"lat": "47.421042", "lon": "7.080091"}, "label": "Porrentruy (Porrentruy)", "administrative_regions": [{"insee": "", "name": "Porrentruy", "level": 8, "coord": {"lat": "47.4212971963229", "lon": "7.07098668922302"}, "label": "Porrentruy", "id": "admin:osm:relation:1685622", "zip_code": ""}], "timezone": "Europe/Paris", "id": "stop_area:OCE:SA:85001263"}, {"codes": [{"type": "CR-CI-CH", "value": "0071-793158-BV"}, {"type": "CR-CI-CH", "value": "0071-793158-BV"}, {"type": "CR-CI-CH", "value": "0087-785956-BV"}, {"type": "CR-CI-CH", "value": "0087-785956-WE"}, {"type": "UIC8", "value": "71793150"}, {"type": "external_code", "value": "OCE71793150"}], "name": "Port-Bou", "links": [], "coord": {"lat": "42.424471", "lon": "3.157848"}, "label": "Port-Bou (Portbou)", "administrative_regions": [{"insee": "", "name": "Portbou", "level": 8, "coord": {"lat": "42.4274333", "lon": "3.1588785"}, "label": "Portbou", "id": "admin:osm:relation:345217", "zip_code": ""}], "timezone": "Europe/Paris", "id": "stop_area:OCE:SA:71793150"}, {"codes": [{"type": "CR-CI-CH", "value": "0087-571794-00"}, {"type": "CR-CI-CH", "value": "0087-571794-00"}, {"type": "UIC8", "value": "87571794"}, {"type": "external_code", "value": "OCE87571794"}], "name": "Port-Boulet", "links": [], "coord": {"lat": "47.248527", "lon": "0.154869"}, "label": "Port-Boulet (Chouz\u00e9-sur-Loire)", "administrative_regions": [{"insee": "37074", "name": "Chouz\u00e9-sur-Loire", "level": 8, "coord": {"lat": "47.2439", "lon": "0.109958"}, "label": "Chouz\u00e9-sur-Loire (37140)", "id": "admin:fr:37074", "zip_code": "37140"}], "timezone": "Europe/Paris", "id": "stop_area:OCE:SA:87571794"}, {"codes": [{"type": "CR-CI-CH", "value": "0087-478750-00"}, {"type": "CR-CI-CH", "value": "0087-478750-00"}, {"type": "UIC8", "value": "87478750"}, {"type": "external_code", "value": "OCE87478750"}], "name": "Port-Brillet", "links": [], "coord": {"lat": "48.110739", "lon": "-0.973978"}, "label": "Port-Brillet (Port-Brillet)", "administrative_regions": [{"insee": "53182", "name": "Port-Brillet", "level": 8, "coord": {"lat": "48.1126614", "lon": "-0.9715748"}, "label": "Port-Brillet (53410)", "id": "admin:fr:53182", "zip_code": "53410"}], "timezone": "Europe/Paris", "id": "stop_area:OCE:SA:87478750"}, {"codes": [{"type": "CR-CI-CH", "value": "0087-758623-00"}, {"type": "CR-CI-CH", "value": "0087-758623-00"}, {"type": "UIC8", "value": "87758623"}, {"type": "external_code", "value": "OCE87758623"}], "name": "Port-Royal", "links": [], "coord": {"lat": "48.839831", "lon": "2.336669"}, "label": "Port-Royal (Paris)", "administrative_regions": [{"insee": "75056", "name": "Paris", "level": 8, "coord": {"lat": "48.8566969", "lon": "2.3514616"}, "label": "Paris (75000-75116)", "id": "admin:fr:75056", "zip_code": "75000;75116"}], "timezone": "Europe/Paris", "id": "stop_area:OCE:SA:87758623"}, {"codes": [{"type": "CR-CI-CH", "value": "0087-481218-00"}, {"type": "CR-CI-CH", "value": "0087-481218-00"}, {"type": "UIC8", "value": "87481218"}, {"type": "external_code", "value": "OCE87481218"}], "name": "Port-St-P\u00e8re-St-M.", "links": [], "coord": {"lat": "47.116495", "lon": "-1.739351"}, "label": "Port-St-P\u00e8re-St-M. (Port-Saint-P\u00e8re)", "administrative_regions": [{"insee": "44133", "name": "Port-Saint-P\u00e8re", "level": 8, "coord": {"lat": "47.1327853", "lon": "-1.749713"}, "label": "Port-Saint-P\u00e8re (44710)", "id": "admin:fr:44133", "zip_code": "44710"}], "timezone": "Europe/Paris", "id": "stop_area:OCE:SA:87481218"}, {"codes": [{"type": "CR-CI-CH", "value": "0087-586107-BV"}, {"type": "CR-CI-CH", "value": "0087-586107-BV"}, {"type": "UIC8", "value": "87586107"}, {"type": "external_code", "value": "OCE87586107"}], "name": "Port-Ste-Marie", "links": [], "coord": {"lat": "44.250364", "lon": "0.39031"}, "label": "Port-Ste-Marie (Port-Sainte-Marie)", "administrative_regions": [{"insee": "47210", "name": "Port-Sainte-Marie", "level": 8, "coord": {"lat": "44.250462", "lon": "0.3990057"}, "label": "Port-Sainte-Marie (47130)", "id": "admin:fr:47210", "zip_code": "47130"}], "timezone": "Europe/Paris", "id": "stop_area:OCE:SA:87586107"}, {"codes": [{"type": "CR-CI-CH", "value": "0087-784264-BV"}, {"type": "CR-CI-CH", "value": "0087-784264-BV"}, {"type": "UIC8", "value": "87784264"}, {"type": "external_code", "value": "OCE87784264"}], "name": "Port-Vendres", "links": [], "coord": {"lat": "42.513381", "lon": "3.102386"}, "label": "Port-Vendres (Port-Vendres)", "administrative_regions": [{"insee": "66148", "name": "Port-Vendres", "level": 8, "coord": {"lat": "42.5204146", "lon": "3.1056167"}, "label": "Port-Vendres (66660)", "id": "admin:fr:66148", "zip_code": "66660"}], "timezone": "Europe/Paris", "id": "stop_area:OCE:SA:87784264"}, {"codes": [{"type": "CR-CI-CH", "value": "0087-753459-BV"}, {"type": "CR-CI-CH", "value": "0087-753459-BV"}, {"type": "UIC8", "value": "87753459"}, {"type": "external_code", "value": "OCE87753459"}], "name": "Port-de-Bouc", "links": [], "coord": {"lat": "43.407145", "lon": "4.984603"}, "label": "Port-de-Bouc (Port-de-Bouc)", "administrative_regions": [{"insee": "13077", "name": "Port-de-Bouc", "level": 8, "coord": {"lat": "43.403098", "lon": "4.9806998"}, "label": "Port-de-Bouc (13110)", "id": "admin:fr:13077", "zip_code": "13110"}], "timezone": "Europe/Paris", "id": "stop_area:OCE:SA:87753459"}, {"codes": [{"type": "CR-CI-CH", "value": "0087-575076-BV"}, {"type": "CR-CI-CH", "value": "0087-575076-BV"}, {"type": "UIC8", "value": "87575076"}, {"type": "external_code", "value": "OCE87575076"}], "name": "Port-de-Piles", "links": [], "coord": {"lat": "47.010147", "lon": "0.598559"}, "label": "Port-de-Piles (La Celle-Saint-Avant)", "administrative_regions": [{"insee": "37045", "name": "La Celle-Saint-Avant", "level": 8, "coord": {"lat": "47.0218603", "lon": "0.6039529"}, "label": "La Celle-Saint-Avant (37160)", "id": "admin:fr:37045", "zip_code": "37160"}], "timezone": "Europe/Paris", "id": "stop_area:OCE:SA:87575076"}, {"codes": [{"type": "CR-CI-CH", "value": "0087-781062-BV"}, {"type": "CR-CI-CH", "value": "0087-781062-BV"}, {"type": "UIC8", "value": "87781062"}, {"type": "external_code", "value": "OCE87781062"}], "name": "Port-la-Nouvelle", "links": [], "coord": {"lat": "43.020864", "lon": "3.038805"}, "label": "Port-la-Nouvelle (Port-la-Nouvelle)", "administrative_regions": [{"insee": "11266", "name": "Port-la-Nouvelle", "level": 8, "coord": {"lat": "43.0203536", "lon": "3.046461"}, "label": "Port-la-Nouvelle (11210)", "id": "admin:fr:11266", "zip_code": "11210"}], "timezone": "Europe/Paris", "id": "stop_area:OCE:SA:87781062"}, {"codes": [{"type": "CR-CI-CH", "value": "0087-611491-00"}, {"type": "CR-CI-CH", "value": "0087-611491-00"}, {"type": "UIC8", "value": "87611491"}, {"type": "external_code", "value": "OCE87611491"}], "name": "Porta", "links": [], "coord": {"lat": "0", "lon": "0"}, "label": "Porta", "timezone": "Europe/Paris", "id": "stop_area:OCE:SA:87611491"}, {"codes": [{"type": "CR-CI-CH", "value": "0087-611509-00"}, {"type": "CR-CI-CH", "value": "0087-611509-00"}, {"type": "UIC8", "value": "87611509"}, {"type": "external_code", "value": "OCE87611509"}], "name": "Porte-Puymorens", "links": [], "coord": {"lat": "42.538759", "lon": "1.82485"}, "label": "Porte-Puymorens (Porta)", "administrative_regions": [{"insee": "66146", "name": "Porta", "level": 8, "coord": {"lat": "42.5260507", "lon": "1.8256362"}, "label": "Porta (66760)", "id": "admin:fr:66146", "zip_code": "66760"}], "timezone": "Europe/Paris", "id": "stop_area:OCE:SA:87611509"}]}