{"pagination": {"start_page": 154, "items_on_page": 25, "items_per_page": 25, "total_result": 4343}, "links": [{"href": "https://api.sncf.com/v1/coverage/sncf/stop_areas/{stop_areas.id}", "type": "stop_areas", "rel": "stop_areas", "templated": true}, {"href": "https://api.sncf.com/v1/coverage/sncf/stop_areas/{stop_areas.id}/route_schedules", "type": "route_schedules", "rel": "route_schedules", "templated": true}, {"href": "https://api.sncf.com/v1/coverage/sncf/stop_areas/{stop_areas.id}/stop_schedules", "type": "stop_schedules", "rel": "stop_schedules", "templated": true}, {"href": "https://api.sncf.com/v1/coverage/sncf/stop_areas/{stop_areas.id}/arrivals", "type": "arrivals", "rel": "arrivals", "templated": true}, {"href": "https://api.sncf.com/v1/coverage/sncf/stop_areas/{stop_areas.id}/departures", "type": "departures", "rel": "departures", "templated": true}, {"href": "https://api.sncf.com/v1/coverage/sncf/stop_areas/{stop_areas.id}/places_nearby", "type": "places_nearby", "rel": "places_nearby", "templated": true}, {"href": "https://api.sncf.com/v1/coverage/sncf/stop_areas/{stop_areas.id}/journeys", "type": "journey", "rel": "journeys", "templated": true}, {"href": "https://api.sncf.com/v1/coverage/sncf/stop_areas/{stop_areas.id}/traffic_reports", "type": "disruption", "rel": "disruptions", "templated": true}, {"href": "https://api.sncf.com/v1/coverage/sncf/stop_areas?start_page=153", "type": "previous", "templated": false}, {"href": "https://api.sncf.com/v1/coverage/sncf/stop_areas?start_page=155", "type": "next", "templated": false}, {"href": "https://api.sncf.com/v1/coverage/sncf/stop_areas?start_page=173", "type": "last", "templated": false}, {"href": "https://api.sncf.com/v1/coverage/sncf/stop_areas", "type": "first", "templated": false}], "disruptions": [], "feed_publishers": [], "context": {"timezone": "Europe/Paris", "current_datetime": "20200210T135449"}, "stop_areas": [{"codes": [{"type": "CR-CI-CH", "value": "0087-286203-00"}, {"type": "CR-CI-CH", "value": "0087-286203-00"}, {"type": "UIC8", "value": "87286203"}, {"type": "external_code", "value": "OCE87286203"}], "name": "Strazeele", "links": [], "coord": {"lat": "50.713446", "lon": "2.630871"}, "label": "Strazeele (Strazeele)", "administrative_regions": [{"insee": "59582", "name": "Strazeele", "level": 8, "coord": {"lat": "50.7269314", "lon": "2.6322141"}, "label": "Strazeele (59270)", "id": "admin:fr:59582", "zip_code": "59270"}], "timezone": "Europe/Paris", "id": "stop_area:OCE:SA:87286203"}, {"codes": [{"type": "CR-CI-CH", "value": "0080-290346-BV"}, {"type": "CR-CI-CH", "value": "0080-290346-BV"}, {"type": "UIC8", "value": "80290346"}, {"type": "external_code", "value": "OCE80290346"}], "name": "Stuttgart", "links": [], "coord": {"lat": "48.783642", "lon": "9.180536"}, "label": "Stuttgart (Stuttgart)", "administrative_regions": [{"insee": "", "name": "Stuttgart", "level": 8, "coord": {"lat": "48.7784485", "lon": "9.180013199999999"}, "label": "Stuttgart", "id": "admin:osm:relation:2793104", "zip_code": ""}], "timezone": "Europe/Paris", "id": "stop_area:OCE:SA:80290346"}, {"codes": [{"type": "CR-CI-CH", "value": "0087-487264-HR"}, {"type": "CR-CI-CH", "value": "0087-487264-HR"}, {"type": "UIC8", "value": "87487264"}, {"type": "external_code", "value": "OCE87487264"}], "name": "Subdray-Lyc\u00e9e-Agricole", "links": [], "coord": {"lat": "47.021754", "lon": "2.293593"}, "label": "Subdray-Lyc\u00e9e-Agricole (Le Subdray)", "administrative_regions": [{"insee": "18255", "name": "Le Subdray", "level": 8, "coord": {"lat": "47.0097064", "lon": "2.2948268"}, "label": "Le Subdray (18570)", "id": "admin:fr:18255", "zip_code": "18570"}], "timezone": "Europe/Paris", "id": "stop_area:OCE:SA:87487264"}, {"codes": [{"type": "CR-CI-CH", "value": "0087-758193-00"}, {"type": "CR-CI-CH", "value": "0087-758193-00"}, {"type": "UIC8", "value": "87758193"}, {"type": "external_code", "value": "OCE87758193"}], "name": "Sucy-Bonneuil (RER A)", "links": [], "coord": {"lat": "48.770997", "lon": "2.508069"}, "label": "Sucy-Bonneuil (RER A) (Sucy-en-Brie)", "administrative_regions": [{"insee": "94071", "name": "Sucy-en-Brie", "level": 8, "coord": {"lat": "48.7711323", "lon": "2.5221284"}, "label": "Sucy-en-Brie (94370)", "id": "admin:fr:94071", "zip_code": "94370"}], "timezone": "Europe/Paris", "id": "stop_area:OCE:SA:87758193"}, {"codes": [{"type": "CR-CI-CH", "value": "0087-590828-00"}, {"type": "CR-CI-CH", "value": "0087-590828-00"}, {"type": "UIC8", "value": "87590828"}, {"type": "external_code", "value": "OCE87590828"}], "name": "Suc\u00e9-Sur-Erdre", "links": [], "coord": {"lat": "47.342958", "lon": "-1.530279"}, "label": "Suc\u00e9-Sur-Erdre (Suc\u00e9-sur-Erdre)", "administrative_regions": [{"insee": "44201", "name": "Suc\u00e9-sur-Erdre", "level": 8, "coord": {"lat": "47.341551", "lon": "-1.5285694"}, "label": "Suc\u00e9-sur-Erdre (44240)", "id": "admin:fr:44201", "zip_code": "44240"}], "timezone": "Europe/Paris", "id": "stop_area:OCE:SA:87590828"}, {"codes": [{"type": "CR-CI-CH", "value": "0087-635920-HR"}, {"type": "CR-CI-CH", "value": "0087-635920-HR"}, {"type": "UIC8", "value": "87635920"}, {"type": "external_code", "value": "OCE87635920"}], "name": "Suippes-Camp", "links": [], "coord": {"lat": "49.12225", "lon": "4.544657"}, "label": "Suippes-Camp (Suippes)", "administrative_regions": [{"insee": "51559", "name": "Suippes", "level": 8, "coord": {"lat": "49.1308493", "lon": "4.531783"}, "label": "Suippes (51600)", "id": "admin:fr:51559", "zip_code": "51600"}], "timezone": "Europe/Paris", "id": "stop_area:OCE:SA:87635920"}, {"codes": [{"type": "CR-CI-CH", "value": "0087-643197-HR"}, {"type": "CR-CI-CH", "value": "0087-643197-HR"}, {"type": "UIC8", "value": "87643197"}, {"type": "external_code", "value": "OCE87643197"}], "name": "Suippes-Ferme", "links": [], "coord": {"lat": "49.118975", "lon": "4.516812"}, "label": "Suippes-Ferme (Suippes)", "administrative_regions": [{"insee": "51559", "name": "Suippes", "level": 8, "coord": {"lat": "49.1308493", "lon": "4.531783"}, "label": "Suippes (51600)", "id": "admin:fr:51559", "zip_code": "51600"}], "timezone": "Europe/Paris", "id": "stop_area:OCE:SA:87643197"}, {"codes": [{"type": "CR-CI-CH", "value": "0087-640144-HR"}, {"type": "CR-CI-CH", "value": "0087-640144-HR"}, {"type": "UIC8", "value": "87640144"}, {"type": "external_code", "value": "OCE87640144"}], "name": "Suippes-Garage", "links": [], "coord": {"lat": "49.128118", "lon": "4.525609"}, "label": "Suippes-Garage (Suippes)", "administrative_regions": [{"insee": "51559", "name": "Suippes", "level": 8, "coord": {"lat": "49.1308493", "lon": "4.531783"}, "label": "Suippes (51600)", "id": "admin:fr:51559", "zip_code": "51600"}], "timezone": "Europe/Paris", "id": "stop_area:OCE:SA:87640144"}, {"codes": [{"type": "CR-CI-CH", "value": "0087-660050-HR"}, {"type": "CR-CI-CH", "value": "0087-660050-HR"}, {"type": "UIC8", "value": "87660050"}, {"type": "external_code", "value": "OCE87660050"}], "name": "Surbourg-St-Aboga.", "links": [], "coord": {"lat": "48.906924", "lon": "7.847097"}, "label": "Surbourg-St-Aboga. (Surbourg)", "administrative_regions": [{"insee": "67487", "name": "Surbourg", "level": 8, "coord": {"lat": "48.9090322", "lon": "7.8497513"}, "label": "Surbourg (67250)", "id": "admin:fr:67487", "zip_code": "67250"}], "timezone": "Europe/Paris", "id": "stop_area:OCE:SA:87660050"}, {"codes": [{"type": "CR-CI-CH", "value": "0087-444562-BV"}, {"type": "CR-CI-CH", "value": "0087-444562-BV"}, {"type": "UIC8", "value": "87444562"}, {"type": "external_code", "value": "OCE87444562"}], "name": "Surdon", "links": [], "coord": {"lat": "48.664901", "lon": "0.13413"}, "label": "Surdon (Le Ch\u00e2teau-d'Almen\u00eaches)", "administrative_regions": [{"insee": "61101", "name": "Le Ch\u00e2teau-d'Almen\u00eaches", "level": 8, "coord": {"lat": "48.6790476", "lon": "0.1219435"}, "label": "Le Ch\u00e2teau-d'Almen\u00eaches (61570)", "id": "admin:fr:61101", "zip_code": "61570"}], "timezone": "Europe/Paris", "id": "stop_area:OCE:SA:87444562"}, {"codes": [{"type": "CR-CI-CH", "value": "0087-382374-00"}, {"type": "CR-CI-CH", "value": "0087-382374-00"}, {"type": "UIC8", "value": "87382374"}, {"type": "external_code", "value": "OCE87382374"}], "name": "Suresnes-Mont-Val\u00e9rien", "links": [], "coord": {"lat": "48.871707", "lon": "2.221014"}, "label": "Suresnes-Mont-Val\u00e9rien (Suresnes)", "administrative_regions": [{"insee": "92073", "name": "Suresnes", "level": 8, "coord": {"lat": "48.8710147", "lon": "2.2252883"}, "label": "Suresnes (92150)", "id": "admin:fr:92073", "zip_code": "92150"}], "timezone": "Europe/Paris", "id": "stop_area:OCE:SA:87382374"}, {"codes": [{"type": "CR-CI-CH", "value": "0087-485227-BV"}, {"type": "CR-CI-CH", "value": "0087-485227-BV"}, {"type": "UIC8", "value": "87485227"}, {"type": "external_code", "value": "OCE87485227"}], "name": "Surg\u00e8res", "links": [], "coord": {"lat": "46.113416", "lon": "-0.7621329999999999"}, "label": "Surg\u00e8res (Surg\u00e8res)", "administrative_regions": [{"insee": "17434", "name": "Surg\u00e8res", "level": 8, "coord": {"lat": "46.1052715", "lon": "-0.7511152"}, "label": "Surg\u00e8res (17700)", "id": "admin:fr:17434", "zip_code": "17700"}], "timezone": "Europe/Paris", "id": "stop_area:OCE:SA:87485227"}, {"codes": [{"type": "CR-CI-CH", "value": "0087-216663-00"}, {"type": "CR-CI-CH", "value": "0087-216663-00"}, {"type": "UIC8", "value": "87216663"}, {"type": "external_code", "value": "OCE87216663"}], "name": "Surins-Carref-RN143", "links": [], "coord": {"lat": "46.829162", "lon": "1.564433"}, "label": "Surins-Carref-RN143 (Niherne)", "administrative_regions": [{"insee": "36142", "name": "Niherne", "level": 8, "coord": {"lat": "46.8288841", "lon": "1.5640575"}, "label": "Niherne (36250)", "id": "admin:fr:36142", "zip_code": "36250"}], "timezone": "Europe/Paris", "id": "stop_area:OCE:SA:87216663"}, {"codes": [{"type": "CR-CI-CH", "value": "0087-276261-00"}, {"type": "CR-CI-CH", "value": "0087-276261-00"}, {"type": "UIC8", "value": "87276261"}, {"type": "external_code", "value": "OCE87276261"}], "name": "Survilliers-Fosses", "links": [], "coord": {"lat": "49.099575", "lon": "2.525468"}, "label": "Survilliers-Fosses (Fosses)", "administrative_regions": [{"insee": "95250", "name": "Fosses", "level": 8, "coord": {"lat": "49.0986649", "lon": "2.5161998"}, "label": "Fosses (95470)", "id": "admin:fr:95250", "zip_code": "95470"}], "timezone": "Europe/Paris", "id": "stop_area:OCE:SA:87276261"}, {"codes": [{"type": "CR-CI-CH", "value": "0087-726422-00"}, {"type": "CR-CI-CH", "value": "0087-726422-00"}, {"type": "UIC8", "value": "87726422"}, {"type": "external_code", "value": "OCE87726422"}], "name": "Sury-le-Comtal", "links": [], "coord": {"lat": "45.529078", "lon": "4.182426"}, "label": "Sury-le-Comtal (Sury-le-Comtal)", "administrative_regions": [{"insee": "42304", "name": "Sury-le-Comtal", "level": 8, "coord": {"lat": "45.5414", "lon": "4.18354"}, "label": "Sury-le-Comtal (42450)", "id": "admin:fr:42304", "zip_code": "42450"}], "timezone": "Europe/Paris", "id": "stop_area:OCE:SA:87726422"}, {"codes": [{"type": "CR-CI-CH", "value": "0087-574236-00"}, {"type": "CR-CI-CH", "value": "0087-574236-00"}, {"type": "UIC8", "value": "87574236"}, {"type": "external_code", "value": "OCE87574236"}], "name": "Su\u00e8vres", "links": [], "coord": {"lat": "47.680561", "lon": "1.45477"}, "label": "Su\u00e8vres (Su\u00e8vres)", "administrative_regions": [{"insee": "41252", "name": "Su\u00e8vres", "level": 8, "coord": {"lat": "47.66564", "lon": "1.4596"}, "label": "Su\u00e8vres (41500)", "id": "admin:fr:41252", "zip_code": "41500"}], "timezone": "Europe/Paris", "id": "stop_area:OCE:SA:87574236"}, {"codes": [{"type": "CR-CI-CH", "value": "0087-640391-HR"}, {"type": "CR-CI-CH", "value": "0087-640391-HR"}, {"type": "UIC8", "value": "87640391"}, {"type": "external_code", "value": "OCE87640391"}], "name": "S\u00e8lestat-(Schwilgu\u00e9)", "links": [], "coord": {"lat": "48.253908", "lon": "7.4479"}, "label": "S\u00e8lestat-(Schwilgu\u00e9) (S\u00e9lestat)", "administrative_regions": [{"insee": "67462", "name": "S\u00e9lestat", "level": 8, "coord": {"lat": "48.2594396", "lon": "7.454217"}, "label": "S\u00e9lestat (67600)", "id": "admin:fr:67462", "zip_code": "67600"}], "timezone": "Europe/Paris", "id": "stop_area:OCE:SA:87640391"}, {"codes": [{"type": "CR-CI-CH", "value": "0087-773200-BV"}, {"type": "CR-CI-CH", "value": "0087-773200-BV"}, {"type": "UIC8", "value": "87773200"}, {"type": "external_code", "value": "OCE87773200"}], "name": "S\u00e8te", "links": [], "coord": {"lat": "43.412812", "lon": "3.696396"}, "label": "S\u00e8te (S\u00e8te)", "administrative_regions": [{"insee": "34301", "name": "S\u00e8te", "level": 8, "coord": {"lat": "43.4014434", "lon": "3.6959771"}, "label": "S\u00e8te (34200)", "id": "admin:fr:34301", "zip_code": "34200"}], "timezone": "Europe/Paris", "id": "stop_area:OCE:SA:87773200"}, {"codes": [{"type": "CR-CI-CH", "value": "0087-393124-00"}, {"type": "CR-CI-CH", "value": "0087-393124-00"}, {"type": "UIC8", "value": "87393124"}, {"type": "external_code", "value": "OCE87393124"}], "name": "S\u00e8vres-Rive-Gauche", "links": [], "coord": {"lat": "48.821307", "lon": "2.21458"}, "label": "S\u00e8vres-Rive-Gauche (S\u00e8vres)", "administrative_regions": [{"insee": "92072", "name": "S\u00e8vres", "level": 8, "coord": {"lat": "48.8247407", "lon": "2.2127083"}, "label": "S\u00e8vres (92310)", "id": "admin:fr:92072", "zip_code": "92310"}], "timezone": "Europe/Paris", "id": "stop_area:OCE:SA:87393124"}, {"codes": [{"type": "CR-CI-CH", "value": "0087-382341-00"}, {"type": "CR-CI-CH", "value": "0087-382341-00"}, {"type": "UIC8", "value": "87382341"}, {"type": "external_code", "value": "OCE87382341"}], "name": "S\u00e8vres-Ville-d'Avray", "links": [], "coord": {"lat": "48.827422", "lon": "2.200558"}, "label": "S\u00e8vres-Ville-d'Avray (S\u00e8vres)", "administrative_regions": [{"insee": "92072", "name": "S\u00e8vres", "level": 8, "coord": {"lat": "48.8247407", "lon": "2.2127083"}, "label": "S\u00e8vres (92310)", "id": "admin:fr:92072", "zip_code": "92310"}], "timezone": "Europe/Paris", "id": "stop_area:OCE:SA:87382341"}, {"codes": [{"type": "CR-CI-CH", "value": "0087-444695-00"}, {"type": "CR-CI-CH", "value": "0087-444695-00"}, {"type": "UIC8", "value": "87444695"}, {"type": "external_code", "value": "OCE87444695"}], "name": "S\u00e9es", "links": [], "coord": {"lat": "48.600161", "lon": "0.166112"}, "label": "S\u00e9es (S\u00e9es)", "administrative_regions": [{"insee": "61464", "name": "S\u00e9es", "level": 8, "coord": {"lat": "48.603378", "lon": "0.1734544"}, "label": "S\u00e9es (61500)", "id": "admin:fr:61464", "zip_code": "61500"}], "timezone": "Europe/Paris", "id": "stop_area:OCE:SA:87444695"}, {"codes": [{"type": "CR-CI-CH", "value": "0087-214056-00"}, {"type": "CR-CI-CH", "value": "0087-214056-00"}, {"type": "UIC8", "value": "87214056"}, {"type": "external_code", "value": "OCE87214056"}], "name": "S\u00e9lestat", "links": [], "coord": {"lat": "48.259638", "lon": "7.442103"}, "label": "S\u00e9lestat (S\u00e9lestat)", "administrative_regions": [{"insee": "67462", "name": "S\u00e9lestat", "level": 8, "coord": {"lat": "48.2594396", "lon": "7.454217"}, "label": "S\u00e9lestat (67600)", "id": "admin:fr:67462", "zip_code": "67600"}], "timezone": "Europe/Paris", "id": "stop_area:OCE:SA:87214056"}, {"codes": [{"type": "CR-CI-CH", "value": "0087-640375-HR"}, {"type": "CR-CI-CH", "value": "0087-640375-HR"}, {"type": "UIC8", "value": "87640375"}, {"type": "external_code", "value": "OCE87640375"}], "name": "S\u00e9lestat-(Schweisguth)", "links": [], "coord": {"lat": "48.261515", "lon": "7.450126"}, "label": "S\u00e9lestat-(Schweisguth) (S\u00e9lestat)", "administrative_regions": [{"insee": "67462", "name": "S\u00e9lestat", "level": 8, "coord": {"lat": "48.2594396", "lon": "7.454217"}, "label": "S\u00e9lestat (67600)", "id": "admin:fr:67462", "zip_code": "67600"}], "timezone": "Europe/Paris", "id": "stop_area:OCE:SA:87640375"}, {"codes": [{"type": "CR-CI-CH", "value": "0087-640409-HR"}, {"type": "CR-CI-CH", "value": "0087-640409-HR"}, {"type": "UIC8", "value": "87640409"}, {"type": "external_code", "value": "OCE87640409"}], "name": "S\u00e9lestat-R-S-Marie-/-Ms", "links": [], "coord": {"lat": "48.264183", "lon": "7.439739"}, "label": "S\u00e9lestat-R-S-Marie-/-Ms (S\u00e9lestat)", "administrative_regions": [{"insee": "67462", "name": "S\u00e9lestat", "level": 8, "coord": {"lat": "48.2594396", "lon": "7.454217"}, "label": "S\u00e9lestat (67600)", "id": "admin:fr:67462", "zip_code": "67600"}], "timezone": "Europe/Paris", "id": "stop_area:OCE:SA:87640409"}, {"codes": [{"type": "CR-CI-CH", "value": "0087-753715-00"}, {"type": "CR-CI-CH", "value": "0087-753715-00"}, {"type": "UIC8", "value": "87753715"}, {"type": "external_code", "value": "OCE87753715"}], "name": "S\u00e9nas", "links": [], "coord": {"lat": "43.740965", "lon": "5.073336"}, "label": "S\u00e9nas (S\u00e9nas)", "administrative_regions": [{"insee": "13105", "name": "S\u00e9nas", "level": 8, "coord": {"lat": "43.7446686", "lon": "5.078624"}, "label": "S\u00e9nas (13560)", "id": "admin:fr:13105", "zip_code": "13560"}], "timezone": "Europe/Paris", "id": "stop_area:OCE:SA:87753715"}]}