{"pagination": {"start_page": 53, "items_on_page": 25, "items_per_page": 25, "total_result": 4343}, "links": [{"href": "https://api.sncf.com/v1/coverage/sncf/stop_areas/{stop_areas.id}", "type": "stop_areas", "rel": "stop_areas", "templated": true}, {"href": "https://api.sncf.com/v1/coverage/sncf/stop_areas/{stop_areas.id}/route_schedules", "type": "route_schedules", "rel": "route_schedules", "templated": true}, {"href": "https://api.sncf.com/v1/coverage/sncf/stop_areas/{stop_areas.id}/stop_schedules", "type": "stop_schedules", "rel": "stop_schedules", "templated": true}, {"href": "https://api.sncf.com/v1/coverage/sncf/stop_areas/{stop_areas.id}/arrivals", "type": "arrivals", "rel": "arrivals", "templated": true}, {"href": "https://api.sncf.com/v1/coverage/sncf/stop_areas/{stop_areas.id}/departures", "type": "departures", "rel": "departures", "templated": true}, {"href": "https://api.sncf.com/v1/coverage/sncf/stop_areas/{stop_areas.id}/places_nearby", "type": "places_nearby", "rel": "places_nearby", "templated": true}, {"href": "https://api.sncf.com/v1/coverage/sncf/stop_areas/{stop_areas.id}/journeys", "type": "journey", "rel": "journeys", "templated": true}, {"href": "https://api.sncf.com/v1/coverage/sncf/stop_areas/{stop_areas.id}/traffic_reports", "type": "disruption", "rel": "disruptions", "templated": true}, {"href": "https://api.sncf.com/v1/coverage/sncf/stop_areas?start_page=52", "type": "previous", "templated": false}, {"href": "https://api.sncf.com/v1/coverage/sncf/stop_areas?start_page=54", "type": "next", "templated": false}, {"href": "https://api.sncf.com/v1/coverage/sncf/stop_areas?start_page=173", "type": "last", "templated": false}, {"href": "https://api.sncf.com/v1/coverage/sncf/stop_areas", "type": "first", "templated": false}], "disruptions": [], "feed_publishers": [], "context": {"timezone": "Europe/Paris", "current_datetime": "20200210T135435"}, "stop_areas": [{"codes": [{"type": "CR-CI-CH", "value": "0087-698514-HR"}, {"type": "UIC8", "value": "87698514"}, {"type": "external_code", "value": "OCE87698514"}], "name": "Flumet-Office-Tourisme", "links": [], "coord": {"lat": "45.817585", "lon": "6.513626"}, "label": "Flumet-Office-Tourisme (Flumet)", "administrative_regions": [{"insee": "73114", "name": "Flumet", "level": 8, "coord": {"lat": "45.8175946", "lon": "6.5143172"}, "label": "Flumet (73590)", "id": "admin:fr:73114", "zip_code": "73590"}], "timezone": "Europe/Paris", "id": "stop_area:OCE:SA:87698514"}, {"codes": [{"type": "CR-CI-CH", "value": "0087-611616-00"}, {"type": "CR-CI-CH", "value": "0087-611616-00"}, {"type": "UIC8", "value": "87611616"}, {"type": "external_code", "value": "OCE87611616"}], "name": "Foix", "links": [], "coord": {"lat": "42.969299", "lon": "1.607394"}, "label": "Foix (Foix)", "administrative_regions": [{"insee": "9122", "name": "Foix", "level": 8, "coord": {"lat": "42.9638998", "lon": "1.6053807"}, "label": "Foix (09000)", "id": "admin:fr:9122", "zip_code": "09000"}], "timezone": "Europe/Paris", "id": "stop_area:OCE:SA:87611616"}, {"codes": [{"type": "CR-CI-CH", "value": "0087-447649-BV"}, {"type": "CR-CI-CH", "value": "0087-447649-BV"}, {"type": "UIC8", "value": "87447649"}, {"type": "external_code", "value": "OCE87447649"}], "name": "Folligny", "links": [], "coord": {"lat": "48.829153", "lon": "-1.4064"}, "label": "Folligny (Folligny)", "administrative_regions": [{"insee": "50188", "name": "Folligny", "level": 8, "coord": {"lat": "48.8244308", "lon": "-1.410211"}, "label": "Folligny (50320)", "id": "admin:fr:50188", "zip_code": "50320"}], "timezone": "Europe/Paris", "id": "stop_area:OCE:SA:87447649"}, {"codes": [{"type": "CR-CI-CH", "value": "0087-775379-00"}, {"type": "CR-CI-CH", "value": "0087-775379-00"}, {"type": "UIC8", "value": "87775379"}, {"type": "external_code", "value": "OCE87775379"}], "name": "Fons-St-Mamert", "links": [], "coord": {"lat": "43.907287", "lon": "4.20663"}, "label": "Fons-St-Mamert (Fons)", "administrative_regions": [{"insee": "30112", "name": "Fons", "level": 8, "coord": {"lat": "43.9069917", "lon": "4.1941897"}, "label": "Fons (30730)", "id": "admin:fr:30112", "zip_code": "30730"}], "timezone": "Europe/Paris", "id": "stop_area:OCE:SA:87775379"}, {"codes": [{"type": "CR-CI-CH", "value": "0087-784819-00"}, {"type": "CR-CI-CH", "value": "0087-784819-00"}, {"type": "UIC8", "value": "87784819"}, {"type": "external_code", "value": "OCE87784819"}], "name": "Font-Romeu-Odeillo-Via", "links": [], "coord": {"lat": "42.491307", "lon": "2.039496"}, "label": "Font-Romeu-Odeillo-Via (Font-Romeu-Odeillo-Via)", "administrative_regions": [{"insee": "66124", "name": "Font-Romeu-Odeillo-Via", "level": 8, "coord": {"lat": "42.4965705", "lon": "2.0416766"}, "label": "Font-Romeu-Odeillo-Via (66120)", "id": "admin:fr:66124", "zip_code": "66120"}], "timezone": "Europe/Paris", "id": "stop_area:OCE:SA:87784819"}, {"codes": [{"type": "CR-CI-CH", "value": "0087-727826-HR"}, {"type": "UIC8", "value": "87727826"}, {"type": "external_code", "value": "OCE87727826"}], "name": "Fontaine L. Gr\u00e9s Mairie", "links": [], "coord": {"lat": "0", "lon": "0"}, "label": "Fontaine L. Gr\u00e9s Mairie", "timezone": "Europe/Paris", "id": "stop_area:OCE:SA:87727826"}, {"codes": [{"type": "CR-CI-CH", "value": "0087-758763-00"}, {"type": "CR-CI-CH", "value": "0087-758763-00"}, {"type": "UIC8", "value": "87758763"}, {"type": "external_code", "value": "OCE87758763"}], "name": "Fontaine-Michalon", "links": [], "coord": {"lat": "48.743186", "lon": "2.296592"}, "label": "Fontaine-Michalon (Antony)", "administrative_regions": [{"insee": "92002", "name": "Antony", "level": 8, "coord": {"lat": "48.753554", "lon": "2.2959423"}, "label": "Antony (92160)", "id": "admin:fr:92002", "zip_code": "92160"}], "timezone": "Europe/Paris", "id": "stop_area:OCE:SA:87758763"}, {"codes": [{"type": "CR-CI-CH", "value": "0087-682427-00"}, {"type": "CR-CI-CH", "value": "0087-682427-00"}, {"type": "UIC8", "value": "87682427"}, {"type": "external_code", "value": "OCE87682427"}], "name": "Fontaine-le-Port", "links": [], "coord": {"lat": "48.48717", "lon": "2.750976"}, "label": "Fontaine-le-Port (Fontaine-le-Port)", "administrative_regions": [{"insee": "77188", "name": "Fontaine-le-Port", "level": 8, "coord": {"lat": "48.4867099", "lon": "2.7569803"}, "label": "Fontaine-le-Port (77590)", "id": "admin:fr:77188", "zip_code": "77590"}], "timezone": "Europe/Paris", "id": "stop_area:OCE:SA:87682427"}, {"codes": [{"type": "CR-CI-CH", "value": "0087-682211-BV"}, {"type": "CR-CI-CH", "value": "0087-682211-BV"}, {"type": "UIC8", "value": "87682211"}, {"type": "external_code", "value": "OCE87682211"}], "name": "Fontainebleau-Avon", "links": [], "coord": {"lat": "48.416366", "lon": "2.726255"}, "label": "Fontainebleau-Avon (Avon)", "administrative_regions": [{"insee": "77014", "name": "Avon", "level": 8, "coord": {"lat": "48.4048867", "lon": "2.7207225"}, "label": "Avon (77210)", "id": "admin:fr:77014", "zip_code": "77210"}], "timezone": "Europe/Paris", "id": "stop_area:OCE:SA:87682211"}, {"codes": [{"type": "CR-CI-CH", "value": "0087-713586-00"}, {"type": "CR-CI-CH", "value": "0087-713586-00"}, {"type": "UIC8", "value": "87713586"}, {"type": "external_code", "value": "OCE87713586"}], "name": "Fontaines-Mercurey", "links": [], "coord": {"lat": "46.851217", "lon": "4.774869"}, "label": "Fontaines-Mercurey (Fontaines)", "administrative_regions": [{"insee": "71202", "name": "Fontaines", "level": 8, "coord": {"lat": "46.8496545", "lon": "4.7704406"}, "label": "Fontaines (71150)", "id": "admin:fr:71202", "zip_code": "71150"}], "timezone": "Europe/Paris", "id": "stop_area:OCE:SA:87713586"}, {"codes": [{"type": "CR-CI-CH", "value": "0087-756858-00"}, {"type": "CR-CI-CH", "value": "0087-756858-00"}, {"type": "UIC8", "value": "87756858"}, {"type": "external_code", "value": "OCE87756858"}], "name": "Fontan-Saorge", "links": [], "coord": {"lat": "43.997542", "lon": "7.551833"}, "label": "Fontan-Saorge (Fontan)", "administrative_regions": [{"insee": "6062", "name": "Fontan", "level": 8, "coord": {"lat": "44.0028313", "lon": "7.5540444"}, "label": "Fontan (06540)", "id": "admin:fr:6062", "zip_code": "06540"}], "timezone": "Europe/Paris", "id": "stop_area:OCE:SA:87756858"}, {"codes": [{"type": "CR-CI-CH", "value": "0087-455097-HR"}, {"type": "CR-CI-CH", "value": "0087-455097-HR"}, {"type": "UIC8", "value": "87455097"}, {"type": "external_code", "value": "OCE87455097"}], "name": "Fontenay-Pt-Tranchef\u00eatu", "links": [], "coord": {"lat": "48.394816", "lon": "1.413299"}, "label": "Fontenay-Pt-Tranchef\u00eatu (Fontenay-sur-Eure)", "administrative_regions": [{"insee": "28158", "name": "Fontenay-sur-Eure", "level": 8, "coord": {"lat": "48.3961683", "lon": "1.4047509"}, "label": "Fontenay-sur-Eure (28630)", "id": "admin:fr:28158", "zip_code": "28630"}], "timezone": "Europe/Paris", "id": "stop_area:OCE:SA:87455097"}, {"codes": [{"type": "CR-CI-CH", "value": "0087-758714-00"}, {"type": "CR-CI-CH", "value": "0087-758714-00"}, {"type": "UIC8", "value": "87758714"}, {"type": "external_code", "value": "OCE87758714"}], "name": "Fontenay-aux-Roses", "links": [], "coord": {"lat": "48.78755", "lon": "2.291987"}, "label": "Fontenay-aux-Roses (Fontenay-aux-Roses)", "administrative_regions": [{"insee": "92032", "name": "Fontenay-aux-Roses", "level": 8, "coord": {"lat": "48.7911052", "lon": "2.2870373"}, "label": "Fontenay-aux-Roses (92260)", "id": "admin:fr:92032", "zip_code": "92260"}], "timezone": "Europe/Paris", "id": "stop_area:OCE:SA:87758714"}, {"codes": [{"type": "CR-CI-CH", "value": "0087-393405-00"}, {"type": "CR-CI-CH", "value": "0087-393405-00"}, {"type": "UIC8", "value": "87393405"}, {"type": "external_code", "value": "OCE87393405"}], "name": "Fontenay-le-Fleury", "links": [], "coord": {"lat": "48.807348", "lon": "2.040536"}, "label": "Fontenay-le-Fleury (Fontenay-le-Fleury)", "administrative_regions": [{"insee": "78242", "name": "Fontenay-le-Fleury", "level": 8, "coord": {"lat": "48.8106578", "lon": "2.0461549"}, "label": "Fontenay-le-Fleury (78330)", "id": "admin:fr:78242", "zip_code": "78330"}], "timezone": "Europe/Paris", "id": "stop_area:OCE:SA:87393405"}, {"codes": [{"type": "CR-CI-CH", "value": "0087-758128-00"}, {"type": "CR-CI-CH", "value": "0087-758128-00"}, {"type": "UIC8", "value": "87758128"}, {"type": "external_code", "value": "OCE87758128"}], "name": "Fontenay-sous-Bois", "links": [], "coord": {"lat": "48.84343", "lon": "2.464339"}, "label": "Fontenay-sous-Bois (Fontenay-sous-Bois)", "administrative_regions": [{"insee": "94033", "name": "Fontenay-sous-Bois", "level": 8, "coord": {"lat": "48.8490721", "lon": "2.4749347"}, "label": "Fontenay-sous-Bois (94120)", "id": "admin:fr:94033", "zip_code": "94120"}], "timezone": "Europe/Paris", "id": "stop_area:OCE:SA:87758128"}, {"codes": [{"type": "CR-CI-CH", "value": "0087-141051-00"}, {"type": "CR-CI-CH", "value": "0087-141051-00"}, {"type": "UIC8", "value": "87141051"}, {"type": "external_code", "value": "OCE87141051"}], "name": "Fontenoy-sur-Moselle", "links": [], "coord": {"lat": "48.711451", "lon": "5.980135"}, "label": "Fontenoy-sur-Moselle (Fontenoy-sur-Moselle)", "administrative_regions": [{"insee": "54202", "name": "Fontenoy-sur-Moselle", "level": 8, "coord": {"lat": "48.7108941", "lon": "5.9824543"}, "label": "Fontenoy-sur-Moselle (54840)", "id": "admin:fr:54202", "zip_code": "54840"}], "timezone": "Europe/Paris", "id": "stop_area:OCE:SA:87141051"}, {"codes": [{"type": "CR-CI-CH", "value": "0087-194365-00"}, {"type": "CR-CI-CH", "value": "0087-194365-00"}, {"type": "UIC8", "value": "87194365"}, {"type": "external_code", "value": "OCE87194365"}], "name": "Fontoy", "links": [], "coord": {"lat": "49.355791", "lon": "5.989775"}, "label": "Fontoy (Fontoy)", "administrative_regions": [{"insee": "57226", "name": "Fontoy", "level": 8, "coord": {"lat": "49.3570812", "lon": "5.995021"}, "label": "Fontoy (57650)", "id": "admin:fr:57226", "zip_code": "57650"}], "timezone": "Europe/Paris", "id": "stop_area:OCE:SA:87194365"}, {"codes": [{"type": "CR-CI-CH", "value": "0087-784769-00"}, {"type": "CR-CI-CH", "value": "0087-784769-00"}, {"type": "UIC8", "value": "87784769"}, {"type": "external_code", "value": "OCE87784769"}], "name": "Fontp\u00e9drouse-St-Thomas", "links": [], "coord": {"lat": "42.513871", "lon": "2.190106"}, "label": "Fontp\u00e9drouse-St-Thomas (Fontp\u00e9drouse)", "administrative_regions": [{"insee": "66080", "name": "Fontp\u00e9drouse", "level": 8, "coord": {"lat": "42.5111567", "lon": "2.1775922"}, "label": "Fontp\u00e9drouse (66360)", "id": "admin:fr:66080", "zip_code": "66360"}], "timezone": "Europe/Paris", "id": "stop_area:OCE:SA:87784769"}, {"codes": [{"type": "CR-CI-CH", "value": "0087-193003-BV"}, {"type": "CR-CI-CH", "value": "0087-193003-BV"}, {"type": "UIC8", "value": "87193003"}, {"type": "external_code", "value": "OCE87193003"}], "name": "Forbach", "links": [], "coord": {"lat": "49.189491", "lon": "6.901849"}, "label": "Forbach (Forbach)", "administrative_regions": [{"insee": "57227", "name": "Forbach", "level": 8, "coord": {"lat": "49.1862822", "lon": "6.8958562"}, "label": "Forbach (57600)", "id": "admin:fr:57227", "zip_code": "57600"}], "timezone": "Europe/Paris", "id": "stop_area:OCE:SA:87193003"}, {"codes": [{"type": "CR-CI-CH", "value": "0087-214965-00"}, {"type": "CR-CI-CH", "value": "0087-214965-00"}, {"type": "UIC8", "value": "87214965"}, {"type": "external_code", "value": "OCE87214965"}], "name": "Forges-de-Clairvaux(Les", "links": [], "coord": {"lat": "48.159992", "lon": "4.789997"}, "label": "Forges-de-Clairvaux(Les (Ville-sous-la-Fert\u00e9)", "administrative_regions": [{"insee": "10426", "name": "Ville-sous-la-Fert\u00e9", "level": 8, "coord": {"lat": "48.1199825", "lon": "4.7889707"}, "label": "Ville-sous-la-Fert\u00e9 (10310)", "id": "admin:fr:10426", "zip_code": "10310"}], "timezone": "Europe/Paris", "id": "stop_area:OCE:SA:87214965"}, {"codes": [{"type": "CR-CI-CH", "value": "0087-313833-00"}, {"type": "CR-CI-CH", "value": "0087-313833-00"}, {"type": "UIC8", "value": "87313833"}, {"type": "external_code", "value": "OCE87313833"}], "name": "Formerie", "links": [], "coord": {"lat": "49.654153", "lon": "1.722819"}, "label": "Formerie (Formerie)", "administrative_regions": [{"insee": "60245", "name": "Formerie", "level": 8, "coord": {"lat": "49.6498937", "lon": "1.7305525"}, "label": "Formerie", "id": "admin:fr:60245", "zip_code": ""}], "timezone": "Europe/Paris", "id": "stop_area:OCE:SA:87313833"}, {"codes": [{"type": "CR-CI-CH", "value": "0087-485326-00"}, {"type": "CR-CI-CH", "value": "0087-485326-00"}, {"type": "UIC8", "value": "87485326"}, {"type": "external_code", "value": "OCE87485326"}], "name": "Fors", "links": [], "coord": {"lat": "46.234539", "lon": "-0.406926"}, "label": "Fors (Fors)", "administrative_regions": [{"insee": "79125", "name": "Fors", "level": 8, "coord": {"lat": "46.2353984", "lon": "-0.4099026"}, "label": "Fors (79230)", "id": "admin:fr:79125", "zip_code": "79230"}], "timezone": "Europe/Paris", "id": "stop_area:OCE:SA:87485326"}, {"codes": [{"type": "CR-CI-CH", "value": "0087-753442-BV"}, {"type": "CR-CI-CH", "value": "0087-753442-BV"}, {"type": "UIC8", "value": "87753442"}, {"type": "external_code", "value": "OCE87753442"}], "name": "Fos-sur-Mer", "links": [], "coord": {"lat": "43.428063", "lon": "4.974578"}, "label": "Fos-sur-Mer (Port-de-Bouc)", "administrative_regions": [{"insee": "13077", "name": "Port-de-Bouc", "level": 8, "coord": {"lat": "43.403098", "lon": "4.9806998"}, "label": "Port-de-Bouc (13110)", "id": "admin:fr:13077", "zip_code": "13110"}], "timezone": "Europe/Paris", "id": "stop_area:OCE:SA:87753442"}, {"codes": [{"type": "CR-CI-CH", "value": "0087-413377-BV"}, {"type": "CR-CI-CH", "value": "0087-413377-BV"}, {"type": "UIC8", "value": "87413377"}, {"type": "external_code", "value": "OCE87413377"}], "name": "Foucart-Alvimare", "links": [], "coord": {"lat": "49.608319", "lon": "0.596921"}, "label": "Foucart-Alvimare (Foucart)", "administrative_regions": [{"insee": "76279", "name": "Foucart", "level": 8, "coord": {"lat": "49.6130366", "lon": "0.5962335"}, "label": "Foucart (76640)", "id": "admin:fr:76279", "zip_code": "76640"}], "timezone": "Europe/Paris", "id": "stop_area:OCE:SA:87413377"}, {"codes": [{"type": "CR-CI-CH", "value": "0087-214734-00"}, {"type": "CR-CI-CH", "value": "0087-214734-00"}, {"type": "UIC8", "value": "87214734"}, {"type": "external_code", "value": "OCE87214734"}], "name": "Fouday", "links": [], "coord": {"lat": "48.424844", "lon": "7.187413"}, "label": "Fouday (Fouday)", "administrative_regions": [{"insee": "67144", "name": "Fouday", "level": 8, "coord": {"lat": "48.4217476", "lon": "7.186774"}, "label": "Fouday (67130)", "id": "admin:fr:67144", "zip_code": "67130"}], "timezone": "Europe/Paris", "id": "stop_area:OCE:SA:87214734"}]}