{"pagination": {"start_page": 80, "items_on_page": 25, "items_per_page": 25, "total_result": 4343}, "links": [{"href": "https://api.sncf.com/v1/coverage/sncf/stop_areas/{stop_areas.id}", "type": "stop_areas", "rel": "stop_areas", "templated": true}, {"href": "https://api.sncf.com/v1/coverage/sncf/stop_areas/{stop_areas.id}/route_schedules", "type": "route_schedules", "rel": "route_schedules", "templated": true}, {"href": "https://api.sncf.com/v1/coverage/sncf/stop_areas/{stop_areas.id}/stop_schedules", "type": "stop_schedules", "rel": "stop_schedules", "templated": true}, {"href": "https://api.sncf.com/v1/coverage/sncf/stop_areas/{stop_areas.id}/arrivals", "type": "arrivals", "rel": "arrivals", "templated": true}, {"href": "https://api.sncf.com/v1/coverage/sncf/stop_areas/{stop_areas.id}/departures", "type": "departures", "rel": "departures", "templated": true}, {"href": "https://api.sncf.com/v1/coverage/sncf/stop_areas/{stop_areas.id}/places_nearby", "type": "places_nearby", "rel": "places_nearby", "templated": true}, {"href": "https://api.sncf.com/v1/coverage/sncf/stop_areas/{stop_areas.id}/journeys", "type": "journey", "rel": "journeys", "templated": true}, {"href": "https://api.sncf.com/v1/coverage/sncf/stop_areas/{stop_areas.id}/traffic_reports", "type": "disruption", "rel": "disruptions", "templated": true}, {"href": "https://api.sncf.com/v1/coverage/sncf/stop_areas?start_page=79", "type": "previous", "templated": false}, {"href": "https://api.sncf.com/v1/coverage/sncf/stop_areas?start_page=81", "type": "next", "templated": false}, {"href": "https://api.sncf.com/v1/coverage/sncf/stop_areas?start_page=173", "type": "last", "templated": false}, {"href": "https://api.sncf.com/v1/coverage/sncf/stop_areas", "type": "first", "templated": false}], "disruptions": [], "feed_publishers": [], "context": {"timezone": "Europe/Paris", "current_datetime": "20200210T135438"}, "stop_areas": [{"codes": [{"type": "CR-CI-CH", "value": "0087-734707-00"}, {"type": "CR-CI-CH", "value": "0087-734707-00"}, {"type": "UIC8", "value": "87734707"}, {"type": "external_code", "value": "OCE87734707"}], "name": "Lavo\u00fbte-sur-Loire", "links": [], "coord": {"lat": "45.121295", "lon": "3.905323"}, "label": "Lavo\u00fbte-sur-Loire (Lavo\u00fbte-sur-Loire)", "administrative_regions": [{"insee": "43119", "name": "Lavo\u00fbte-sur-Loire", "level": 8, "coord": {"lat": "45.1189171", "lon": "3.9065257"}, "label": "Lavo\u00fbte-sur-Loire (43800)", "id": "admin:fr:43119", "zip_code": "43800"}], "timezone": "Europe/Paris", "id": "stop_area:OCE:SA:87734707"}, {"codes": [{"type": "CR-CI-CH", "value": "0087-517953-00"}, {"type": "CR-CI-CH", "value": "0087-517953-00"}, {"type": "UIC8", "value": "87517953"}, {"type": "external_code", "value": "OCE87517953"}], "name": "Le Baladou", "links": [], "coord": {"lat": "44.920852", "lon": "1.555894"}, "label": "Le Baladou (Baladou)", "administrative_regions": [{"insee": "46016", "name": "Baladou", "level": 8, "coord": {"lat": "44.9219871", "lon": "1.55574"}, "label": "Baladou (46600)", "id": "admin:fr:46016", "zip_code": "46600"}], "timezone": "Europe/Paris", "id": "stop_area:OCE:SA:87517953"}, {"codes": [{"type": "CR-CI-CH", "value": "0087-757757-00"}, {"type": "CR-CI-CH", "value": "0087-757757-00"}, {"type": "UIC8", "value": "87757757"}, {"type": "external_code", "value": "OCE87757757"}], "name": "Le Bosquet", "links": [], "coord": {"lat": "43.551575", "lon": "6.981518"}, "label": "Le Bosquet (Cannes)", "administrative_regions": [{"insee": "6029", "name": "Cannes", "level": 8, "coord": {"lat": "43.5515198", "lon": "7.0134418"}, "label": "Cannes (06150-06400)", "id": "admin:fr:6029", "zip_code": "06150;06400"}], "timezone": "Europe/Paris", "id": "stop_area:OCE:SA:87757757"}, {"codes": [{"type": "CR-CI-CH", "value": "0087-271395-00"}, {"type": "CR-CI-CH", "value": "0087-271395-00"}, {"type": "UIC8", "value": "87271395"}, {"type": "external_code", "value": "OCE87271395"}], "name": "Le Bourget", "links": [], "coord": {"lat": "48.930884", "lon": "2.425776"}, "label": "Le Bourget (Le Bourget)", "administrative_regions": [{"insee": "93013", "name": "Le Bourget", "level": 8, "coord": {"lat": "48.9351403", "lon": "2.4258354"}, "label": "Le Bourget (93350)", "id": "admin:fr:93013", "zip_code": "93350"}], "timezone": "Europe/Paris", "id": "stop_area:OCE:SA:87271395"}, {"codes": [{"type": "CR-CI-CH", "value": "0087-781583-00"}, {"type": "CR-CI-CH", "value": "0087-781583-00"}, {"type": "UIC8", "value": "87781583"}, {"type": "external_code", "value": "OCE87781583"}], "name": "Le Bousquet-d'Orb", "links": [], "coord": {"lat": "43.691547", "lon": "3.168385"}, "label": "Le Bousquet-d'Orb (Le Bousquet-d'Orb)", "administrative_regions": [{"insee": "34038", "name": "Le Bousquet-d'Orb", "level": 8, "coord": {"lat": "43.6946849", "lon": "3.164829"}, "label": "Le Bousquet-d'Orb (34260)", "id": "admin:fr:34038", "zip_code": "34260"}], "timezone": "Europe/Paris", "id": "stop_area:OCE:SA:87781583"}, {"codes": [{"type": "CR-CI-CH", "value": "0087-681395-00"}, {"type": "CR-CI-CH", "value": "0087-681395-00"}, {"type": "UIC8", "value": "87681395"}, {"type": "external_code", "value": "OCE87681395"}], "name": "Le Bras-de-Fer", "links": [], "coord": {"lat": "48.623239", "lon": "2.450839"}, "label": "Le Bras-de-Fer (\u00c9vry-Courcouronnes)", "administrative_regions": [{"insee": "91228", "name": "\u00c9vry-Courcouronnes", "level": 8, "coord": {"lat": "48.6241665", "lon": "2.4289667"}, "label": "\u00c9vry-Courcouronnes (91000-91080)", "id": "admin:fr:91228", "zip_code": "91000;91080"}], "timezone": "Europe/Paris", "id": "stop_area:OCE:SA:87681395"}, {"codes": [{"type": "CR-CI-CH", "value": "0087-721779-00"}, {"type": "CR-CI-CH", "value": "0087-721779-00"}, {"type": "UIC8", "value": "87721779"}, {"type": "external_code", "value": "OCE87721779"}], "name": "Le Breuil (Rh\u00f4ne)", "links": [], "coord": {"lat": "45.896771", "lon": "4.591215"}, "label": "Le Breuil (Rh\u00f4ne) (Le Breuil)", "administrative_regions": [{"insee": "69026", "name": "Le Breuil", "level": 8, "coord": {"lat": "45.8934282", "lon": "4.5878906"}, "label": "Le Breuil (69620)", "id": "admin:fr:69026", "zip_code": "69620"}], "timezone": "Europe/Paris", "id": "stop_area:OCE:SA:87721779"}, {"codes": [{"type": "CR-CI-CH", "value": "0087-734228-00"}, {"type": "CR-CI-CH", "value": "0087-734228-00"}, {"type": "UIC8", "value": "87734228"}, {"type": "external_code", "value": "OCE87734228"}], "name": "Le Breuil-sur-Couze", "links": [], "coord": {"lat": "45.467089", "lon": "3.262143"}, "label": "Le Breuil-sur-Couze (Le Breuil-sur-Couze)", "administrative_regions": [{"insee": "63052", "name": "Le Breuil-sur-Couze", "level": 8, "coord": {"lat": "45.4680065", "lon": "3.26417"}, "label": "Le Breuil-sur-Couze (63340)", "id": "admin:fr:63052", "zip_code": "63340"}], "timezone": "Europe/Paris", "id": "stop_area:OCE:SA:87734228"}, {"codes": [{"type": "CR-CI-CH", "value": "0087-407940-00"}, {"type": "CR-CI-CH", "value": "0087-407940-00"}, {"type": "UIC8", "value": "87407940"}, {"type": "external_code", "value": "OCE87407940"}], "name": "Le Breuil/Couzes-S.-F\u00eat", "links": [], "coord": {"lat": "45.472327", "lon": "3.261949"}, "label": "Le Breuil/Couzes-S.-F\u00eat (Le Breuil-sur-Couze)", "administrative_regions": [{"insee": "63052", "name": "Le Breuil-sur-Couze", "level": 8, "coord": {"lat": "45.4680065", "lon": "3.26417"}, "label": "Le Breuil-sur-Couze (63340)", "id": "admin:fr:63052", "zip_code": "63340"}], "timezone": "Europe/Paris", "id": "stop_area:OCE:SA:87407940"}, {"codes": [{"type": "CR-CI-CH", "value": "0087-783548-00"}, {"type": "CR-CI-CH", "value": "0087-783548-00"}, {"type": "UIC8", "value": "87783548"}, {"type": "external_code", "value": "OCE87783548"}], "name": "Le Bruel", "links": [], "coord": {"lat": "44.481068", "lon": "3.358169"}, "label": "Le Bruel (Esclan\u00e8des)", "administrative_regions": [{"insee": "48056", "name": "Esclan\u00e8des", "level": 8, "coord": {"lat": "44.4814605", "lon": "3.3617373"}, "label": "Esclan\u00e8des (48230)", "id": "admin:fr:48056", "zip_code": "48230"}], "timezone": "Europe/Paris", "id": "stop_area:OCE:SA:87783548"}, {"codes": [{"type": "CR-CI-CH", "value": "0087-746883-00"}, {"type": "CR-CI-CH", "value": "0087-746883-00"}, {"type": "UIC8", "value": "87746883"}, {"type": "external_code", "value": "OCE87746883"}], "name": "Le Buet", "links": [], "coord": {"lat": "46.019163", "lon": "6.920368"}, "label": "Le Buet (Vallorcine)", "administrative_regions": [{"insee": "74290", "name": "Vallorcine", "level": 8, "coord": {"lat": "46.0340383", "lon": "6.9324887"}, "label": "Vallorcine (74660)", "id": "admin:fr:74290", "zip_code": "74660"}], "timezone": "Europe/Paris", "id": "stop_area:OCE:SA:87746883"}, {"codes": [{"type": "CR-CI-CH", "value": "0087-595744-BV"}, {"type": "CR-CI-CH", "value": "0087-595744-BV"}, {"type": "UIC8", "value": "87595744"}, {"type": "external_code", "value": "OCE87595744"}], "name": "Le Bugue", "links": [], "coord": {"lat": "44.905774", "lon": "0.942864"}, "label": "Le Bugue (Le Bugue)", "administrative_regions": [{"insee": "24067", "name": "Le Bugue", "level": 8, "coord": {"lat": "44.9180694", "lon": "0.9273347"}, "label": "Le Bugue (24260)", "id": "admin:fr:24067", "zip_code": "24260"}], "timezone": "Europe/Paris", "id": "stop_area:OCE:SA:87595744"}, {"codes": [{"type": "CR-CI-CH", "value": "0087-595751-00"}, {"type": "CR-CI-CH", "value": "0087-595751-00"}, {"type": "UIC8", "value": "87595751"}, {"type": "external_code", "value": "OCE87595751"}], "name": "Le Buisson", "links": [], "coord": {"lat": "44.847225", "lon": "0.908183"}, "label": "Le Buisson (Le Buisson-de-Cadouin)", "administrative_regions": [{"insee": "24068", "name": "Le Buisson-de-Cadouin", "level": 8, "coord": {"lat": "44.8456284", "lon": "0.9082579"}, "label": "Le Buisson-de-Cadouin (24480)", "id": "admin:fr:24068", "zip_code": "24480"}], "timezone": "Europe/Paris", "id": "stop_area:OCE:SA:87595751"}, {"codes": [{"type": "CR-CI-CH", "value": "0087-594614-00"}, {"type": "CR-CI-CH", "value": "0087-594614-00"}, {"type": "UIC8", "value": "87594614"}, {"type": "external_code", "value": "OCE87594614"}], "name": "Le Burg", "links": [], "coord": {"lat": "45.216228", "lon": "1.42965"}, "label": "Le Burg (Varetz)", "administrative_regions": [{"insee": "19278", "name": "Varetz", "level": 8, "coord": {"lat": "45.1937382", "lon": "1.451279"}, "label": "Varetz (19240)", "id": "admin:fr:19278", "zip_code": "19240"}], "timezone": "Europe/Paris", "id": "stop_area:OCE:SA:87594614"}, {"codes": [{"type": "CR-CI-CH", "value": "0087-775825-BV"}, {"type": "CR-CI-CH", "value": "0087-775825-BV"}, {"type": "UIC8", "value": "87775825"}, {"type": "external_code", "value": "OCE87775825"}], "name": "Le Cailar", "links": [], "coord": {"lat": "43.683192", "lon": "4.234767"}, "label": "Le Cailar (Le Cailar)", "administrative_regions": [{"insee": "30059", "name": "Le Cailar", "level": 8, "coord": {"lat": "43.6739623", "lon": "4.2360094"}, "label": "Le Cailar (30740)", "id": "admin:fr:30059", "zip_code": "30740"}], "timezone": "Europe/Paris", "id": "stop_area:OCE:SA:87775825"}, {"codes": [{"type": "CR-CI-CH", "value": "0087-295220-00"}, {"type": "CR-CI-CH", "value": "0087-295220-00"}, {"type": "UIC8", "value": "87295220"}, {"type": "external_code", "value": "OCE87295220"}], "name": "Le Cateau", "links": [], "coord": {"lat": "50.091461", "lon": "3.540021"}, "label": "Le Cateau (Le Cateau-Cambr\u00e9sis)", "administrative_regions": [{"insee": "59136", "name": "Le Cateau-Cambr\u00e9sis", "level": 8, "coord": {"lat": "50.1058353", "lon": "3.5417479"}, "label": "Le Cateau-Cambr\u00e9sis (59360)", "id": "admin:fr:59136", "zip_code": "59360"}], "timezone": "Europe/Paris", "id": "stop_area:OCE:SA:87295220"}, {"codes": [{"type": "CR-CI-CH", "value": "0087-481168-00"}, {"type": "CR-CI-CH", "value": "0087-481168-00"}, {"type": "UIC8", "value": "87481168"}, {"type": "external_code", "value": "OCE87481168"}], "name": "Le Cellier", "links": [], "coord": {"lat": "47.31316", "lon": "-1.350957"}, "label": "Le Cellier (Le Cellier)", "administrative_regions": [{"insee": "44028", "name": "Le Cellier", "level": 8, "coord": {"lat": "47.3186735", "lon": "-1.3465357"}, "label": "Le Cellier (44850)", "id": "admin:fr:44028", "zip_code": "44850"}], "timezone": "Europe/Paris", "id": "stop_area:OCE:SA:87481168"}, {"codes": [{"type": "CR-CI-CH", "value": "0087-734160-00"}, {"type": "CR-CI-CH", "value": "0087-734160-00"}, {"type": "UIC8", "value": "87734160"}, {"type": "external_code", "value": "OCE87734160"}], "name": "Le Cendre-Orcet", "links": [], "coord": {"lat": "45.723817", "lon": "3.188689"}, "label": "Le Cendre-Orcet (Le Cendre)", "administrative_regions": [{"insee": "63069", "name": "Le Cendre", "level": 8, "coord": {"lat": "45.7206707", "lon": "3.1871331"}, "label": "Le Cendre (63670)", "id": "admin:fr:63069", "zip_code": "63670"}], "timezone": "Europe/Paris", "id": "stop_area:OCE:SA:87734160"}, {"codes": [{"type": "CR-CI-CH", "value": "0087-726711-BV"}, {"type": "CR-CI-CH", "value": "0087-726711-BV"}, {"type": "UIC8", "value": "87726711"}, {"type": "external_code", "value": "OCE87726711"}], "name": "Le Chambon-Feugerolles", "links": [], "coord": {"lat": "45.394773", "lon": "4.322366"}, "label": "Le Chambon-Feugerolles (Le Chambon-Feugerolles)", "administrative_regions": [{"insee": "42044", "name": "Le Chambon-Feugerolles", "level": 8, "coord": {"lat": "45.3966546", "lon": "4.3247696"}, "label": "Le Chambon-Feugerolles (42500)", "id": "admin:fr:42044", "zip_code": "42500"}], "timezone": "Europe/Paris", "id": "stop_area:OCE:SA:87726711"}, {"codes": [{"type": "CR-CI-CH", "value": "0087-139899-00"}, {"type": "CR-CI-CH", "value": "0087-139899-00"}, {"type": "UIC8", "value": "87139899"}, {"type": "external_code", "value": "OCE87139899"}], "name": "Le Cheminot", "links": [], "coord": {"lat": "48.147496", "lon": "4.010272"}, "label": "Le Cheminot (Javernant)", "administrative_regions": [{"insee": "10177", "name": "Javernant", "level": 8, "coord": {"lat": "48.160444", "lon": "4.0028105"}, "label": "Javernant (10320)", "id": "admin:fr:10177", "zip_code": "10320"}], "timezone": "Europe/Paris", "id": "stop_area:OCE:SA:87139899"}, {"codes": [{"type": "CR-CI-CH", "value": "0087-726828-00"}, {"type": "CR-CI-CH", "value": "0087-726828-00"}, {"type": "UIC8", "value": "87726828"}, {"type": "external_code", "value": "OCE87726828"}], "name": "Le Coteau", "links": [], "coord": {"lat": "46.023935", "lon": "4.086301"}, "label": "Le Coteau (Le Coteau)", "administrative_regions": [{"insee": "42071", "name": "Le Coteau", "level": 8, "coord": {"lat": "46.0205", "lon": "4.09203"}, "label": "Le Coteau (42120)", "id": "admin:fr:42071", "zip_code": "42120"}], "timezone": "Europe/Paris", "id": "stop_area:OCE:SA:87726828"}, {"codes": [{"type": "CR-CI-CH", "value": "0087-694000-BV"}, {"type": "CR-CI-CH", "value": "0087-694000-BV"}, {"type": "UIC8", "value": "87694000"}, {"type": "external_code", "value": "OCE87694000"}], "name": "Le Creusot", "links": [], "coord": {"lat": "46.807829", "lon": "4.430429"}, "label": "Le Creusot (Le Creusot)", "administrative_regions": [{"insee": "71153", "name": "Le Creusot", "level": 8, "coord": {"lat": "46.8054064", "lon": "4.4285961"}, "label": "Le Creusot (71200)", "id": "admin:fr:71153", "zip_code": "71200"}], "timezone": "Europe/Paris", "id": "stop_area:OCE:SA:87694000"}, {"codes": [{"type": "CR-CI-CH", "value": "0087-481788-00"}, {"type": "CR-CI-CH", "value": "0087-481788-00"}, {"type": "UIC8", "value": "87481788"}, {"type": "external_code", "value": "OCE87481788"}], "name": "Le Croisic", "links": [], "coord": {"lat": "47.289889", "lon": "-2.507288"}, "label": "Le Croisic (Le Croisic)", "administrative_regions": [{"insee": "44049", "name": "Le Croisic", "level": 8, "coord": {"lat": "47.2933971", "lon": "-2.5094404"}, "label": "Le Croisic (44490)", "id": "admin:fr:44049", "zip_code": "44490"}], "timezone": "Europe/Paris", "id": "stop_area:OCE:SA:87481788"}, {"codes": [{"type": "CR-CI-CH", "value": "0087-592543-00"}, {"type": "CR-CI-CH", "value": "0087-592543-00"}, {"type": "UIC8", "value": "87592543"}, {"type": "external_code", "value": "OCE87592543"}], "name": "Le Dorat", "links": [], "coord": {"lat": "46.211108", "lon": "1.079244"}, "label": "Le Dorat (Le Dorat)", "administrative_regions": [{"insee": "87059", "name": "Le Dorat", "level": 8, "coord": {"lat": "46.2144367", "lon": "1.0822603"}, "label": "Le Dorat (87210)", "id": "admin:fr:87059", "zip_code": "87210"}], "timezone": "Europe/Paris", "id": "stop_area:OCE:SA:87592543"}, {"codes": [{"type": "CR-CI-CH", "value": "0087-757542-00"}, {"type": "CR-CI-CH", "value": "0087-757542-00"}, {"type": "UIC8", "value": "87757542"}, {"type": "external_code", "value": "OCE87757542"}], "name": "Le Dramont", "links": [], "coord": {"lat": "43.417718", "lon": "6.844313"}, "label": "Le Dramont (Saint-Rapha\u00ebl)", "administrative_regions": [{"insee": "83118", "name": "Saint-Rapha\u00ebl", "level": 8, "coord": {"lat": "43.4255303", "lon": "6.7694244"}, "label": "Saint-Rapha\u00ebl (83530-83700)", "id": "admin:fr:83118", "zip_code": "83530;83700"}], "timezone": "Europe/Paris", "id": "stop_area:OCE:SA:87757542"}]}