{"pagination": {"start_page": 71, "items_on_page": 25, "items_per_page": 25, "total_result": 4343}, "links": [{"href": "https://api.sncf.com/v1/coverage/sncf/stop_areas/{stop_areas.id}", "type": "stop_areas", "rel": "stop_areas", "templated": true}, {"href": "https://api.sncf.com/v1/coverage/sncf/stop_areas/{stop_areas.id}/route_schedules", "type": "route_schedules", "rel": "route_schedules", "templated": true}, {"href": "https://api.sncf.com/v1/coverage/sncf/stop_areas/{stop_areas.id}/stop_schedules", "type": "stop_schedules", "rel": "stop_schedules", "templated": true}, {"href": "https://api.sncf.com/v1/coverage/sncf/stop_areas/{stop_areas.id}/arrivals", "type": "arrivals", "rel": "arrivals", "templated": true}, {"href": "https://api.sncf.com/v1/coverage/sncf/stop_areas/{stop_areas.id}/departures", "type": "departures", "rel": "departures", "templated": true}, {"href": "https://api.sncf.com/v1/coverage/sncf/stop_areas/{stop_areas.id}/places_nearby", "type": "places_nearby", "rel": "places_nearby", "templated": true}, {"href": "https://api.sncf.com/v1/coverage/sncf/stop_areas/{stop_areas.id}/journeys", "type": "journey", "rel": "journeys", "templated": true}, {"href": "https://api.sncf.com/v1/coverage/sncf/stop_areas/{stop_areas.id}/traffic_reports", "type": "disruption", "rel": "disruptions", "templated": true}, {"href": "https://api.sncf.com/v1/coverage/sncf/stop_areas?start_page=70", "type": "previous", "templated": false}, {"href": "https://api.sncf.com/v1/coverage/sncf/stop_areas?start_page=72", "type": "next", "templated": false}, {"href": "https://api.sncf.com/v1/coverage/sncf/stop_areas?start_page=173", "type": "last", "templated": false}, {"href": "https://api.sncf.com/v1/coverage/sncf/stop_areas", "type": "first", "templated": false}], "disruptions": [], "feed_publishers": [], "context": {"timezone": "Europe/Paris", "current_datetime": "20200210T135437"}, "stop_areas": [{"codes": [{"type": "CR-CI-CH", "value": "0087-756874-00"}, {"type": "CR-CI-CH", "value": "0087-756874-00"}, {"type": "UIC8", "value": "87756874"}, {"type": "external_code", "value": "OCE87756874"}], "name": "La Brigue", "links": [], "coord": {"lat": "44.06254", "lon": "7.605608"}, "label": "La Brigue (La Brigue)", "administrative_regions": [{"insee": "6162", "name": "La Brigue", "level": 8, "coord": {"lat": "44.0618551", "lon": "7.6158933"}, "label": "La Brigue (06430)", "id": "admin:fr:6162", "zip_code": "06430"}], "timezone": "Europe/Paris", "id": "stop_area:OCE:SA:87756874"}, {"codes": [{"type": "CR-CI-CH", "value": "0087-751271-00"}, {"type": "CR-CI-CH", "value": "0087-751271-00"}, {"type": "UIC8", "value": "87751271"}, {"type": "external_code", "value": "OCE87751271"}], "name": "La Brillanne-Oraison", "links": [], "coord": {"lat": "43.924809", "lon": "5.892255"}, "label": "La Brillanne-Oraison (La Brillanne)", "administrative_regions": [{"insee": "4034", "name": "La Brillanne", "level": 8, "coord": {"lat": "43.9276852", "lon": "5.8909815"}, "label": "La Brillanne (04700)", "id": "admin:fr:4034", "zip_code": "04700"}], "timezone": "Europe/Paris", "id": "stop_area:OCE:SA:87751271"}, {"codes": [{"type": "CR-CI-CH", "value": "0087-471094-BV"}, {"type": "CR-CI-CH", "value": "0087-471094-BV"}, {"type": "UIC8", "value": "87471094"}, {"type": "external_code", "value": "OCE87471094"}], "name": "La Brohini\u00e8re", "links": [], "coord": {"lat": "48.213308", "lon": "-2.110537"}, "label": "La Brohini\u00e8re (Montauban-de-Bretagne)", "administrative_regions": [{"insee": "35184", "name": "Montauban-de-Bretagne", "level": 8, "coord": {"lat": "48.1998838", "lon": "-2.0462319"}, "label": "Montauban-de-Bretagne", "id": "admin:fr:35184", "zip_code": ""}], "timezone": "Europe/Paris", "id": "stop_area:OCE:SA:87471094"}, {"codes": [{"type": "CR-CI-CH", "value": "0087-645150-00"}, {"type": "CR-CI-CH", "value": "0087-645150-00"}, {"type": "UIC8", "value": "87645150"}, {"type": "external_code", "value": "OCE87645150"}], "name": "La Capelle-Viescamp", "links": [], "coord": {"lat": "44.920494", "lon": "2.265382"}, "label": "La Capelle-Viescamp (Lacapelle-Viescamp)", "administrative_regions": [{"insee": "15088", "name": "Lacapelle-Viescamp", "level": 8, "coord": {"lat": "44.9230732", "lon": "2.2643709"}, "label": "Lacapelle-Viescamp (15150)", "id": "admin:fr:15088", "zip_code": "15150"}], "timezone": "Europe/Paris", "id": "stop_area:OCE:SA:87645150"}, {"codes": [{"type": "CR-CI-CH", "value": "0087-382432-00"}, {"type": "CR-CI-CH", "value": "0087-382432-00"}, {"type": "UIC8", "value": "87382432"}, {"type": "external_code", "value": "OCE87382432"}], "name": "La Celle-St-Cloud", "links": [], "coord": {"lat": "48.842559", "lon": "2.13821"}, "label": "La Celle-St-Cloud (La Celle-Saint-Cloud)", "administrative_regions": [{"insee": "78126", "name": "La Celle-Saint-Cloud", "level": 8, "coord": {"lat": "48.8478753", "lon": "2.136145"}, "label": "La Celle-Saint-Cloud (78170)", "id": "admin:fr:78126", "zip_code": "78170"}], "timezone": "Europe/Paris", "id": "stop_area:OCE:SA:87382432"}, {"codes": [{"type": "CR-CI-CH", "value": "0087-734632-BV"}, {"type": "CR-CI-CH", "value": "0087-734632-BV"}, {"type": "UIC8", "value": "87734632"}, {"type": "external_code", "value": "OCE87734632"}], "name": "La Chaise-Dieu", "links": [], "coord": {"lat": "45.316443", "lon": "3.696954"}, "label": "La Chaise-Dieu (La Chaise-Dieu)", "administrative_regions": [{"insee": "43048", "name": "La Chaise-Dieu", "level": 8, "coord": {"lat": "45.321114", "lon": "3.6953553"}, "label": "La Chaise-Dieu (43160)", "id": "admin:fr:43048", "zip_code": "43160"}], "timezone": "Europe/Paris", "id": "stop_area:OCE:SA:87734632"}, {"codes": [{"type": "CR-CI-CH", "value": "0087-486308-00"}, {"type": "CR-CI-CH", "value": "0087-486308-00"}, {"type": "UIC8", "value": "87486308"}, {"type": "external_code", "value": "OCE87486308"}], "name": "La Chaize-le-Vicomte", "links": [], "coord": {"lat": "46.676832", "lon": "-1.283399"}, "label": "La Chaize-le-Vicomte (La Chaize-le-Vicomte)", "administrative_regions": [{"insee": "85046", "name": "La Chaize-le-Vicomte", "level": 8, "coord": {"lat": "46.6722073", "lon": "-1.2968122"}, "label": "La Chaize-le-Vicomte (85310)", "id": "admin:fr:85046", "zip_code": "85310"}], "timezone": "Europe/Paris", "id": "stop_area:OCE:SA:87486308"}, {"codes": [{"type": "CR-CI-CH", "value": "0087-543371-BV"}, {"type": "CR-CI-CH", "value": "0087-543371-BV"}, {"type": "UIC8", "value": "87543371"}, {"type": "external_code", "value": "OCE87543371"}], "name": "La Chapelle-St-Mesmin", "links": [], "coord": {"lat": "47.892865", "lon": "1.826933"}, "label": "La Chapelle-St-Mesmin (La Chapelle-Saint-Mesmin)", "administrative_regions": [{"insee": "45075", "name": "La Chapelle-Saint-Mesmin", "level": 8, "coord": {"lat": "47.8869822", "lon": "1.8398174"}, "label": "La Chapelle-Saint-Mesmin (45380)", "id": "admin:fr:45075", "zip_code": "45380"}], "timezone": "Europe/Paris", "id": "stop_area:OCE:SA:87543371"}, {"codes": [{"type": "CR-CI-CH", "value": "0087-699009-00"}, {"type": "CR-CI-CH", "value": "0087-699009-00"}, {"type": "UIC8", "value": "87699009"}, {"type": "external_code", "value": "OCE87699009"}], "name": "La Chapelle-sous-Dun", "links": [], "coord": {"lat": "46.258054", "lon": "4.295551"}, "label": "La Chapelle-sous-Dun (La Chapelle-sous-Dun)", "administrative_regions": [{"insee": "71095", "name": "La Chapelle-sous-Dun", "level": 8, "coord": {"lat": "46.2592565", "lon": "4.2933247"}, "label": "La Chapelle-sous-Dun (71800)", "id": "admin:fr:71095", "zip_code": "71800"}], "timezone": "Europe/Paris", "id": "stop_area:OCE:SA:87699009"}, {"codes": [{"type": "CR-CI-CH", "value": "0087-571802-00"}, {"type": "CR-CI-CH", "value": "0087-571802-00"}, {"type": "UIC8", "value": "87571802"}, {"type": "external_code", "value": "OCE87571802"}], "name": "La Chapelle-sur-Loire", "links": [], "coord": {"lat": "47.251299", "lon": "0.219119"}, "label": "La Chapelle-sur-Loire (La Chapelle-sur-Loire)", "administrative_regions": [{"insee": "37058", "name": "La Chapelle-sur-Loire", "level": 8, "coord": {"lat": "47.2482404", "lon": "0.222443"}, "label": "La Chapelle-sur-Loire (37140)", "id": "admin:fr:37058", "zip_code": "37140"}], "timezone": "Europe/Paris", "id": "stop_area:OCE:SA:87571802"}, {"codes": [{"type": "CR-CI-CH", "value": "0087-715391-00"}, {"type": "CR-CI-CH", "value": "0087-715391-00"}, {"type": "UIC8", "value": "87715391"}, {"type": "external_code", "value": "OCE87715391"}], "name": "La Chaumusse-Fort-du-Pl", "links": [], "coord": {"lat": "46.604902", "lon": "5.96146"}, "label": "La Chaumusse-Fort-du-Pl (La Chaumusse)", "administrative_regions": [{"insee": "39126", "name": "La Chaumusse", "level": 8, "coord": {"lat": "46.5871", "lon": "5.94142"}, "label": "La Chaumusse (39150)", "id": "admin:fr:39126", "zip_code": "39150"}], "timezone": "Europe/Paris", "id": "stop_area:OCE:SA:87715391"}, {"codes": [{"type": "CR-CI-CH", "value": "0087-574251-00"}, {"type": "CR-CI-CH", "value": "0087-574251-00"}, {"type": "UIC8", "value": "87574251"}, {"type": "external_code", "value": "OCE87574251"}], "name": "La Chauss\u00e9e-St-Victor", "links": [], "coord": {"lat": "47.612531", "lon": "1.353673"}, "label": "La Chauss\u00e9e-St-Victor (La Chauss\u00e9e-Saint-Victor)", "administrative_regions": [{"insee": "41047", "name": "La Chauss\u00e9e-Saint-Victor", "level": 8, "coord": {"lat": "47.6095154", "lon": "1.3587541"}, "label": "La Chauss\u00e9e-Saint-Victor (41260)", "id": "admin:fr:41047", "zip_code": "41260"}], "timezone": "Europe/Paris", "id": "stop_area:OCE:SA:87574251"}, {"codes": [{"type": "CR-CI-CH", "value": "0085-043141-BV"}, {"type": "CR-CI-CH", "value": "0085-043141-BV"}, {"type": "UIC8", "value": "85043141"}, {"type": "external_code", "value": "OCE85043141"}], "name": "La Chaux-de-Fonds", "links": [], "coord": {"lat": "47.098901", "lon": "6.825585"}, "label": "La Chaux-de-Fonds (La Chaux-de-Fonds)", "administrative_regions": [{"insee": "", "name": "La Chaux-de-Fonds", "level": 8, "coord": {"lat": "47.1101628359179", "lon": "6.83342150597674"}, "label": "La Chaux-de-Fonds", "id": "admin:osm:relation:1685495", "zip_code": ""}], "timezone": "Europe/Paris", "id": "stop_area:OCE:SA:85043141"}, {"codes": [{"type": "CR-CI-CH", "value": "0087-715383-BV"}, {"type": "CR-CI-CH", "value": "0087-715383-BV"}, {"type": "UIC8", "value": "87715383"}, {"type": "external_code", "value": "OCE87715383"}], "name": "La Chaux-des-Crotenay", "links": [], "coord": {"lat": "46.654536", "lon": "5.943833"}, "label": "La Chaux-des-Crotenay (Chaux-des-Crotenay)", "administrative_regions": [{"insee": "39129", "name": "Chaux-des-Crotenay", "level": 8, "coord": {"lat": "46.6584345", "lon": "5.9659163"}, "label": "Chaux-des-Crotenay (39150)", "id": "admin:fr:39129", "zip_code": "39150"}], "timezone": "Europe/Paris", "id": "stop_area:OCE:SA:87715383"}, {"codes": [{"type": "CR-CI-CH", "value": "0087-407692-00"}, {"type": "CR-CI-CH", "value": "0087-407692-00"}, {"type": "UIC8", "value": "87407692"}, {"type": "external_code", "value": "OCE87407692"}], "name": "La Chomette", "links": [], "coord": {"lat": "45.229465", "lon": "3.474457"}, "label": "La Chomette (La Chomette)", "administrative_regions": [{"insee": "43072", "name": "La Chomette", "level": 8, "coord": {"lat": "45.2301228", "lon": "3.4733339"}, "label": "La Chomette (43230)", "id": "admin:fr:43072", "zip_code": "43230"}], "timezone": "Europe/Paris", "id": "stop_area:OCE:SA:87407692"}, {"codes": [{"type": "CR-CI-CH", "value": "0087-751784-00"}, {"type": "CR-CI-CH", "value": "0087-751784-00"}, {"type": "UIC8", "value": "87751784"}, {"type": "external_code", "value": "OCE87751784"}], "name": "La Ciotat", "links": [], "coord": {"lat": "43.19958", "lon": "5.632668"}, "label": "La Ciotat (La Ciotat)", "administrative_regions": [{"insee": "13028", "name": "La Ciotat", "level": 8, "coord": {"lat": "43.1758591", "lon": "5.6062495"}, "label": "La Ciotat (13600)", "id": "admin:fr:13028", "zip_code": "13600"}], "timezone": "Europe/Paris", "id": "stop_area:OCE:SA:87751784"}, {"codes": [{"type": "CR-CI-CH", "value": "0087-694737-00"}, {"type": "CR-CI-CH", "value": "0087-694737-00"}, {"type": "UIC8", "value": "87694737"}, {"type": "external_code", "value": "OCE87694737"}], "name": "La Clayette-Baudemont", "links": [], "coord": {"lat": "46.288162", "lon": "4.298451"}, "label": "La Clayette-Baudemont (Baudemont)", "administrative_regions": [{"insee": "71022", "name": "Baudemont", "level": 8, "coord": {"lat": "46.287257", "lon": "4.2853814"}, "label": "Baudemont (71800)", "id": "admin:fr:71022", "zip_code": "71800"}], "timezone": "Europe/Paris", "id": "stop_area:OCE:SA:87694737"}, {"codes": [{"type": "CR-CI-CH", "value": "0087-592501-00"}, {"type": "CR-CI-CH", "value": "0087-592501-00"}, {"type": "UIC8", "value": "87592501"}, {"type": "external_code", "value": "OCE87592501"}], "name": "La Coquille", "links": [], "coord": {"lat": "45.540713", "lon": "0.974425"}, "label": "La Coquille (La Coquille)", "administrative_regions": [{"insee": "24133", "name": "La Coquille", "level": 8, "coord": {"lat": "45.5426008", "lon": "0.9772908"}, "label": "La Coquille (24450)", "id": "admin:fr:24133", "zip_code": "24450"}], "timezone": "Europe/Paris", "id": "stop_area:OCE:SA:87592501"}, {"codes": [{"type": "CR-CI-CH", "value": "0087-753541-BV"}, {"type": "CR-CI-CH", "value": "0087-753541-BV"}, {"type": "UIC8", "value": "87753541"}, {"type": "external_code", "value": "OCE87753541"}], "name": "La Couronne", "links": [], "coord": {"lat": "43.339846", "lon": "5.051725"}, "label": "La Couronne (Martigues)", "administrative_regions": [{"insee": "13056", "name": "Martigues", "level": 8, "coord": {"lat": "43.4057279", "lon": "5.0548176"}, "label": "Martigues (13500)", "id": "admin:fr:13056", "zip_code": "13500"}], "timezone": "Europe/Paris", "id": "stop_area:OCE:SA:87753541"}, {"codes": [{"type": "CR-CI-CH", "value": "0087-755611-00"}, {"type": "CR-CI-CH", "value": "0087-755611-00"}, {"type": "UIC8", "value": "87755611"}, {"type": "external_code", "value": "OCE87755611"}], "name": "La Crau", "links": [], "coord": {"lat": "43.145155", "lon": "6.068241"}, "label": "La Crau (La Crau)", "administrative_regions": [{"insee": "83047", "name": "La Crau", "level": 8, "coord": {"lat": "43.1497034", "lon": "6.0737053"}, "label": "La Crau (83260)", "id": "admin:fr:83047", "zip_code": "83260"}], "timezone": "Europe/Paris", "id": "stop_area:OCE:SA:87755611"}, {"codes": [{"type": "CR-CI-CH", "value": "0087-758748-00"}, {"type": "CR-CI-CH", "value": "0087-758748-00"}, {"type": "UIC8", "value": "87758748"}, {"type": "external_code", "value": "OCE87758748"}], "name": "La Croix-de-Berny", "links": [], "coord": {"lat": "48.762433", "lon": "2.304884"}, "label": "La Croix-de-Berny (Antony)", "administrative_regions": [{"insee": "92002", "name": "Antony", "level": 8, "coord": {"lat": "48.753554", "lon": "2.2959423"}, "label": "Antony (92160)", "id": "admin:fr:92002", "zip_code": "92160"}], "timezone": "Europe/Paris", "id": "stop_area:OCE:SA:87758748"}, {"codes": [{"type": "CR-CI-CH", "value": "0087-481689-BV"}, {"type": "CR-CI-CH", "value": "0087-481689-BV"}, {"type": "UIC8", "value": "87481689"}, {"type": "external_code", "value": "OCE87481689"}], "name": "La Croix-de-M\u00e9an", "links": [], "coord": {"lat": "47.300547", "lon": "-2.193"}, "label": "La Croix-de-M\u00e9an (Saint-Nazaire)", "administrative_regions": [{"insee": "44184", "name": "Saint-Nazaire", "level": 8, "coord": {"lat": "47.2733517", "lon": "-2.2138905"}, "label": "Saint-Nazaire (44600)", "id": "admin:fr:44184", "zip_code": "44600"}], "timezone": "Europe/Paris", "id": "stop_area:OCE:SA:87481689"}, {"codes": [{"type": "CR-CI-CH", "value": "0087-485474-00"}, {"type": "CR-CI-CH", "value": "0087-485474-00"}, {"type": "UIC8", "value": "87485474"}, {"type": "external_code", "value": "OCE87485474"}], "name": "La Cr\u00e8che", "links": [], "coord": {"lat": "46.360423", "lon": "-0.296278"}, "label": "La Cr\u00e8che (La Cr\u00e8che)", "administrative_regions": [{"insee": "79048", "name": "La Cr\u00e8che", "level": 8, "coord": {"lat": "46.3624398", "lon": "-0.2970798"}, "label": "La Cr\u00e8che (79260)", "id": "admin:fr:79048", "zip_code": "79260"}], "timezone": "Europe/Paris", "id": "stop_area:OCE:SA:87485474"}, {"codes": [{"type": "CR-CI-CH", "value": "0087-009696-00"}, {"type": "CR-CI-CH", "value": "0087-009696-00"}, {"type": "UIC8", "value": "87009696"}, {"type": "external_code", "value": "OCE87009696"}], "name": "La Douzill\u00e8re", "links": [], "coord": {"lat": "47.338631", "lon": "0.653003"}, "label": "La Douzill\u00e8re (Jou\u00e9-l\u00e8s-Tours)", "administrative_regions": [{"insee": "37122", "name": "Jou\u00e9-l\u00e8s-Tours", "level": 8, "coord": {"lat": "47.3510905", "lon": "0.6622524"}, "label": "Jou\u00e9-l\u00e8s-Tours (37300)", "id": "admin:fr:37122", "zip_code": "37300"}], "timezone": "Europe/Paris", "id": "stop_area:OCE:SA:87009696"}, {"codes": [{"type": "CR-CI-CH", "value": "0087-382218-BV"}, {"type": "CR-CI-CH", "value": "0087-382218-BV"}, {"type": "UIC8", "value": "87382218"}, {"type": "external_code", "value": "OCE87382218"}], "name": "La D\u00e9fense", "links": [], "coord": {"lat": "48.891576", "lon": "2.238633"}, "label": "La D\u00e9fense (Puteaux)", "administrative_regions": [{"insee": "92062", "name": "Puteaux", "level": 8, "coord": {"lat": "48.8841522", "lon": "2.2368863"}, "label": "Puteaux (92800)", "id": "admin:fr:92062", "zip_code": "92800"}], "timezone": "Europe/Paris", "id": "stop_area:OCE:SA:87382218"}]}