{"pagination": {"start_page": 89, "items_on_page": 25, "items_per_page": 25, "total_result": 4343}, "links": [{"href": "https://api.sncf.com/v1/coverage/sncf/stop_areas/{stop_areas.id}", "type": "stop_areas", "rel": "stop_areas", "templated": true}, {"href": "https://api.sncf.com/v1/coverage/sncf/stop_areas/{stop_areas.id}/route_schedules", "type": "route_schedules", "rel": "route_schedules", "templated": true}, {"href": "https://api.sncf.com/v1/coverage/sncf/stop_areas/{stop_areas.id}/stop_schedules", "type": "stop_schedules", "rel": "stop_schedules", "templated": true}, {"href": "https://api.sncf.com/v1/coverage/sncf/stop_areas/{stop_areas.id}/arrivals", "type": "arrivals", "rel": "arrivals", "templated": true}, {"href": "https://api.sncf.com/v1/coverage/sncf/stop_areas/{stop_areas.id}/departures", "type": "departures", "rel": "departures", "templated": true}, {"href": "https://api.sncf.com/v1/coverage/sncf/stop_areas/{stop_areas.id}/places_nearby", "type": "places_nearby", "rel": "places_nearby", "templated": true}, {"href": "https://api.sncf.com/v1/coverage/sncf/stop_areas/{stop_areas.id}/journeys", "type": "journey", "rel": "journeys", "templated": true}, {"href": "https://api.sncf.com/v1/coverage/sncf/stop_areas/{stop_areas.id}/traffic_reports", "type": "disruption", "rel": "disruptions", "templated": true}, {"href": "https://api.sncf.com/v1/coverage/sncf/stop_areas?start_page=88", "type": "previous", "templated": false}, {"href": "https://api.sncf.com/v1/coverage/sncf/stop_areas?start_page=90", "type": "next", "templated": false}, {"href": "https://api.sncf.com/v1/coverage/sncf/stop_areas?start_page=173", "type": "last", "templated": false}, {"href": "https://api.sncf.com/v1/coverage/sncf/stop_areas", "type": "first", "templated": false}], "disruptions": [], "feed_publishers": [], "context": {"timezone": "Europe/Paris", "current_datetime": "20200210T135440"}, "stop_areas": [{"codes": [{"type": "CR-CI-CH", "value": "0087-345231-00"}, {"type": "CR-CI-CH", "value": "0087-345231-00"}, {"type": "UIC8", "value": "87345231"}, {"type": "external_code", "value": "OCE87345231"}], "name": "Loison sous Lens", "links": [], "coord": {"lat": "50.440473", "lon": "2.859365"}, "label": "Loison sous Lens (Loison-sous-Lens)", "administrative_regions": [{"insee": "62523", "name": "Loison-sous-Lens", "level": 8, "coord": {"lat": "50.4426254", "lon": "2.8623894"}, "label": "Loison-sous-Lens (62218)", "id": "admin:fr:62523", "zip_code": "62218"}], "timezone": "Europe/Paris", "id": "stop_area:OCE:SA:87345231"}, {"codes": [{"type": "CR-CI-CH", "value": "0087-171728-00"}, {"type": "CR-CI-CH", "value": "0087-171728-00"}, {"type": "UIC8", "value": "87171728"}, {"type": "external_code", "value": "OCE87171728"}], "name": "Loivre", "links": [], "coord": {"lat": "49.346751", "lon": "3.990411"}, "label": "Loivre (Loivre)", "administrative_regions": [{"insee": "51329", "name": "Loivre", "level": 8, "coord": {"lat": "49.3462654", "lon": "3.9801594"}, "label": "Loivre (51220)", "id": "admin:fr:51329", "zip_code": "51220"}], "timezone": "Europe/Paris", "id": "stop_area:OCE:SA:87171728"}, {"codes": [{"type": "CR-CI-CH", "value": "0070-154005-BV"}, {"type": "CR-CI-CH", "value": "0070-154005-BV"}, {"type": "UIC8", "value": "70154005"}, {"type": "external_code", "value": "OCE70154005"}], "name": "London St P. / Londres", "links": [], "coord": {"lat": "51.53084", "lon": "-0.125751"}, "label": "London St P. / Londres (London)", "administrative_regions": [{"insee": "", "name": "London", "level": 8, "coord": {"lat": "51.5073219", "lon": "-0.1276474"}, "label": "London", "id": "admin:osm:relation:65606", "zip_code": ""}], "timezone": "Europe/Paris", "id": "stop_area:OCE:SA:70154005"}, {"codes": [{"type": "CR-CI-CH", "value": "0087-611053-00"}, {"type": "CR-CI-CH", "value": "0087-611053-00"}, {"type": "UIC8", "value": "87611053"}, {"type": "external_code", "value": "OCE87611053"}], "name": "Longages-No\u00e9", "links": [], "coord": {"lat": "43.356207", "lon": "1.251987"}, "label": "Longages-No\u00e9 (Longages)", "administrative_regions": [{"insee": "31303", "name": "Longages", "level": 8, "coord": {"lat": "43.3555742", "lon": "1.2399766"}, "label": "Longages (31410)", "id": "admin:fr:31303", "zip_code": "31410"}], "timezone": "Europe/Paris", "id": "stop_area:OCE:SA:87611053"}, {"codes": [{"type": "CR-CI-CH", "value": "0087-215574-00"}, {"type": "CR-CI-CH", "value": "0087-215574-00"}, {"type": "UIC8", "value": "87215574"}, {"type": "external_code", "value": "OCE87215574"}], "name": "Longchamp-sur-Aujon", "links": [], "coord": {"lat": "48.148056", "lon": "4.83305"}, "label": "Longchamp-sur-Aujon (Longchamp-sur-Aujon)", "administrative_regions": [{"insee": "10203", "name": "Longchamp-sur-Aujon", "level": 8, "coord": {"lat": "48.1499579", "lon": "4.8326922"}, "label": "Longchamp-sur-Aujon (10310)", "id": "admin:fr:10203", "zip_code": "10310"}], "timezone": "Europe/Paris", "id": "stop_area:OCE:SA:87215574"}, {"codes": [{"type": "CR-CI-CH", "value": "0087-712620-00"}, {"type": "CR-CI-CH", "value": "0087-712620-00"}, {"type": "UIC8", "value": "87712620"}, {"type": "external_code", "value": "OCE87712620"}], "name": "Longecourt-en-Plaine", "links": [], "coord": {"lat": "47.19387", "lon": "5.134814"}, "label": "Longecourt-en-Plaine (Longecourt-en-Plaine)", "administrative_regions": [{"insee": "21353", "name": "Longecourt-en-Plaine", "level": 8, "coord": {"lat": "47.19766", "lon": "5.1493"}, "label": "Longecourt-en-Plaine (21110)", "id": "admin:fr:21353", "zip_code": "21110"}], "timezone": "Europe/Paris", "id": "stop_area:OCE:SA:87712620"}, {"codes": [{"type": "CR-CI-CH", "value": "0087-515601-HR"}, {"type": "CR-CI-CH", "value": "0087-515601-HR"}, {"type": "UIC8", "value": "87515601"}, {"type": "external_code", "value": "OCE87515601"}], "name": "Longeville-Sur-Mogne-Ma", "links": [], "coord": {"lat": "48.148805", "lon": "4.059678"}, "label": "Longeville-Sur-Mogne-Ma (Longeville-sur-Mogne)", "administrative_regions": [{"insee": "10204", "name": "Longeville-sur-Mogne", "level": 8, "coord": {"lat": "48.1447313", "lon": "4.0559076"}, "label": "Longeville-sur-Mogne (10320)", "id": "admin:fr:10204", "zip_code": "10320"}], "timezone": "Europe/Paris", "id": "stop_area:OCE:SA:87515601"}, {"codes": [{"type": "CR-CI-CH", "value": "0087-393611-00"}, {"type": "CR-CI-CH", "value": "0087-393611-00"}, {"type": "UIC8", "value": "87393611"}, {"type": "external_code", "value": "OCE87393611"}], "name": "Longjumeau", "links": [], "coord": {"lat": "48.702172", "lon": "2.294384"}, "label": "Longjumeau (Longjumeau)", "administrative_regions": [{"insee": "91345", "name": "Longjumeau", "level": 8, "coord": {"lat": "48.6943793", "lon": "2.2953297"}, "label": "Longjumeau (91160)", "id": "admin:fr:91345", "zip_code": "91160"}], "timezone": "Europe/Paris", "id": "stop_area:OCE:SA:87393611"}, {"codes": [{"type": "CR-CI-CH", "value": "0087-271775-00"}, {"type": "CR-CI-CH", "value": "0087-271775-00"}, {"type": "UIC8", "value": "87271775"}, {"type": "external_code", "value": "OCE87271775"}], "name": "Longpont", "links": [], "coord": {"lat": "49.272642", "lon": "3.230221"}, "label": "Longpont (Longpont)", "administrative_regions": [{"insee": "2438", "name": "Longpont", "level": 8, "coord": {"lat": "49.2731771", "lon": "3.2201765"}, "label": "Longpont (02600)", "id": "admin:fr:2438", "zip_code": "02600"}], "timezone": "Europe/Paris", "id": "stop_area:OCE:SA:87271775"}, {"codes": [{"type": "CR-CI-CH", "value": "0087-313122-00"}, {"type": "CR-CI-CH", "value": "0087-313122-00"}, {"type": "UIC8", "value": "87313122"}, {"type": "external_code", "value": "OCE87313122"}], "name": "Longpr\u00e9-Corps-Saints", "links": [], "coord": {"lat": "50.011331", "lon": "2.002784"}, "label": "Longpr\u00e9-Corps-Saints (Longpr\u00e9-les-Corps-Saints)", "administrative_regions": [{"insee": "80488", "name": "Longpr\u00e9-les-Corps-Saints", "level": 8, "coord": {"lat": "50.013403", "lon": "1.9917431"}, "label": "Longpr\u00e9-les-Corps-Saints (80510)", "id": "admin:fr:80488", "zip_code": "80510"}], "timezone": "Europe/Paris", "id": "stop_area:OCE:SA:87313122"}, {"codes": [{"type": "CR-CI-CH", "value": "0087-313817-00"}, {"type": "CR-CI-CH", "value": "0087-313817-00"}, {"type": "UIC8", "value": "87313817"}, {"type": "external_code", "value": "OCE87313817"}], "name": "Longroy-Gamaches", "links": [], "coord": {"lat": "49.981947", "lon": "1.552815"}, "label": "Longroy-Gamaches (Longroy)", "administrative_regions": [{"insee": "76394", "name": "Longroy", "level": 8, "coord": {"lat": "49.98896", "lon": "1.53568"}, "label": "Longroy (76260)", "id": "admin:fr:76394", "zip_code": "76260"}], "timezone": "Europe/Paris", "id": "stop_area:OCE:SA:87313817"}, {"codes": [{"type": "CR-CI-CH", "value": "0087-313049-BV"}, {"type": "CR-CI-CH", "value": "0087-313049-BV"}, {"type": "UIC8", "value": "87313049"}, {"type": "external_code", "value": "OCE87313049"}], "name": "Longueau", "links": [], "coord": {"lat": "49.863438", "lon": "2.352228"}, "label": "Longueau (Boves)", "administrative_regions": [{"insee": "80131", "name": "Boves", "level": 8, "coord": {"lat": "49.8463524", "lon": "2.3932912"}, "label": "Boves (80440)", "id": "admin:fr:80131", "zip_code": "80440"}], "timezone": "Europe/Paris", "id": "stop_area:OCE:SA:87313049"}, {"codes": [{"type": "CR-CI-CH", "value": "0087-272195-00"}, {"type": "CR-CI-CH", "value": "0087-272195-00"}, {"type": "UIC8", "value": "87272195"}, {"type": "external_code", "value": "OCE87272195"}], "name": "Longueil-Annel", "links": [], "coord": {"lat": "49.467227", "lon": "2.863209"}, "label": "Longueil-Annel (Longueil-Annel)", "administrative_regions": [{"insee": "60368", "name": "Longueil-Annel", "level": 8, "coord": {"lat": "49.469411", "lon": "2.863719"}, "label": "Longueil-Annel (60150)", "id": "admin:fr:60368", "zip_code": "60150"}], "timezone": "Europe/Paris", "id": "stop_area:OCE:SA:87272195"}, {"codes": [{"type": "CR-CI-CH", "value": "0087-276303-BV"}, {"type": "CR-CI-CH", "value": "0087-276303-BV"}, {"type": "UIC8", "value": "87276303"}, {"type": "external_code", "value": "OCE87276303"}], "name": "Longueil-Ste-Marie", "links": [], "coord": {"lat": "49.342441", "lon": "2.717881"}, "label": "Longueil-Ste-Marie (Longueil-Sainte-Marie)", "administrative_regions": [{"insee": "60369", "name": "Longueil-Sainte-Marie", "level": 8, "coord": {"lat": "49.3576636", "lon": "2.7176908"}, "label": "Longueil-Sainte-Marie (60126)", "id": "admin:fr:60369", "zip_code": "60126"}], "timezone": "Europe/Paris", "id": "stop_area:OCE:SA:87276303"}, {"codes": [{"type": "CR-CI-CH", "value": "0087-411447-00"}, {"type": "CR-CI-CH", "value": "0087-411447-00"}, {"type": "UIC8", "value": "87411447"}, {"type": "external_code", "value": "OCE87411447"}], "name": "Longuerue-Vieux-Manoir", "links": [], "coord": {"lat": "49.556827", "lon": "1.276671"}, "label": "Longuerue-Vieux-Manoir (Vieux-Manoir)", "administrative_regions": [{"insee": "76738", "name": "Vieux-Manoir", "level": 8, "coord": {"lat": "49.5666887", "lon": "1.2970562"}, "label": "Vieux-Manoir (76750)", "id": "admin:fr:76738", "zip_code": "76750"}], "timezone": "Europe/Paris", "id": "stop_area:OCE:SA:87411447"}, {"codes": [{"type": "CR-CI-CH", "value": "0087-116137-00"}, {"type": "CR-CI-CH", "value": "0087-116137-00"}, {"type": "UIC8", "value": "87116137"}, {"type": "external_code", "value": "OCE87116137"}], "name": "Longueville (S.-et-M.)", "links": [], "coord": {"lat": "48.513511", "lon": "3.249685"}, "label": "Longueville (S.-et-M.) (Longueville)", "administrative_regions": [{"insee": "77260", "name": "Longueville", "level": 8, "coord": {"lat": "48.5144795", "lon": "3.2473223"}, "label": "Longueville (77650)", "id": "admin:fr:77260", "zip_code": "77650"}], "timezone": "Europe/Paris", "id": "stop_area:OCE:SA:87116137"}, {"codes": [{"type": "CR-CI-CH", "value": "0087-415141-00"}, {"type": "CR-CI-CH", "value": "0087-415141-00"}, {"type": "UIC8", "value": "87415141"}, {"type": "external_code", "value": "OCE87415141"}], "name": "Longueville-sur-Scie", "links": [], "coord": {"lat": "49.791596", "lon": "1.110547"}, "label": "Longueville-sur-Scie (Longueville-sur-Scie)", "administrative_regions": [{"insee": "76397", "name": "Longueville-sur-Scie", "level": 8, "coord": {"lat": "49.7913292", "lon": "1.1098443"}, "label": "Longueville-sur-Scie (76590)", "id": "admin:fr:76397", "zip_code": "76590"}], "timezone": "Europe/Paris", "id": "stop_area:OCE:SA:87415141"}, {"codes": [{"type": "CR-CI-CH", "value": "0087-194274-BV"}, {"type": "CR-CI-CH", "value": "0087-194274-BV"}, {"type": "UIC8", "value": "87194274"}, {"type": "external_code", "value": "OCE87194274"}], "name": "Longuyon", "links": [], "coord": {"lat": "49.444275", "lon": "5.604598"}, "label": "Longuyon (Longuyon)", "administrative_regions": [{"insee": "54322", "name": "Longuyon", "level": 8, "coord": {"lat": "49.4461066", "lon": "5.600732"}, "label": "Longuyon (54260)", "id": "admin:fr:54322", "zip_code": "54260"}], "timezone": "Europe/Paris", "id": "stop_area:OCE:SA:87194274"}, {"codes": [{"type": "CR-CI-CH", "value": "0087-406603-00"}, {"type": "CR-CI-CH", "value": "0087-406603-00"}, {"type": "UIC8", "value": "87406603"}, {"type": "external_code", "value": "OCE87406603"}], "name": "Longuyon (Coll\u00e8ge)", "links": [], "coord": {"lat": "49.434433", "lon": "5.614433"}, "label": "Longuyon (Coll\u00e8ge) (Longuyon)", "administrative_regions": [{"insee": "54322", "name": "Longuyon", "level": 8, "coord": {"lat": "49.4461066", "lon": "5.600732"}, "label": "Longuyon (54260)", "id": "admin:fr:54322", "zip_code": "54260"}], "timezone": "Europe/Paris", "id": "stop_area:OCE:SA:87406603"}, {"codes": [{"type": "CR-CI-CH", "value": "0087-406702-00"}, {"type": "CR-CI-CH", "value": "0087-406702-00"}, {"type": "UIC8", "value": "87406702"}, {"type": "external_code", "value": "OCE87406702"}], "name": "Longuyon (La Machine)", "links": [], "coord": {"lat": "49.453927", "lon": "5.600428"}, "label": "Longuyon (La Machine) (Longuyon)", "administrative_regions": [{"insee": "54322", "name": "Longuyon", "level": 8, "coord": {"lat": "49.4461066", "lon": "5.600732"}, "label": "Longuyon (54260)", "id": "admin:fr:54322", "zip_code": "54260"}], "timezone": "Europe/Paris", "id": "stop_area:OCE:SA:87406702"}, {"codes": [{"type": "CR-CI-CH", "value": "0087-406611-00"}, {"type": "CR-CI-CH", "value": "0087-406611-00"}, {"type": "UIC8", "value": "87406611"}, {"type": "external_code", "value": "OCE87406611"}], "name": "Longuyon (Pont-2-Eaux)", "links": [], "coord": {"lat": "49.448647", "lon": "5.599512"}, "label": "Longuyon (Pont-2-Eaux) (Longuyon)", "administrative_regions": [{"insee": "54322", "name": "Longuyon", "level": 8, "coord": {"lat": "49.4461066", "lon": "5.600732"}, "label": "Longuyon (54260)", "id": "admin:fr:54322", "zip_code": "54260"}], "timezone": "Europe/Paris", "id": "stop_area:OCE:SA:87406611"}, {"codes": [{"type": "CR-CI-CH", "value": "0087-194001-BV"}, {"type": "CR-CI-CH", "value": "0087-194001-BV"}, {"type": "UIC8", "value": "87194001"}, {"type": "external_code", "value": "OCE87194001"}], "name": "Longwy", "links": [], "coord": {"lat": "49.513026", "lon": "5.769596"}, "label": "Longwy (Longwy)", "administrative_regions": [{"insee": "54323", "name": "Longwy", "level": 8, "coord": {"lat": "49.5145564", "lon": "5.7679082"}, "label": "Longwy (54400)", "id": "admin:fr:54323", "zip_code": "54400"}], "timezone": "Europe/Paris", "id": "stop_area:OCE:SA:87194001"}, {"codes": [{"type": "CR-CI-CH", "value": "0087-406710-HR"}, {"type": "CR-CI-CH", "value": "0087-406710-HR"}, {"type": "UIC8", "value": "87406710"}, {"type": "external_code", "value": "OCE87406710"}], "name": "Longwy-Espace-Bus", "links": [], "coord": {"lat": "49.513643", "lon": "5.768754"}, "label": "Longwy-Espace-Bus (Longwy)", "administrative_regions": [{"insee": "54323", "name": "Longwy", "level": 8, "coord": {"lat": "49.5145564", "lon": "5.7679082"}, "label": "Longwy (54400)", "id": "admin:fr:54323", "zip_code": "54400"}], "timezone": "Europe/Paris", "id": "stop_area:OCE:SA:87406710"}, {"codes": [{"type": "CR-CI-CH", "value": "0087-477588-HR"}, {"type": "CR-CI-CH", "value": "0087-477588-HR"}, {"type": "UIC8", "value": "87477588"}, {"type": "external_code", "value": "OCE87477588"}], "name": "Longwy-Route-de-Metz", "links": [], "coord": {"lat": "49.511939", "lon": "5.762605"}, "label": "Longwy-Route-de-Metz (Longwy)", "administrative_regions": [{"insee": "54323", "name": "Longwy", "level": 8, "coord": {"lat": "49.5145564", "lon": "5.7679082"}, "label": "Longwy (54400)", "id": "admin:fr:54323", "zip_code": "54400"}], "timezone": "Europe/Paris", "id": "stop_area:OCE:SA:87477588"}, {"codes": [{"type": "CR-CI-CH", "value": "0087-449868-00"}, {"type": "CR-CI-CH", "value": "0087-449868-00"}, {"type": "UIC8", "value": "87449868"}, {"type": "external_code", "value": "OCE87449868"}], "name": "Lonlay-le-Tesson", "links": [], "coord": {"lat": "48.643329", "lon": "-0.353063"}, "label": "Lonlay-le-Tesson (Lonlay-le-Tesson)", "administrative_regions": [{"insee": "61233", "name": "Lonlay-le-Tesson", "level": 8, "coord": {"lat": "48.6429925", "lon": "-0.353692"}, "label": "Lonlay-le-Tesson (61600)", "id": "admin:fr:61233", "zip_code": "61600"}], "timezone": "Europe/Paris", "id": "stop_area:OCE:SA:87449868"}]}