{"pagination": {"start_page": 16, "items_on_page": 25, "items_per_page": 25, "total_result": 4343}, "links": [{"href": "https://api.sncf.com/v1/coverage/sncf/stop_areas/{stop_areas.id}", "type": "stop_areas", "rel": "stop_areas", "templated": true}, {"href": "https://api.sncf.com/v1/coverage/sncf/stop_areas/{stop_areas.id}/route_schedules", "type": "route_schedules", "rel": "route_schedules", "templated": true}, {"href": "https://api.sncf.com/v1/coverage/sncf/stop_areas/{stop_areas.id}/stop_schedules", "type": "stop_schedules", "rel": "stop_schedules", "templated": true}, {"href": "https://api.sncf.com/v1/coverage/sncf/stop_areas/{stop_areas.id}/arrivals", "type": "arrivals", "rel": "arrivals", "templated": true}, {"href": "https://api.sncf.com/v1/coverage/sncf/stop_areas/{stop_areas.id}/departures", "type": "departures", "rel": "departures", "templated": true}, {"href": "https://api.sncf.com/v1/coverage/sncf/stop_areas/{stop_areas.id}/places_nearby", "type": "places_nearby", "rel": "places_nearby", "templated": true}, {"href": "https://api.sncf.com/v1/coverage/sncf/stop_areas/{stop_areas.id}/journeys", "type": "journey", "rel": "journeys", "templated": true}, {"href": "https://api.sncf.com/v1/coverage/sncf/stop_areas/{stop_areas.id}/traffic_reports", "type": "disruption", "rel": "disruptions", "templated": true}, {"href": "https://api.sncf.com/v1/coverage/sncf/stop_areas?start_page=15", "type": "previous", "templated": false}, {"href": "https://api.sncf.com/v1/coverage/sncf/stop_areas?start_page=17", "type": "next", "templated": false}, {"href": "https://api.sncf.com/v1/coverage/sncf/stop_areas?start_page=173", "type": "last", "templated": false}, {"href": "https://api.sncf.com/v1/coverage/sncf/stop_areas", "type": "first", "templated": false}], "disruptions": [], "feed_publishers": [], "context": {"timezone": "Europe/Paris", "current_datetime": "20200210T135430"}, "stop_areas": [{"codes": [{"type": "CR-CI-CH", "value": "0087-402826-00"}, {"type": "CR-CI-CH", "value": "0087-402826-00"}, {"type": "UIC8", "value": "87402826"}, {"type": "external_code", "value": "OCE87402826"}], "name": "Bienville", "links": [], "coord": {"lat": "48.581659", "lon": "5.045551"}, "label": "Bienville (Eurville-Bienville)", "administrative_regions": [{"insee": "52194", "name": "Eurville-Bienville", "level": 8, "coord": {"lat": "48.5822801", "lon": "5.043705"}, "label": "Eurville-Bienville (52410)", "id": "admin:fr:52194", "zip_code": "52410"}], "timezone": "Europe/Paris", "id": "stop_area:OCE:SA:87402826"}, {"codes": [{"type": "CR-CI-CH", "value": "0087-144188-00"}, {"type": "CR-CI-CH", "value": "0087-144188-00"}, {"type": "UIC8", "value": "87144188"}, {"type": "external_code", "value": "OCE87144188"}], "name": "Biffontaine", "links": [], "coord": {"lat": "48.205873", "lon": "6.806999"}, "label": "Biffontaine (Biffontaine)", "administrative_regions": [{"insee": "88059", "name": "Biffontaine", "level": 8, "coord": {"lat": "48.2113196", "lon": "6.8051625"}, "label": "Biffontaine (88430)", "id": "admin:fr:88059", "zip_code": "88430"}], "timezone": "Europe/Paris", "id": "stop_area:OCE:SA:87144188"}, {"codes": [{"type": "CR-CI-CH", "value": "0087-716456-HR"}, {"type": "UIC8", "value": "87716456"}, {"type": "external_code", "value": "OCE87716456"}], "name": "Biffontaine Mairie", "links": [], "coord": {"lat": "48.211308", "lon": "6.805468"}, "label": "Biffontaine Mairie (Biffontaine)", "administrative_regions": [{"insee": "88059", "name": "Biffontaine", "level": 8, "coord": {"lat": "48.2113196", "lon": "6.8051625"}, "label": "Biffontaine (88430)", "id": "admin:fr:88059", "zip_code": "88430"}], "timezone": "Europe/Paris", "id": "stop_area:OCE:SA:87716456"}, {"codes": [{"type": "CR-CI-CH", "value": "0087-582478-00"}, {"type": "CR-CI-CH", "value": "0087-582478-00"}, {"type": "UIC8", "value": "87582478"}, {"type": "external_code", "value": "OCE87582478"}], "name": "Biganos-Facture", "links": [], "coord": {"lat": "44.637482", "lon": "-0.966021"}, "label": "Biganos-Facture (Biganos)", "administrative_regions": [{"insee": "33051", "name": "Biganos", "level": 8, "coord": {"lat": "44.6440908", "lon": "-0.9696271"}, "label": "Biganos (33380)", "id": "admin:fr:33051", "zip_code": "33380"}], "timezone": "Europe/Paris", "id": "stop_area:OCE:SA:87582478"}, {"codes": [{"type": "CR-CI-CH", "value": "0087-576306-00"}, {"type": "CR-CI-CH", "value": "0087-576306-00"}, {"type": "UIC8", "value": "87576306"}, {"type": "external_code", "value": "OCE87576306"}], "name": "Bigny", "links": [], "coord": {"lat": "46.801897", "lon": "2.368226"}, "label": "Bigny (Vallenay)", "administrative_regions": [{"insee": "18270", "name": "Vallenay", "level": 8, "coord": {"lat": "46.7851658", "lon": "2.3711918"}, "label": "Vallenay (18190)", "id": "admin:fr:18270", "zip_code": "18190"}], "timezone": "Europe/Paris", "id": "stop_area:OCE:SA:87576306"}, {"codes": [{"type": "CR-CI-CH", "value": "0087-345140-00"}, {"type": "CR-CI-CH", "value": "0087-345140-00"}, {"type": "UIC8", "value": "87345140"}, {"type": "external_code", "value": "OCE87345140"}], "name": "Billy Montigny", "links": [], "coord": {"lat": "50.415528", "lon": "2.912034"}, "label": "Billy Montigny (Billy-Montigny)", "administrative_regions": [{"insee": "62133", "name": "Billy-Montigny", "level": 8, "coord": {"lat": "50.4179484", "lon": "2.9116301"}, "label": "Billy-Montigny (62420)", "id": "admin:fr:62133", "zip_code": "62420"}], "timezone": "Europe/Paris", "id": "stop_area:OCE:SA:87345140"}, {"codes": [{"type": "CR-CI-CH", "value": "0087-757690-00"}, {"type": "CR-CI-CH", "value": "0087-757690-00"}, {"type": "UIC8", "value": "87757690"}, {"type": "external_code", "value": "OCE87757690"}], "name": "Biot", "links": [], "coord": {"lat": "43.610902", "lon": "7.126244"}, "label": "Biot (Antibes)", "administrative_regions": [{"insee": "6004", "name": "Antibes", "level": 8, "coord": {"lat": "43.5836", "lon": "7.10905"}, "label": "Antibes (06160-06600)", "id": "admin:fr:6004", "zip_code": "06160;06600"}], "timezone": "Europe/Paris", "id": "stop_area:OCE:SA:87757690"}, {"codes": [{"type": "CR-CI-CH", "value": "0087-212308-BV"}, {"type": "CR-CI-CH", "value": "0087-212308-BV"}, {"type": "UIC8", "value": "87212308"}, {"type": "external_code", "value": "OCE87212308"}], "name": "Bischheim", "links": [], "coord": {"lat": "48.61165", "lon": "7.742136"}, "label": "Bischheim (Schiltigheim)", "administrative_regions": [{"insee": "67447", "name": "Schiltigheim", "level": 8, "coord": {"lat": "48.6047148", "lon": "7.7484488"}, "label": "Schiltigheim (67300)", "id": "admin:fr:67447", "zip_code": "67300"}], "timezone": "Europe/Paris", "id": "stop_area:OCE:SA:87212308"}, {"codes": [{"type": "CR-CI-CH", "value": "0087-658930-HR"}, {"type": "CR-CI-CH", "value": "0087-658930-HR"}, {"type": "UIC8", "value": "87658930"}, {"type": "external_code", "value": "OCE87658930"}], "name": "Bischheim-Arr\u00eat-CTS-R.G", "links": [], "coord": {"lat": "48.614445", "lon": "7.744859"}, "label": "Bischheim-Arr\u00eat-CTS-R.G (Bischheim)", "administrative_regions": [{"insee": "67043", "name": "Bischheim", "level": 8, "coord": {"lat": "48.6148396", "lon": "7.7523716"}, "label": "Bischheim (67800)", "id": "admin:fr:67043", "zip_code": "67800"}], "timezone": "Europe/Paris", "id": "stop_area:OCE:SA:87658930"}, {"codes": [{"type": "CR-CI-CH", "value": "0087-214296-00"}, {"type": "CR-CI-CH", "value": "0087-214296-00"}, {"type": "UIC8", "value": "87214296"}, {"type": "external_code", "value": "OCE87214296"}], "name": "Bischoffsheim", "links": [], "coord": {"lat": "48.48678", "lon": "7.498058"}, "label": "Bischoffsheim (Bischoffsheim)", "administrative_regions": [{"insee": "67045", "name": "Bischoffsheim", "level": 8, "coord": {"lat": "48.4876657", "lon": "7.4901898"}, "label": "Bischoffsheim (67870)", "id": "admin:fr:67045", "zip_code": "67870"}], "timezone": "Europe/Paris", "id": "stop_area:OCE:SA:87214296"}, {"codes": [{"type": "CR-CI-CH", "value": "0087-703470-HR"}, {"type": "UIC8", "value": "87703470"}, {"type": "external_code", "value": "OCE87703470"}], "name": "Bischtroff-Mairie", "links": [], "coord": {"lat": "48.901119", "lon": "7.07184"}, "label": "Bischtroff-Mairie (Sarrewerden)", "administrative_regions": [{"insee": "67435", "name": "Sarrewerden", "level": 8, "coord": {"lat": "48.9227221", "lon": "7.0839626"}, "label": "Sarrewerden (67260)", "id": "admin:fr:67435", "zip_code": "67260"}], "timezone": "Europe/Paris", "id": "stop_area:OCE:SA:87703470"}, {"codes": [{"type": "CR-CI-CH", "value": "0087-213611-BV"}, {"type": "CR-CI-CH", "value": "0087-213611-BV"}, {"type": "UIC8", "value": "87213611"}, {"type": "external_code", "value": "OCE87213611"}], "name": "Bischwiller", "links": [], "coord": {"lat": "48.765425", "lon": "7.851189"}, "label": "Bischwiller (Bischwiller)", "administrative_regions": [{"insee": "67046", "name": "Bischwiller", "level": 8, "coord": {"lat": "48.7682281", "lon": "7.8597466"}, "label": "Bischwiller (67240)", "id": "admin:fr:67046", "zip_code": "67240"}], "timezone": "Europe/Paris", "id": "stop_area:OCE:SA:87213611"}, {"codes": [{"type": "CR-CI-CH", "value": "0087-659813-HR"}, {"type": "CR-CI-CH", "value": "0087-659813-HR"}, {"type": "UIC8", "value": "87659813"}, {"type": "external_code", "value": "OCE87659813"}], "name": "Bischwiller-(Vestra).", "links": [], "coord": {"lat": "48.770589", "lon": "7.847867"}, "label": "Bischwiller-(Vestra). (Bischwiller)", "administrative_regions": [{"insee": "67046", "name": "Bischwiller", "level": 8, "coord": {"lat": "48.7682281", "lon": "7.8597466"}, "label": "Bischwiller (67240)", "id": "admin:fr:67046", "zip_code": "67240"}], "timezone": "Europe/Paris", "id": "stop_area:OCE:SA:87659813"}, {"codes": [{"type": "CR-CI-CH", "value": "0087-659805-HR"}, {"type": "CR-CI-CH", "value": "0087-659805-HR"}, {"type": "UIC8", "value": "87659805"}, {"type": "external_code", "value": "OCE87659805"}], "name": "Bischwiller-Eglise", "links": [], "coord": {"lat": "48.764098", "lon": "7.859771"}, "label": "Bischwiller-Eglise (Bischwiller)", "administrative_regions": [{"insee": "67046", "name": "Bischwiller", "level": 8, "coord": {"lat": "48.7682281", "lon": "7.8597466"}, "label": "Bischwiller (67240)", "id": "admin:fr:67046", "zip_code": "67240"}], "timezone": "Europe/Paris", "id": "stop_area:OCE:SA:87659805"}, {"codes": [{"type": "CR-CI-CH", "value": "0087-193821-00"}, {"type": "CR-CI-CH", "value": "0087-193821-00"}, {"type": "UIC8", "value": "87193821"}, {"type": "external_code", "value": "OCE87193821"}], "name": "Bitche", "links": [], "coord": {"lat": "49.049123", "lon": "7.431601"}, "label": "Bitche (Bitche)", "administrative_regions": [{"insee": "57089", "name": "Bitche", "level": 8, "coord": {"lat": "49.0508729", "lon": "7.4254577"}, "label": "Bitche (57230)", "id": "admin:fr:57089", "zip_code": "57230"}], "timezone": "Europe/Paris", "id": "stop_area:OCE:SA:87193821"}, {"codes": [{"type": "CR-CI-CH", "value": "0087-406934-00"}, {"type": "CR-CI-CH", "value": "0087-406934-00"}, {"type": "UIC8", "value": "87406934"}, {"type": "external_code", "value": "OCE87406934"}], "name": "Bitche (Rue de la Paix)", "links": [], "coord": {"lat": "49.048881", "lon": "7.428604"}, "label": "Bitche (Rue de la Paix) (Bitche)", "administrative_regions": [{"insee": "57089", "name": "Bitche", "level": 8, "coord": {"lat": "49.0508729", "lon": "7.4254577"}, "label": "Bitche (57230)", "id": "admin:fr:57089", "zip_code": "57230"}], "timezone": "Europe/Paris", "id": "stop_area:OCE:SA:87406934"}, {"codes": [{"type": "CR-CI-CH", "value": "0087-193839-00"}, {"type": "CR-CI-CH", "value": "0087-193839-00"}, {"type": "UIC8", "value": "87193839"}, {"type": "external_code", "value": "OCE87193839"}], "name": "Bitche-Camp", "links": [], "coord": {"lat": "49.052865", "lon": "7.477499"}, "label": "Bitche-Camp (Bitche)", "administrative_regions": [{"insee": "57089", "name": "Bitche", "level": 8, "coord": {"lat": "49.0508729", "lon": "7.4254577"}, "label": "Bitche (57230)", "id": "admin:fr:57089", "zip_code": "57230"}], "timezone": "Europe/Paris", "id": "stop_area:OCE:SA:87193839"}, {"codes": [{"type": "CR-CI-CH", "value": "0087-642801-HR"}, {"type": "UIC8", "value": "87642801"}, {"type": "external_code", "value": "OCE87642801"}], "name": "Bitche-Quartier-Driant", "links": [], "coord": {"lat": "49.05497", "lon": "7.456169"}, "label": "Bitche-Quartier-Driant (Bitche)", "administrative_regions": [{"insee": "57089", "name": "Bitche", "level": 8, "coord": {"lat": "49.0508729", "lon": "7.4254577"}, "label": "Bitche (57230)", "id": "admin:fr:57089", "zip_code": "57230"}], "timezone": "Europe/Paris", "id": "stop_area:OCE:SA:87642801"}, {"codes": [{"type": "CR-CI-CH", "value": "0087-182576-00"}, {"type": "CR-CI-CH", "value": "0087-182576-00"}, {"type": "UIC8", "value": "87182576"}, {"type": "external_code", "value": "OCE87182576"}], "name": "Bitschwiller (Ht-Rhin)", "links": [], "coord": {"lat": "47.827795", "lon": "7.078274"}, "label": "Bitschwiller (Ht-Rhin) (Bitschwiller-l\u00e8s-Thann)", "administrative_regions": [{"insee": "68040", "name": "Bitschwiller-l\u00e8s-Thann", "level": 8, "coord": {"lat": "47.8292773", "lon": "7.0790882"}, "label": "Bitschwiller-l\u00e8s-Thann (68620)", "id": "admin:fr:68040", "zip_code": "68620"}], "timezone": "Europe/Paris", "id": "stop_area:OCE:SA:87182576"}, {"codes": [{"type": "CR-CI-CH", "value": "0087-659953-HR"}, {"type": "CR-CI-CH", "value": "0087-659953-HR"}, {"type": "UIC8", "value": "87659953"}, {"type": "external_code", "value": "OCE87659953"}], "name": "Bitschwiller-/-T-Mairie", "links": [], "coord": {"lat": "47.829177", "lon": "7.079736"}, "label": "Bitschwiller-/-T-Mairie (Bitschwiller-l\u00e8s-Thann)", "administrative_regions": [{"insee": "68040", "name": "Bitschwiller-l\u00e8s-Thann", "level": 8, "coord": {"lat": "47.8292773", "lon": "7.0790882"}, "label": "Bitschwiller-l\u00e8s-Thann (68620)", "id": "admin:fr:68040", "zip_code": "68620"}], "timezone": "Europe/Paris", "id": "stop_area:OCE:SA:87659953"}, {"codes": [{"type": "CR-CI-CH", "value": "0087-393546-BV"}, {"type": "CR-CI-CH", "value": "0087-393546-BV"}, {"type": "UIC8", "value": "87393546"}, {"type": "external_code", "value": "OCE87393546"}], "name": "Bi\u00e8vres", "links": [], "coord": {"lat": "48.751256", "lon": "2.215588"}, "label": "Bi\u00e8vres (Bi\u00e8vres)", "administrative_regions": [{"insee": "91064", "name": "Bi\u00e8vres", "level": 8, "coord": {"lat": "48.7547679", "lon": "2.2170148"}, "label": "Bi\u00e8vres (91570)", "id": "admin:fr:91064", "zip_code": "91570"}], "timezone": "Europe/Paris", "id": "stop_area:OCE:SA:87393546"}, {"codes": [{"type": "CR-CI-CH", "value": "0087-688499-00"}, {"type": "CR-CI-CH", "value": "0087-688499-00"}, {"type": "UIC8", "value": "87688499"}, {"type": "external_code", "value": "OCE87688499"}], "name": "Blacons", "links": [], "coord": {"lat": "44.710404", "lon": "5.090696"}, "label": "Blacons (Mirabel-et-Blacons)", "administrative_regions": [{"insee": "26183", "name": "Mirabel-et-Blacons", "level": 8, "coord": {"lat": "44.7096", "lon": "5.09138"}, "label": "Mirabel-et-Blacons (26400)", "id": "admin:fr:26183", "zip_code": "26400"}], "timezone": "Europe/Paris", "id": "stop_area:OCE:SA:87688499"}, {"codes": [{"type": "CR-CI-CH", "value": "0087-172387-00"}, {"type": "CR-CI-CH", "value": "0087-172387-HR"}, {"type": "UIC8", "value": "87172387"}, {"type": "external_code", "value": "OCE87172387"}], "name": "Blagny", "links": [], "coord": {"lat": "49.619637", "lon": "5.189692"}, "label": "Blagny (Blagny)", "administrative_regions": [{"insee": "8067", "name": "Blagny", "level": 8, "coord": {"lat": "49.62042", "lon": "5.18984"}, "label": "Blagny (08110)", "id": "admin:fr:8067", "zip_code": "08110"}], "timezone": "Europe/Paris", "id": "stop_area:OCE:SA:87172387"}, {"codes": [{"type": "CR-CI-CH", "value": "0087-141135-BV"}, {"type": "CR-CI-CH", "value": "0087-141135-BV"}, {"type": "UIC8", "value": "87141135"}, {"type": "external_code", "value": "OCE87141135"}], "name": "Blainville-Damelevi\u00e8res", "links": [], "coord": {"lat": "48.564914", "lon": "6.38672"}, "label": "Blainville-Damelevi\u00e8res (Damelevi\u00e8res)", "administrative_regions": [{"insee": "54152", "name": "Damelevi\u00e8res", "level": 8, "coord": {"lat": "48.557112", "lon": "6.3871266"}, "label": "Damelevi\u00e8res (54360)", "id": "admin:fr:54152", "zip_code": "54360"}], "timezone": "Europe/Paris", "id": "stop_area:OCE:SA:87141135"}, {"codes": [{"type": "CR-CI-CH", "value": "0087-713073-00"}, {"type": "CR-CI-CH", "value": "0087-713073-00"}, {"type": "UIC8", "value": "87713073"}, {"type": "external_code", "value": "OCE87713073"}], "name": "Blaisy-Bas", "links": [], "coord": {"lat": "47.373254", "lon": "4.741372"}, "label": "Blaisy-Bas (Blaisy-Bas)", "administrative_regions": [{"insee": "21080", "name": "Blaisy-Bas", "level": 8, "coord": {"lat": "47.3720927", "lon": "4.7409678"}, "label": "Blaisy-Bas (21540)", "id": "admin:fr:21080", "zip_code": "21540"}], "timezone": "Europe/Paris", "id": "stop_area:OCE:SA:87713073"}]}