{"pagination": {"start_page": 116, "items_on_page": 25, "items_per_page": 25, "total_result": 4343}, "links": [{"href": "https://api.sncf.com/v1/coverage/sncf/stop_areas/{stop_areas.id}", "type": "stop_areas", "rel": "stop_areas", "templated": true}, {"href": "https://api.sncf.com/v1/coverage/sncf/stop_areas/{stop_areas.id}/route_schedules", "type": "route_schedules", "rel": "route_schedules", "templated": true}, {"href": "https://api.sncf.com/v1/coverage/sncf/stop_areas/{stop_areas.id}/stop_schedules", "type": "stop_schedules", "rel": "stop_schedules", "templated": true}, {"href": "https://api.sncf.com/v1/coverage/sncf/stop_areas/{stop_areas.id}/arrivals", "type": "arrivals", "rel": "arrivals", "templated": true}, {"href": "https://api.sncf.com/v1/coverage/sncf/stop_areas/{stop_areas.id}/departures", "type": "departures", "rel": "departures", "templated": true}, {"href": "https://api.sncf.com/v1/coverage/sncf/stop_areas/{stop_areas.id}/places_nearby", "type": "places_nearby", "rel": "places_nearby", "templated": true}, {"href": "https://api.sncf.com/v1/coverage/sncf/stop_areas/{stop_areas.id}/journeys", "type": "journey", "rel": "journeys", "templated": true}, {"href": "https://api.sncf.com/v1/coverage/sncf/stop_areas/{stop_areas.id}/traffic_reports", "type": "disruption", "rel": "disruptions", "templated": true}, {"href": "https://api.sncf.com/v1/coverage/sncf/stop_areas?start_page=115", "type": "previous", "templated": false}, {"href": "https://api.sncf.com/v1/coverage/sncf/stop_areas?start_page=117", "type": "next", "templated": false}, {"href": "https://api.sncf.com/v1/coverage/sncf/stop_areas?start_page=173", "type": "last", "templated": false}, {"href": "https://api.sncf.com/v1/coverage/sncf/stop_areas", "type": "first", "templated": false}], "disruptions": [], "feed_publishers": [], "context": {"timezone": "Europe/Paris", "current_datetime": "20200210T135443"}, "stop_areas": [{"codes": [{"type": "CR-CI-CH", "value": "0087-271585-00"}, {"type": "CR-CI-CH", "value": "0087-271585-00"}, {"type": "UIC8", "value": "87271585"}, {"type": "external_code", "value": "OCE87271585"}], "name": "Ormoy-Villers", "links": [], "coord": {"lat": "49.200893", "lon": "2.838112"}, "label": "Ormoy-Villers (Ormoy-Villers)", "administrative_regions": [{"insee": "60479", "name": "Ormoy-Villers", "level": 8, "coord": {"lat": "49.1969222", "lon": "2.8439715"}, "label": "Ormoy-Villers (60800)", "id": "admin:fr:60479", "zip_code": "60800"}], "timezone": "Europe/Paris", "id": "stop_area:OCE:SA:87271585"}, {"codes": [{"type": "CR-CI-CH", "value": "0087-276279-BV"}, {"type": "CR-CI-CH", "value": "0087-276279-BV"}, {"type": "UIC8", "value": "87276279"}, {"type": "external_code", "value": "OCE87276279"}], "name": "Orry-la-Ville-Coye", "links": [], "coord": {"lat": "49.138713", "lon": "2.489594"}, "label": "Orry-la-Ville-Coye (Orry-la-Ville)", "administrative_regions": [{"insee": "60482", "name": "Orry-la-Ville", "level": 8, "coord": {"lat": "49.1319194", "lon": "2.5124803"}, "label": "Orry-la-Ville (60560)", "id": "admin:fr:60482", "zip_code": "60560"}], "timezone": "Europe/Paris", "id": "stop_area:OCE:SA:87276279"}, {"codes": [{"type": "CR-CI-CH", "value": "0087-295667-00"}, {"type": "CR-CI-CH", "value": "0087-295667-00"}, {"type": "UIC8", "value": "87295667"}, {"type": "external_code", "value": "OCE87295667"}], "name": "Ors", "links": [], "coord": {"lat": "50.103386", "lon": "3.626911"}, "label": "Ors (Ors)", "administrative_regions": [{"insee": "59450", "name": "Ors", "level": 8, "coord": {"lat": "50.0995667", "lon": "3.6334876"}, "label": "Ors (59360)", "id": "admin:fr:59450", "zip_code": "59360"}], "timezone": "Europe/Paris", "id": "stop_area:OCE:SA:87295667"}, {"codes": [{"type": "CR-CI-CH", "value": "0087-758847-00"}, {"type": "CR-CI-CH", "value": "0087-758847-00"}, {"type": "UIC8", "value": "87758847"}, {"type": "external_code", "value": "OCE87758847"}], "name": "Orsay-Ville", "links": [], "coord": {"lat": "48.697692", "lon": "2.182175"}, "label": "Orsay-Ville (Orsay)", "administrative_regions": [{"insee": "91471", "name": "Orsay", "level": 8, "coord": {"lat": "48.699184", "lon": "2.187457"}, "label": "Orsay (91400)", "id": "admin:fr:91471", "zip_code": "91400"}], "timezone": "Europe/Paris", "id": "stop_area:OCE:SA:87758847"}, {"codes": [{"type": "CR-CI-CH", "value": "0087-643429-HR"}, {"type": "CR-CI-CH", "value": "0087-643429-HR"}, {"type": "UIC8", "value": "87643429"}, {"type": "external_code", "value": "OCE87643429"}], "name": "Orschwiller-Chapelle", "links": [], "coord": {"lat": "48.241122", "lon": "7.383904"}, "label": "Orschwiller-Chapelle (Orschwiller)", "administrative_regions": [{"insee": "67362", "name": "Orschwiller", "level": 8, "coord": {"lat": "48.2422436", "lon": "7.3799809"}, "label": "Orschwiller (67600)", "id": "admin:fr:67362", "zip_code": "67600"}], "timezone": "Europe/Paris", "id": "stop_area:OCE:SA:87643429"}, {"codes": [{"type": "CR-CI-CH", "value": "0087-672253-BV"}, {"type": "CR-CI-CH", "value": "0087-672253-BV"}, {"type": "UIC8", "value": "87672253"}, {"type": "external_code", "value": "OCE87672253"}], "name": "Orthez", "links": [], "coord": {"lat": "43.484099", "lon": "-0.767625"}, "label": "Orthez (Orthez)", "administrative_regions": [{"insee": "64430", "name": "Orthez", "level": 8, "coord": {"lat": "43.4874963", "lon": "-0.7738363"}, "label": "Orthez (64300)", "id": "admin:fr:64430", "zip_code": "64300"}], "timezone": "Europe/Paris", "id": "stop_area:OCE:SA:87672253"}, {"codes": [{"type": "CR-CI-CH", "value": "0087-381145-00"}, {"type": "CR-CI-CH", "value": "0087-381145-00"}, {"type": "UIC8", "value": "87381145"}, {"type": "external_code", "value": "OCE87381145"}], "name": "Osny", "links": [], "coord": {"lat": "49.062824", "lon": "2.057638"}, "label": "Osny (Osny)", "administrative_regions": [{"insee": "95476", "name": "Osny", "level": 8, "coord": {"lat": "49.0660487", "lon": "2.0614598"}, "label": "Osny (95520)", "id": "admin:fr:95476", "zip_code": "95520"}], "timezone": "Europe/Paris", "id": "stop_area:OCE:SA:87381145"}, {"codes": [{"type": "CR-CI-CH", "value": "0087-671313-00"}, {"type": "CR-CI-CH", "value": "0087-671313-00"}, {"type": "UIC8", "value": "87671313"}, {"type": "external_code", "value": "OCE87671313"}], "name": "Ossun", "links": [], "coord": {"lat": "43.183316", "lon": "-0.021608"}, "label": "Ossun (Ossun)", "administrative_regions": [{"insee": "65344", "name": "Ossun", "level": 8, "coord": {"lat": "43.1831715", "lon": "-0.0268132"}, "label": "Ossun (65380)", "id": "admin:fr:65344", "zip_code": "65380"}], "timezone": "Europe/Paris", "id": "stop_area:OCE:SA:87671313"}, {"codes": [{"type": "CR-CI-CH", "value": "0087-673707-BV"}, {"type": "CR-CI-CH", "value": "0087-673707-BV"}, {"type": "UIC8", "value": "87673707"}, {"type": "external_code", "value": "OCE87673707"}], "name": "Oss\u00e8s-St-Mart-d'Arrossa", "links": [], "coord": {"lat": "43.23515", "lon": "-1.30499"}, "label": "Oss\u00e8s-St-Mart-d'Arrossa (Saint-Martin-d'Arrossa)", "administrative_regions": [{"insee": "64490", "name": "Saint-Martin-d'Arrossa", "level": 8, "coord": {"lat": "43.2384661", "lon": "-1.3127825"}, "label": "Saint-Martin-d'Arrossa (64780)", "id": "admin:fr:64490", "zip_code": "64780"}], "timezone": "Europe/Paris", "id": "stop_area:OCE:SA:87673707"}, {"codes": [{"type": "CR-CI-CH", "value": "0087-784868-00"}, {"type": "CR-CI-CH", "value": "0087-784868-00"}, {"type": "UIC8", "value": "87784868"}, {"type": "external_code", "value": "OCE87784868"}], "name": "Oss\u00e9ja", "links": [], "coord": {"lat": "42.420133", "lon": "1.97782"}, "label": "Oss\u00e9ja (Oss\u00e9ja)", "administrative_regions": [{"insee": "66130", "name": "Oss\u00e9ja", "level": 8, "coord": {"lat": "42.4150541", "lon": "1.9811191"}, "label": "Oss\u00e9ja (66340)", "id": "admin:fr:66130", "zip_code": "66340"}], "timezone": "Europe/Paris", "id": "stop_area:OCE:SA:87784868"}, {"codes": [{"type": "CR-CI-CH", "value": "0087-345249-00"}, {"type": "CR-CI-CH", "value": "0087-345249-00"}, {"type": "UIC8", "value": "87345249"}, {"type": "external_code", "value": "OCE87345249"}], "name": "Ostricourt", "links": [], "coord": {"lat": "50.4452", "lon": "3.03202"}, "label": "Ostricourt (Ostricourt)", "administrative_regions": [{"insee": "59452", "name": "Ostricourt", "level": 8, "coord": {"lat": "50.4538801", "lon": "3.0314735"}, "label": "Ostricourt (59162)", "id": "admin:fr:59452", "zip_code": "59162"}], "timezone": "Europe/Paris", "id": "stop_area:OCE:SA:87345249"}, {"codes": [{"type": "CR-CI-CH", "value": "0087-481184-00"}, {"type": "CR-CI-CH", "value": "0087-481184-00"}, {"type": "UIC8", "value": "87481184"}, {"type": "external_code", "value": "OCE87481184"}], "name": "Oudon", "links": [], "coord": {"lat": "47.343339", "lon": "-1.292019"}, "label": "Oudon (Oudon)", "administrative_regions": [{"insee": "44115", "name": "Oudon", "level": 8, "coord": {"lat": "47.3466877", "lon": "-1.2861611"}, "label": "Oudon (44521)", "id": "admin:fr:44115", "zip_code": "44521"}], "timezone": "Europe/Paris", "id": "stop_area:OCE:SA:87481184"}, {"codes": [{"type": "CR-CI-CH", "value": "0087-712604-00"}, {"type": "CR-CI-CH", "value": "0087-712604-00"}, {"type": "UIC8", "value": "87712604"}, {"type": "external_code", "value": "OCE87712604"}], "name": "Ouges", "links": [], "coord": {"lat": "47.255673", "lon": "5.073252"}, "label": "Ouges (Ouges)", "administrative_regions": [{"insee": "21473", "name": "Ouges", "level": 8, "coord": {"lat": "47.2623491", "lon": "5.0752666"}, "label": "Ouges (21600)", "id": "admin:fr:21473", "zip_code": "21600"}], "timezone": "Europe/Paris", "id": "stop_area:OCE:SA:87712604"}, {"codes": [{"type": "CR-CI-CH", "value": "0087-722207-BV"}, {"type": "CR-CI-CH", "value": "0087-722207-00"}, {"type": "UIC8", "value": "87722207"}, {"type": "external_code", "value": "OCE87722207"}], "name": "Oullins", "links": [], "coord": {"lat": "45.717214", "lon": "4.813129"}, "label": "Oullins (Oullins)", "administrative_regions": [{"insee": "69149", "name": "Oullins", "level": 8, "coord": {"lat": "45.7157", "lon": "4.80271"}, "label": "Oullins (69600)", "id": "admin:fr:69149", "zip_code": "69600"}], "timezone": "Europe/Paris", "id": "stop_area:OCE:SA:87722207"}, {"codes": [{"type": "CR-CI-CH", "value": "0083-002048-BV"}, {"type": "CR-CI-CH", "value": "0083-002048-BV"}, {"type": "UIC8", "value": "83002048"}, {"type": "external_code", "value": "OCE83002048"}], "name": "Oulx-Cesana-Clav-Sestri", "links": [], "coord": {"lat": "45.038788", "lon": "6.831539"}, "label": "Oulx-Cesana-Clav-Sestri (Oulx)", "administrative_regions": [{"insee": "", "name": "Oulx", "level": 8, "coord": {"lat": "45.0330519", "lon": "6.83251"}, "label": "Oulx", "id": "admin:osm:relation:43955", "zip_code": ""}], "timezone": "Europe/Paris", "id": "stop_area:OCE:SA:83002048"}, {"codes": [{"type": "CR-CI-CH", "value": "0087-276774-00"}, {"type": "CR-CI-CH", "value": "0087-276774-00"}, {"type": "UIC8", "value": "87276774"}, {"type": "external_code", "value": "OCE87276774"}], "name": "Ourscamps", "links": [], "coord": {"lat": "49.53394", "lon": "2.954083"}, "label": "Ourscamps (Pimprez)", "administrative_regions": [{"insee": "60492", "name": "Pimprez", "level": 8, "coord": {"lat": "49.5140048", "lon": "2.9503676"}, "label": "Pimprez (60170)", "id": "admin:fr:60492", "zip_code": "60170"}], "timezone": "Europe/Paris", "id": "stop_area:OCE:SA:87276774"}, {"codes": [{"type": "CR-CI-CH", "value": "0087-743534-00"}, {"type": "CR-CI-CH", "value": "0087-743534-00"}, {"type": "UIC8", "value": "87743534"}, {"type": "external_code", "value": "OCE87743534"}], "name": "Oyonnax", "links": [], "coord": {"lat": "46.259609", "lon": "5.653252"}, "label": "Oyonnax (Oyonnax)", "administrative_regions": [{"insee": "1283", "name": "Oyonnax", "level": 8, "coord": {"lat": "46.2575174", "lon": "5.6556181"}, "label": "Oyonnax (01100)", "id": "admin:fr:1283", "zip_code": "01100"}], "timezone": "Europe/Paris", "id": "stop_area:OCE:SA:87743534"}, {"codes": [{"type": "CR-CI-CH", "value": "0087-116020-00"}, {"type": "CR-CI-CH", "value": "0087-116020-00"}, {"type": "UIC8", "value": "87116020"}, {"type": "external_code", "value": "OCE87116020"}], "name": "Ozoir-la-Ferri\u00e8re", "links": [], "coord": {"lat": "48.770713", "lon": "2.689936"}, "label": "Ozoir-la-Ferri\u00e8re (Ozoir-la-Ferri\u00e8re)", "administrative_regions": [{"insee": "77350", "name": "Ozoir-la-Ferri\u00e8re", "level": 8, "coord": {"lat": "48.7620904", "lon": "2.6719421"}, "label": "Ozoir-la-Ferri\u00e8re (77330)", "id": "admin:fr:77350", "zip_code": "77330"}], "timezone": "Europe/Paris", "id": "stop_area:OCE:SA:87116020"}, {"codes": [{"type": "CR-CI-CH", "value": "0087-440248-00"}, {"type": "CR-CI-CH", "value": "0087-440248-HR"}, {"type": "CR-CI-CH", "value": "0087-611970-HR"}, {"type": "UIC8", "value": "87611970"}, {"type": "external_code", "value": "OCE87611970"}], "name": "PONT DE GURAN", "links": [], "coord": {"lat": "42.88512", "lon": "0.616895"}, "label": "PONT DE GURAN (Guran)", "administrative_regions": [{"insee": "31235", "name": "Guran", "level": 8, "coord": {"lat": "42.8898858", "lon": "0.6158731"}, "label": "Guran (31440)", "id": "admin:fr:31235", "zip_code": "31440"}], "timezone": "Europe/Paris", "id": "stop_area:OCE:SA:87611970"}, {"codes": [{"type": "CR-CI-CH", "value": "0087-713669-00"}, {"type": "CR-CI-CH", "value": "0087-713669-00"}, {"type": "UIC8", "value": "87713669"}, {"type": "external_code", "value": "OCE87713669"}], "name": "Pagny (C\u00f4te-d'Or)", "links": [], "coord": {"lat": "47.046176", "lon": "5.200803"}, "label": "Pagny (C\u00f4te-d'Or) (Pagny-le-Ch\u00e2teau)", "administrative_regions": [{"insee": "21475", "name": "Pagny-le-Ch\u00e2teau", "level": 8, "coord": {"lat": "47.0470594", "lon": "5.1956705"}, "label": "Pagny-le-Ch\u00e2teau (21250)", "id": "admin:fr:21475", "zip_code": "21250"}], "timezone": "Europe/Paris", "id": "stop_area:OCE:SA:87713669"}, {"codes": [{"type": "CR-CI-CH", "value": "0087-175828-BV"}, {"type": "CR-CI-CH", "value": "0087-175828-BV"}, {"type": "UIC8", "value": "87175828"}, {"type": "external_code", "value": "OCE87175828"}], "name": "Pagny-sur-Meuse", "links": [], "coord": {"lat": "48.696575", "lon": "5.733625"}, "label": "Pagny-sur-Meuse (Pagny-sur-Meuse)", "administrative_regions": [{"insee": "55398", "name": "Pagny-sur-Meuse", "level": 8, "coord": {"lat": "48.6883959", "lon": "5.7199277"}, "label": "Pagny-sur-Meuse (55190)", "id": "admin:fr:55398", "zip_code": "55190"}], "timezone": "Europe/Paris", "id": "stop_area:OCE:SA:87175828"}, {"codes": [{"type": "CR-CI-CH", "value": "0087-192468-BV"}, {"type": "CR-CI-CH", "value": "0087-192468-BV"}, {"type": "UIC8", "value": "87192468"}, {"type": "external_code", "value": "OCE87192468"}], "name": "Pagny-sur-Moselle", "links": [], "coord": {"lat": "48.985345", "lon": "6.025174"}, "label": "Pagny-sur-Moselle (Pagny-sur-Moselle)", "administrative_regions": [{"insee": "54415", "name": "Pagny-sur-Moselle", "level": 8, "coord": {"lat": "48.9837551", "lon": "6.0197497"}, "label": "Pagny-sur-Moselle (54530)", "id": "admin:fr:54415", "zip_code": "54530"}], "timezone": "Europe/Paris", "id": "stop_area:OCE:SA:87192468"}, {"codes": [{"type": "CR-CI-CH", "value": "0087-473868-00"}, {"type": "CR-CI-CH", "value": "0087-473868-00"}, {"type": "UIC8", "value": "87473868"}, {"type": "external_code", "value": "OCE87473868"}], "name": "Paimpol", "links": [], "coord": {"lat": "48.776705", "lon": "-3.046355"}, "label": "Paimpol (Paimpol)", "administrative_regions": [{"insee": "22162", "name": "Paimpol", "level": 8, "coord": {"lat": "48.7794818", "lon": "-3.0484022"}, "label": "Paimpol (22500)", "id": "admin:fr:22162", "zip_code": "22500"}], "timezone": "Europe/Paris", "id": "stop_area:OCE:SA:87473868"}, {"codes": [{"type": "CR-CI-CH", "value": "0087-758805-00"}, {"type": "CR-CI-CH", "value": "0087-758805-00"}, {"type": "UIC8", "value": "87758805"}, {"type": "external_code", "value": "OCE87758805"}], "name": "Palaiseau", "links": [], "coord": {"lat": "48.71783", "lon": "2.246502"}, "label": "Palaiseau (Palaiseau)", "administrative_regions": [{"insee": "91477", "name": "Palaiseau", "level": 8, "coord": {"lat": "48.7144587", "lon": "2.2453842"}, "label": "Palaiseau (91120)", "id": "admin:fr:91477", "zip_code": "91120"}], "timezone": "Europe/Paris", "id": "stop_area:OCE:SA:87758805"}, {"codes": [{"type": "CR-CI-CH", "value": "0087-758813-00"}, {"type": "CR-CI-CH", "value": "0087-758813-00"}, {"type": "UIC8", "value": "87758813"}, {"type": "external_code", "value": "OCE87758813"}], "name": "Palaiseau-Villebon", "links": [], "coord": {"lat": "48.707674", "lon": "2.237203"}, "label": "Palaiseau-Villebon (Palaiseau)", "administrative_regions": [{"insee": "91477", "name": "Palaiseau", "level": 8, "coord": {"lat": "48.7144587", "lon": "2.2453842"}, "label": "Palaiseau (91120)", "id": "admin:fr:91477", "zip_code": "91120"}], "timezone": "Europe/Paris", "id": "stop_area:OCE:SA:87758813"}]}