{"pagination": {"start_page": 172, "items_on_page": 25, "items_per_page": 25, "total_result": 4343}, "links": [{"href": "https://api.sncf.com/v1/coverage/sncf/stop_areas/{stop_areas.id}", "type": "stop_areas", "rel": "stop_areas", "templated": true}, {"href": "https://api.sncf.com/v1/coverage/sncf/stop_areas/{stop_areas.id}/route_schedules", "type": "route_schedules", "rel": "route_schedules", "templated": true}, {"href": "https://api.sncf.com/v1/coverage/sncf/stop_areas/{stop_areas.id}/stop_schedules", "type": "stop_schedules", "rel": "stop_schedules", "templated": true}, {"href": "https://api.sncf.com/v1/coverage/sncf/stop_areas/{stop_areas.id}/arrivals", "type": "arrivals", "rel": "arrivals", "templated": true}, {"href": "https://api.sncf.com/v1/coverage/sncf/stop_areas/{stop_areas.id}/departures", "type": "departures", "rel": "departures", "templated": true}, {"href": "https://api.sncf.com/v1/coverage/sncf/stop_areas/{stop_areas.id}/places_nearby", "type": "places_nearby", "rel": "places_nearby", "templated": true}, {"href": "https://api.sncf.com/v1/coverage/sncf/stop_areas/{stop_areas.id}/journeys", "type": "journey", "rel": "journeys", "templated": true}, {"href": "https://api.sncf.com/v1/coverage/sncf/stop_areas/{stop_areas.id}/traffic_reports", "type": "disruption", "rel": "disruptions", "templated": true}, {"href": "https://api.sncf.com/v1/coverage/sncf/stop_areas?start_page=171", "type": "previous", "templated": false}, {"href": "https://api.sncf.com/v1/coverage/sncf/stop_areas?start_page=173", "type": "next", "templated": false}, {"href": "https://api.sncf.com/v1/coverage/sncf/stop_areas?start_page=173", "type": "last", "templated": false}, {"href": "https://api.sncf.com/v1/coverage/sncf/stop_areas", "type": "first", "templated": false}], "disruptions": [], "feed_publishers": [], "context": {"timezone": "Europe/Paris", "current_datetime": "20200210T135452"}, "stop_areas": [{"codes": [{"type": "CR-CI-CH", "value": "0087-659771-HR"}, {"type": "CR-CI-CH", "value": "0087-659771-HR"}, {"type": "UIC8", "value": "87659771"}, {"type": "external_code", "value": "OCE87659771"}], "name": "Weyersheim-R-R\u00e9publique", "links": [], "coord": {"lat": "48.717811", "lon": "7.800244"}, "label": "Weyersheim-R-R\u00e9publique (Weyersheim)", "administrative_regions": [{"insee": "67529", "name": "Weyersheim", "level": 8, "coord": {"lat": "48.7182493", "lon": "7.802508"}, "label": "Weyersheim (67720)", "id": "admin:fr:67529", "zip_code": "67720"}], "timezone": "Europe/Paris", "id": "stop_area:OCE:SA:87659771"}, {"codes": [{"type": "CR-CI-CH", "value": "0087-665463-HR"}, {"type": "CR-CI-CH", "value": "0087-665463-HR"}, {"type": "UIC8", "value": "87665463"}, {"type": "external_code", "value": "OCE87665463"}], "name": "Wihr-Soultz-D-417.", "links": [], "coord": {"lat": "48.046681", "lon": "7.20917"}, "label": "Wihr-Soultz-D-417. (Wihr-au-Val)", "administrative_regions": [{"insee": "68368", "name": "Wihr-au-Val", "level": 8, "coord": {"lat": "48.0521801", "lon": "7.2035177"}, "label": "Wihr-au-Val (68230)", "id": "admin:fr:68368", "zip_code": "68230"}], "timezone": "Europe/Paris", "id": "stop_area:OCE:SA:87665463"}, {"codes": [{"type": "CR-CI-CH", "value": "0087-182378-00"}, {"type": "CR-CI-CH", "value": "0087-182378-00"}, {"type": "UIC8", "value": "87182378"}, {"type": "external_code", "value": "OCE87182378"}], "name": "Wihr-au-Val-Soultzbach", "links": [], "coord": {"lat": "48.04621", "lon": "7.209664"}, "label": "Wihr-au-Val-Soultzbach (Wihr-au-Val)", "administrative_regions": [{"insee": "68368", "name": "Wihr-au-Val", "level": 8, "coord": {"lat": "48.0521801", "lon": "7.2035177"}, "label": "Wihr-au-Val (68230)", "id": "admin:fr:68368", "zip_code": "68230"}], "timezone": "Europe/Paris", "id": "stop_area:OCE:SA:87182378"}, {"codes": [{"type": "CR-CI-CH", "value": "0087-659946-HR"}, {"type": "CR-CI-CH", "value": "0087-659946-HR"}, {"type": "UIC8", "value": "87659946"}, {"type": "external_code", "value": "OCE87659946"}], "name": "Willer-/-Thur-(Mairie).", "links": [], "coord": {"lat": "47.843066", "lon": "7.0714"}, "label": "Willer-/-Thur-(Mairie). (Willer-sur-Thur)", "administrative_regions": [{"insee": "68372", "name": "Willer-sur-Thur", "level": 8, "coord": {"lat": "47.8437216", "lon": "7.0706242"}, "label": "Willer-sur-Thur (68760)", "id": "admin:fr:68372", "zip_code": "68760"}], "timezone": "Europe/Paris", "id": "stop_area:OCE:SA:87659946"}, {"codes": [{"type": "CR-CI-CH", "value": "0087-182584-00"}, {"type": "CR-CI-CH", "value": "0087-182584-00"}, {"type": "UIC8", "value": "87182584"}, {"type": "external_code", "value": "OCE87182584"}], "name": "Willer-sur-Thur", "links": [], "coord": {"lat": "47.842615", "lon": "7.069192"}, "label": "Willer-sur-Thur (Willer-sur-Thur)", "administrative_regions": [{"insee": "68372", "name": "Willer-sur-Thur", "level": 8, "coord": {"lat": "47.8437216", "lon": "7.0706242"}, "label": "Willer-sur-Thur (68760)", "id": "admin:fr:68372", "zip_code": "68760"}], "timezone": "Europe/Paris", "id": "stop_area:OCE:SA:87182584"}, {"codes": [{"type": "CR-CI-CH", "value": "0087-212175-00"}, {"type": "CR-CI-CH", "value": "0087-212175-00"}, {"type": "UIC8", "value": "87212175"}, {"type": "external_code", "value": "OCE87212175"}], "name": "Wilwisheim", "links": [], "coord": {"lat": "48.745822", "lon": "7.507726"}, "label": "Wilwisheim (Wilwisheim)", "administrative_regions": [{"insee": "67534", "name": "Wilwisheim", "level": 8, "coord": {"lat": "48.7475134", "lon": "7.5079047"}, "label": "Wilwisheim (67270)", "id": "admin:fr:67534", "zip_code": "67270"}], "timezone": "Europe/Paris", "id": "stop_area:OCE:SA:87212175"}, {"codes": [{"type": "CR-CI-CH", "value": "0087-658740-HR"}, {"type": "CR-CI-CH", "value": "0087-658740-HR"}, {"type": "UIC8", "value": "87658740"}, {"type": "external_code", "value": "OCE87658740"}], "name": "Wilwisheim-(Hte Mont\u00e9e)", "links": [], "coord": {"lat": "48.747946", "lon": "7.506738"}, "label": "Wilwisheim-(Hte Mont\u00e9e) (Wilwisheim)", "administrative_regions": [{"insee": "67534", "name": "Wilwisheim", "level": 8, "coord": {"lat": "48.7475134", "lon": "7.5079047"}, "label": "Wilwisheim (67270)", "id": "admin:fr:67534", "zip_code": "67270"}], "timezone": "Europe/Paris", "id": "stop_area:OCE:SA:87658740"}, {"codes": [{"type": "CR-CI-CH", "value": "0087-317123-00"}, {"type": "CR-CI-CH", "value": "0087-317123-00"}, {"type": "UIC8", "value": "87317123"}, {"type": "external_code", "value": "OCE87317123"}], "name": "Wimille Wimereux", "links": [], "coord": {"lat": "50.763843", "lon": "1.613599"}, "label": "Wimille Wimereux (Wimereux)", "administrative_regions": [{"insee": "62893", "name": "Wimereux", "level": 8, "coord": {"lat": "50.7696858", "lon": "1.6118608"}, "label": "Wimereux (62930)", "id": "admin:fr:62893", "zip_code": "62930"}], "timezone": "Europe/Paris", "id": "stop_area:OCE:SA:87317123"}, {"codes": [{"type": "CR-CI-CH", "value": "0087-213769-00"}, {"type": "CR-CI-CH", "value": "0087-213769-00"}, {"type": "UIC8", "value": "87213769"}, {"type": "external_code", "value": "OCE87213769"}], "name": "Wimmenau", "links": [], "coord": {"lat": "48.911274", "lon": "7.427249"}, "label": "Wimmenau (Wimmenau)", "administrative_regions": [{"insee": "67535", "name": "Wimmenau", "level": 8, "coord": {"lat": "48.9119492", "lon": "7.420927"}, "label": "Wimmenau (67290)", "id": "admin:fr:67535", "zip_code": "67290"}], "timezone": "Europe/Paris", "id": "stop_area:OCE:SA:87213769"}, {"codes": [{"type": "CR-CI-CH", "value": "0087-654467-HR"}, {"type": "CR-CI-CH", "value": "0087-654467-HR"}, {"type": "UIC8", "value": "87654467"}, {"type": "external_code", "value": "OCE87654467"}], "name": "Wimmenau-(Centre).", "links": [], "coord": {"lat": "48.910843", "lon": "7.421318"}, "label": "Wimmenau-(Centre). (Wimmenau)", "administrative_regions": [{"insee": "67535", "name": "Wimmenau", "level": 8, "coord": {"lat": "48.9119492", "lon": "7.420927"}, "label": "Wimmenau (67290)", "id": "admin:fr:67535", "zip_code": "67290"}], "timezone": "Europe/Paris", "id": "stop_area:OCE:SA:87654467"}, {"codes": [{"type": "CR-CI-CH", "value": "0087-642348-HR"}, {"type": "CR-CI-CH", "value": "0087-642348-HR"}, {"type": "UIC8", "value": "87642348"}, {"type": "external_code", "value": "OCE87642348"}], "name": "Wimmenau-(D919 R/Gar)", "links": [], "coord": {"lat": "48.910054", "lon": "7.419956"}, "label": "Wimmenau-(D919 R/Gar) (Wimmenau)", "administrative_regions": [{"insee": "67535", "name": "Wimmenau", "level": 8, "coord": {"lat": "48.9119492", "lon": "7.420927"}, "label": "Wimmenau (67290)", "id": "admin:fr:67535", "zip_code": "67290"}], "timezone": "Europe/Paris", "id": "stop_area:OCE:SA:87642348"}, {"codes": [{"type": "CR-CI-CH", "value": "0087-213744-00"}, {"type": "CR-CI-CH", "value": "0087-213744-00"}, {"type": "UIC8", "value": "87213744"}, {"type": "external_code", "value": "OCE87213744"}], "name": "Wingen-sur-Moder", "links": [], "coord": {"lat": "48.920058", "lon": "7.380586"}, "label": "Wingen-sur-Moder (Wingen-sur-Moder)", "administrative_regions": [{"insee": "67538", "name": "Wingen-sur-Moder", "level": 8, "coord": {"lat": "48.9229824", "lon": "7.3711612"}, "label": "Wingen-sur-Moder (67290)", "id": "admin:fr:67538", "zip_code": "67290"}], "timezone": "Europe/Paris", "id": "stop_area:OCE:SA:87213744"}, {"codes": [{"type": "CR-CI-CH", "value": "0087-642355-HR"}, {"type": "CR-CI-CH", "value": "0087-642355-HR"}, {"type": "UIC8", "value": "87642355"}, {"type": "external_code", "value": "OCE87642355"}], "name": "Wingen-sur-Moder-Mairie", "links": [], "coord": {"lat": "48.922868", "lon": "7.370993"}, "label": "Wingen-sur-Moder-Mairie (Wingen-sur-Moder)", "administrative_regions": [{"insee": "67538", "name": "Wingen-sur-Moder", "level": 8, "coord": {"lat": "48.9229824", "lon": "7.3711612"}, "label": "Wingen-sur-Moder (67290)", "id": "admin:fr:67538", "zip_code": "67290"}], "timezone": "Europe/Paris", "id": "stop_area:OCE:SA:87642355"}, {"codes": [{"type": "CR-CI-CH", "value": "0087-214676-00"}, {"type": "CR-CI-CH", "value": "0087-214676-00"}, {"type": "UIC8", "value": "87214676"}, {"type": "external_code", "value": "OCE87214676"}], "name": "Wisches", "links": [], "coord": {"lat": "48.507634", "lon": "7.27018"}, "label": "Wisches (Wisches)", "administrative_regions": [{"insee": "67543", "name": "Wisches", "level": 8, "coord": {"lat": "48.5094853", "lon": "7.2691416"}, "label": "Wisches (67130)", "id": "admin:fr:67543", "zip_code": "67130"}], "timezone": "Europe/Paris", "id": "stop_area:OCE:SA:87214676"}, {"codes": [{"type": "CR-CI-CH", "value": "0087-660688-HR"}, {"type": "CR-CI-CH", "value": "0087-660688-HR"}, {"type": "UIC8", "value": "87660688"}, {"type": "external_code", "value": "OCE87660688"}], "name": "Wisches-(Abri-Eglise).", "links": [], "coord": {"lat": "48.508416", "lon": "7.268289"}, "label": "Wisches-(Abri-Eglise). (Wisches)", "administrative_regions": [{"insee": "67543", "name": "Wisches", "level": 8, "coord": {"lat": "48.5094853", "lon": "7.2691416"}, "label": "Wisches (67130)", "id": "admin:fr:67543", "zip_code": "67130"}], "timezone": "Europe/Paris", "id": "stop_area:OCE:SA:87660688"}, {"codes": [{"type": "CR-CI-CH", "value": "0087-213470-BV"}, {"type": "CR-CI-CH", "value": "0087-213470-BV"}, {"type": "UIC8", "value": "87213470"}, {"type": "external_code", "value": "OCE87213470"}], "name": "Wissembourg", "links": [], "coord": {"lat": "49.031533", "lon": "7.950306"}, "label": "Wissembourg (Wissembourg)", "administrative_regions": [{"insee": "67544", "name": "Wissembourg", "level": 8, "coord": {"lat": "49.0365935", "lon": "7.9445109"}, "label": "Wissembourg (67160)", "id": "admin:fr:67544", "zip_code": "67160"}], "timezone": "Europe/Paris", "id": "stop_area:OCE:SA:87213470"}, {"codes": [{"type": "CR-CI-CH", "value": "0087-660381-HR"}, {"type": "CR-CI-CH", "value": "0087-660381-HR"}, {"type": "UIC8", "value": "87660381"}, {"type": "external_code", "value": "OCE87660381"}], "name": "Wissembourg-Altenstadt.", "links": [], "coord": {"lat": "49.028245", "lon": "7.963881"}, "label": "Wissembourg-Altenstadt. (Wissembourg)", "administrative_regions": [{"insee": "67544", "name": "Wissembourg", "level": 8, "coord": {"lat": "49.0365935", "lon": "7.9445109"}, "label": "Wissembourg (67160)", "id": "admin:fr:67544", "zip_code": "67160"}], "timezone": "Europe/Paris", "id": "stop_area:OCE:SA:87660381"}, {"codes": [{"type": "CR-CI-CH", "value": "0087-703454-HR"}, {"type": "UIC8", "value": "87703454"}, {"type": "external_code", "value": "OCE87703454"}], "name": "Wittring-Pont", "links": [], "coord": {"lat": "49.053348", "lon": "7.150884"}, "label": "Wittring-Pont (Wittring)", "administrative_regions": [{"insee": "57748", "name": "Wittring", "level": 8, "coord": {"lat": "49.0540236", "lon": "7.1462373"}, "label": "Wittring (57905)", "id": "admin:fr:57748", "zip_code": "57905"}], "timezone": "Europe/Paris", "id": "stop_area:OCE:SA:87703454"}, {"codes": [{"type": "CR-CI-CH", "value": "0087-193771-00"}, {"type": "CR-CI-CH", "value": "0087-193771-00"}, {"type": "UIC8", "value": "87193771"}, {"type": "external_code", "value": "OCE87193771"}], "name": "Woelfling-Sarreguemines", "links": [], "coord": {"lat": "49.094869", "lon": "7.190733"}, "label": "Woelfling-Sarreguemines (W\u0153lfling-l\u00e8s-Sarreguemines)", "administrative_regions": [{"insee": "57750", "name": "W\u0153lfling-l\u00e8s-Sarreguemines", "level": 8, "coord": {"lat": "49.0861241", "lon": "7.1747258"}, "label": "W\u0153lfling-l\u00e8s-Sarreguemines (57200)", "id": "admin:fr:57750", "zip_code": "57200"}], "timezone": "Europe/Paris", "id": "stop_area:OCE:SA:87193771"}, {"codes": [{"type": "CR-CI-CH", "value": "0087-192088-BV"}, {"type": "CR-CI-CH", "value": "0087-192088-BV"}, {"type": "UIC8", "value": "87192088"}, {"type": "external_code", "value": "OCE87192088"}], "name": "Woippy", "links": [], "coord": {"lat": "49.148358", "lon": "6.155677"}, "label": "Woippy (Woippy)", "administrative_regions": [{"insee": "57751", "name": "Woippy", "level": 8, "coord": {"lat": "49.1515848", "lon": "6.1519224"}, "label": "Woippy (57140)", "id": "admin:fr:57751", "zip_code": "57140"}], "timezone": "Europe/Paris", "id": "stop_area:OCE:SA:87192088"}, {"codes": [{"type": "CR-CI-CH", "value": "0087-703488-HR"}, {"type": "UIC8", "value": "87703488"}, {"type": "external_code", "value": "OCE87703488"}], "name": "Wolfskirchen-Moulin", "links": [], "coord": {"lat": "48.879315", "lon": "7.071757"}, "label": "Wolfskirchen-Moulin (Wolfskirchen)", "administrative_regions": [{"insee": "67552", "name": "Wolfskirchen", "level": 8, "coord": {"lat": "48.8791056", "lon": "7.0738172"}, "label": "Wolfskirchen (67260)", "id": "admin:fr:67552", "zip_code": "67260"}], "timezone": "Europe/Paris", "id": "stop_area:OCE:SA:87703488"}, {"codes": [{"type": "CR-CI-CH", "value": "0087-112334-00"}, {"type": "CR-CI-CH", "value": "0087-112334-00"}, {"type": "UIC8", "value": "87112334"}, {"type": "external_code", "value": "OCE87112334"}], "name": "W\u00e9", "links": [], "coord": {"lat": "49.640831", "lon": "5.153887"}, "label": "W\u00e9 (Carignan)", "administrative_regions": [{"insee": "8090", "name": "Carignan", "level": 8, "coord": {"lat": "49.6319856", "lon": "5.1682498"}, "label": "Carignan (08110)", "id": "admin:fr:8090", "zip_code": "08110"}], "timezone": "Europe/Paris", "id": "stop_area:OCE:SA:87112334"}, {"codes": [{"type": "CR-CI-CH", "value": "0087-141226-00"}, {"type": "CR-CI-CH", "value": "0087-141226-00"}, {"type": "UIC8", "value": "87141226"}, {"type": "external_code", "value": "OCE87141226"}], "name": "Xermam\u00e9nil", "links": [], "coord": {"lat": "48.533236", "lon": "6.461247"}, "label": "Xermam\u00e9nil (Xermam\u00e9nil)", "administrative_regions": [{"insee": "54595", "name": "Xermam\u00e9nil", "level": 8, "coord": {"lat": "48.5336087", "lon": "6.4624365"}, "label": "Xermam\u00e9nil (54300)", "id": "admin:fr:54595", "zip_code": "54300"}], "timezone": "Europe/Paris", "id": "stop_area:OCE:SA:87141226"}, {"codes": [{"type": "CR-CI-CH", "value": "0087-144121-00"}, {"type": "CR-CI-CH", "value": "0087-144121-00"}, {"type": "UIC8", "value": "87144121"}, {"type": "external_code", "value": "OCE87144121"}], "name": "Xertigny", "links": [], "coord": {"lat": "48.053001", "lon": "6.376753"}, "label": "Xertigny (Xertigny)", "administrative_regions": [{"insee": "88530", "name": "Xertigny", "level": 8, "coord": {"lat": "48.0453308", "lon": "6.4008806"}, "label": "Xertigny (88220)", "id": "admin:fr:88530", "zip_code": "88220"}], "timezone": "Europe/Paris", "id": "stop_area:OCE:SA:87144121"}, {"codes": [{"type": "CR-CI-CH", "value": "0087-582536-00"}, {"type": "CR-CI-CH", "value": "0087-582536-00"}, {"type": "UIC8", "value": "87582536"}, {"type": "external_code", "value": "OCE87582536"}], "name": "Ychoux", "links": [], "coord": {"lat": "44.329249", "lon": "-0.946197"}, "label": "Ychoux (Ychoux)", "administrative_regions": [{"insee": "40332", "name": "Ychoux", "level": 8, "coord": {"lat": "44.3280449", "lon": "-0.9615648"}, "label": "Ychoux (40160)", "id": "admin:fr:40332", "zip_code": "40160"}], "timezone": "Europe/Paris", "id": "stop_area:OCE:SA:87582536"}]}