{"pagination": {"start_page": 40, "items_on_page": 25, "items_per_page": 25, "total_result": 4343}, "links": [{"href": "https://api.sncf.com/v1/coverage/sncf/stop_areas/{stop_areas.id}", "type": "stop_areas", "rel": "stop_areas", "templated": true}, {"href": "https://api.sncf.com/v1/coverage/sncf/stop_areas/{stop_areas.id}/route_schedules", "type": "route_schedules", "rel": "route_schedules", "templated": true}, {"href": "https://api.sncf.com/v1/coverage/sncf/stop_areas/{stop_areas.id}/stop_schedules", "type": "stop_schedules", "rel": "stop_schedules", "templated": true}, {"href": "https://api.sncf.com/v1/coverage/sncf/stop_areas/{stop_areas.id}/arrivals", "type": "arrivals", "rel": "arrivals", "templated": true}, {"href": "https://api.sncf.com/v1/coverage/sncf/stop_areas/{stop_areas.id}/departures", "type": "departures", "rel": "departures", "templated": true}, {"href": "https://api.sncf.com/v1/coverage/sncf/stop_areas/{stop_areas.id}/places_nearby", "type": "places_nearby", "rel": "places_nearby", "templated": true}, {"href": "https://api.sncf.com/v1/coverage/sncf/stop_areas/{stop_areas.id}/journeys", "type": "journey", "rel": "journeys", "templated": true}, {"href": "https://api.sncf.com/v1/coverage/sncf/stop_areas/{stop_areas.id}/traffic_reports", "type": "disruption", "rel": "disruptions", "templated": true}, {"href": "https://api.sncf.com/v1/coverage/sncf/stop_areas?start_page=39", "type": "previous", "templated": false}, {"href": "https://api.sncf.com/v1/coverage/sncf/stop_areas?start_page=41", "type": "next", "templated": false}, {"href": "https://api.sncf.com/v1/coverage/sncf/stop_areas?start_page=173", "type": "last", "templated": false}, {"href": "https://api.sncf.com/v1/coverage/sncf/stop_areas", "type": "first", "templated": false}], "disruptions": [], "feed_publishers": [], "context": {"timezone": "Europe/Paris", "current_datetime": "20200210T135433"}, "stop_areas": [{"codes": [{"type": "CR-CI-CH", "value": "0087-342063-00"}, {"type": "CR-CI-CH", "value": "0087-342063-00"}, {"type": "UIC8", "value": "87342063"}, {"type": "external_code", "value": "OCE87342063"}], "name": "Courcelles-le-Comte", "links": [], "coord": {"lat": "50.169552", "lon": "2.787893"}, "label": "Courcelles-le-Comte (Courcelles-le-Comte)", "administrative_regions": [{"insee": "62248", "name": "Courcelles-le-Comte", "level": 8, "coord": {"lat": "50.163614", "lon": "2.7741831"}, "label": "Courcelles-le-Comte (62121)", "id": "admin:fr:62248", "zip_code": "62121"}], "timezone": "Europe/Paris", "id": "stop_area:OCE:SA:87342063"}, {"codes": [{"type": "CR-CI-CH", "value": "0087-192211-00"}, {"type": "CR-CI-CH", "value": "0087-192211-00"}, {"type": "UIC8", "value": "87192211"}, {"type": "external_code", "value": "OCE87192211"}], "name": "Courcelles-sur-Nied", "links": [], "coord": {"lat": "49.063231", "lon": "6.31121"}, "label": "Courcelles-sur-Nied (Courcelles-sur-Nied)", "administrative_regions": [{"insee": "57156", "name": "Courcelles-sur-Nied", "level": 8, "coord": {"lat": "49.0665082", "lon": "6.3083115"}, "label": "Courcelles-sur-Nied (57530)", "id": "admin:fr:57156", "zip_code": "57530"}], "timezone": "Europe/Paris", "id": "stop_area:OCE:SA:87192211"}, {"codes": [{"type": "CR-CI-CH", "value": "0085-001412-BV"}, {"type": "CR-CI-CH", "value": "0085-001412-BV"}, {"type": "UIC8", "value": "85001412"}, {"type": "external_code", "value": "OCE85001412"}], "name": "Courchavon", "links": [], "coord": {"lat": "47.439849", "lon": "7.057605"}, "label": "Courchavon (Courchavon)", "administrative_regions": [{"insee": "", "name": "Courchavon", "level": 8, "coord": {"lat": "47.4382250606925", "lon": "7.04632250437178"}, "label": "Courchavon", "id": "admin:osm:relation:1685588", "zip_code": ""}], "timezone": "Europe/Paris", "id": "stop_area:OCE:SA:85001412"}, {"codes": [{"type": "CR-CI-CH", "value": "0087-171710-00"}, {"type": "CR-CI-CH", "value": "0087-171710-00"}, {"type": "UIC8", "value": "87171710"}, {"type": "external_code", "value": "OCE87171710"}], "name": "Courcy-Brimont", "links": [], "coord": {"lat": "49.329158", "lon": "4.014949"}, "label": "Courcy-Brimont (Courcy)", "administrative_regions": [{"insee": "51183", "name": "Courcy", "level": 8, "coord": {"lat": "49.3230873", "lon": "4.0014265"}, "label": "Courcy (51220)", "id": "admin:fr:51183", "zip_code": "51220"}], "timezone": "Europe/Paris", "id": "stop_area:OCE:SA:87171710"}, {"codes": [{"type": "CR-CI-CH", "value": "0085-001214-BV"}, {"type": "CR-CI-CH", "value": "0085-001214-BV"}, {"type": "UIC8", "value": "85001214"}, {"type": "external_code", "value": "OCE85001214"}], "name": "Courfaivre", "links": [], "coord": {"lat": "47.335413", "lon": "7.291744"}, "label": "Courfaivre (Haute-Sorne)", "administrative_regions": [{"insee": "", "name": "Haute-Sorne", "level": 8, "coord": {"lat": "47.3370866", "lon": "7.2440935"}, "label": "Haute-Sorne (2863)", "id": "admin:osm:relation:2759181", "zip_code": "2863"}], "timezone": "Europe/Paris", "id": "stop_area:OCE:SA:85001214"}, {"codes": [{"type": "CR-CI-CH", "value": "0085-001255-BV"}, {"type": "CR-CI-CH", "value": "0085-001255-BV"}, {"type": "UIC8", "value": "85001255"}, {"type": "external_code", "value": "OCE85001255"}], "name": "Courgenay", "links": [], "coord": {"lat": "47.404914", "lon": "7.124211"}, "label": "Courgenay (Courgenay)", "administrative_regions": [{"insee": "", "name": "Courgenay", "level": 8, "coord": {"lat": "47.4045434", "lon": "7.1242961"}, "label": "Courgenay", "id": "admin:osm:relation:1685590", "zip_code": ""}], "timezone": "Europe/Paris", "id": "stop_area:OCE:SA:85001255"}, {"codes": [{"type": "CR-CI-CH", "value": "0087-271304-BV"}, {"type": "CR-CI-CH", "value": "0087-271304-BV"}, {"type": "UIC8", "value": "87271304"}, {"type": "external_code", "value": "OCE87271304"}], "name": "Courneuve-Aubervilliers", "links": [], "coord": {"lat": "48.924176", "lon": "2.384714"}, "label": "Courneuve-Aubervilliers (La Courneuve)", "administrative_regions": [{"insee": "93027", "name": "La Courneuve", "level": 8, "coord": {"lat": "48.9267236", "lon": "2.3896123"}, "label": "La Courneuve (93120)", "id": "admin:fr:93027", "zip_code": "93120"}], "timezone": "Europe/Paris", "id": "stop_area:OCE:SA:87271304"}, {"codes": [{"type": "CR-CI-CH", "value": "0087-734525-BV"}, {"type": "CR-CI-CH", "value": "0087-734525-BV"}, {"type": "UIC8", "value": "87734525"}, {"type": "external_code", "value": "OCE87734525"}], "name": "Courpi\u00e8re", "links": [], "coord": {"lat": "45.757656", "lon": "3.544056"}, "label": "Courpi\u00e8re (Courpi\u00e8re)", "administrative_regions": [{"insee": "63125", "name": "Courpi\u00e8re", "level": 8, "coord": {"lat": "45.7559617", "lon": "3.5325463"}, "label": "Courpi\u00e8re (63120)", "id": "admin:fr:63125", "zip_code": "63120"}], "timezone": "Europe/Paris", "id": "stop_area:OCE:SA:87734525"}, {"codes": [{"type": "CR-CI-CH", "value": "0087-781161-00"}, {"type": "CR-CI-CH", "value": "0087-781161-00"}, {"type": "UIC8", "value": "87781161"}, {"type": "external_code", "value": "OCE87781161"}], "name": "Coursan", "links": [], "coord": {"lat": "43.233712", "lon": "3.050866"}, "label": "Coursan (Coursan)", "administrative_regions": [{"insee": "11106", "name": "Coursan", "level": 8, "coord": {"lat": "43.2347407", "lon": "3.0585293"}, "label": "Coursan (11110)", "id": "admin:fr:11106", "zip_code": "11110"}], "timezone": "Europe/Paris", "id": "stop_area:OCE:SA:87781161"}, {"codes": [{"type": "CR-CI-CH", "value": "0087-139907-00"}, {"type": "CR-CI-CH", "value": "0087-139907-00"}, {"type": "UIC8", "value": "87139907"}, {"type": "external_code", "value": "OCE87139907"}], "name": "Coursan-en-Othe", "links": [], "coord": {"lat": "48.079717", "lon": "3.830265"}, "label": "Coursan-en-Othe (Coursan-en-Othe)", "administrative_regions": [{"insee": "10107", "name": "Coursan-en-Othe", "level": 8, "coord": {"lat": "48.0720033", "lon": "3.8384626"}, "label": "Coursan-en-Othe (10130)", "id": "admin:fr:10107", "zip_code": "10130"}], "timezone": "Europe/Paris", "id": "stop_area:OCE:SA:87139907"}, {"codes": [{"type": "CR-CI-CH", "value": "0087-643999-HR"}, {"type": "CR-CI-CH", "value": "0087-643999-HR"}, {"type": "UIC8", "value": "87643999"}, {"type": "external_code", "value": "OCE87643999"}], "name": "Courtalain-Centre", "links": [], "coord": {"lat": "48.079445", "lon": "1.136053"}, "label": "Courtalain-Centre (Commune nouvelle d'Arrou)", "administrative_regions": [{"insee": "28012", "name": "Commune nouvelle d'Arrou", "level": 8, "coord": {"lat": "48.0995846", "lon": "1.1224687"}, "label": "Commune nouvelle d'Arrou (28220-28290)", "id": "admin:fr:28012", "zip_code": "28220;28290"}], "timezone": "Europe/Paris", "id": "stop_area:OCE:SA:87643999"}, {"codes": [{"type": "CR-CI-CH", "value": "0087-394494-00"}, {"type": "CR-CI-CH", "value": "0087-394494-00"}, {"type": "UIC8", "value": "87394494"}, {"type": "external_code", "value": "OCE87394494"}], "name": "Courtalain-St-Pellerin", "links": [], "coord": {"lat": "48.073829", "lon": "1.126935"}, "label": "Courtalain-St-Pellerin (Commune nouvelle d'Arrou)", "administrative_regions": [{"insee": "28012", "name": "Commune nouvelle d'Arrou", "level": 8, "coord": {"lat": "48.0995846", "lon": "1.1224687"}, "label": "Commune nouvelle d'Arrou (28220-28290)", "id": "admin:fr:28012", "zip_code": "28220;28290"}], "timezone": "Europe/Paris", "id": "stop_area:OCE:SA:87394494"}, {"codes": [{"type": "CR-CI-CH", "value": "0085-001271-BV"}, {"type": "CR-CI-CH", "value": "0085-001271-BV"}, {"type": "UIC8", "value": "85001271"}, {"type": "external_code", "value": "OCE85001271"}], "name": "Courtemaiche", "links": [], "coord": {"lat": "47.456248", "lon": "7.055445"}, "label": "Courtemaiche (Basse-Allaine)", "administrative_regions": [{"insee": "", "name": "Basse-Allaine", "level": 8, "coord": {"lat": "47.4705242877381", "lon": "7.04245743006339"}, "label": "Basse-Allaine", "id": "admin:osm:relation:1685570", "zip_code": ""}], "timezone": "Europe/Paris", "id": "stop_area:OCE:SA:85001271"}, {"codes": [{"type": "CR-CI-CH", "value": "0087-765180-BV"}, {"type": "CR-CI-CH", "value": "0087-765180-BV"}, {"type": "UIC8", "value": "87765180"}, {"type": "external_code", "value": "OCE87765180"}], "name": "Courth\u00e9zon", "links": [], "coord": {"lat": "44.089995", "lon": "4.888176"}, "label": "Courth\u00e9zon (Courth\u00e9zon)", "administrative_regions": [{"insee": "84039", "name": "Courth\u00e9zon", "level": 8, "coord": {"lat": "44.0867088", "lon": "4.8835125"}, "label": "Courth\u00e9zon (84350)", "id": "admin:fr:84039", "zip_code": "84350"}], "timezone": "Europe/Paris", "id": "stop_area:OCE:SA:87765180"}, {"codes": [{"type": "CR-CI-CH", "value": "0088-960088-BV"}, {"type": "CR-CI-CH", "value": "0088-960088-BV"}, {"type": "UIC8", "value": "88960080"}, {"type": "external_code", "value": "OCE88960080"}], "name": "Courtrai/Kortrijk", "links": [], "coord": {"lat": "50.824469", "lon": "3.264444"}, "label": "Courtrai/Kortrijk (Kortrijk)", "administrative_regions": [{"insee": "", "name": "Kortrijk", "level": 8, "coord": {"lat": "50.8001597340367", "lon": "3.26452976727231"}, "label": "Kortrijk", "id": "admin:osm:relation:961284", "zip_code": ""}], "timezone": "Europe/Paris", "id": "stop_area:OCE:SA:88960080"}, {"codes": [{"type": "CR-CI-CH", "value": "0085-001206-BV"}, {"type": "CR-CI-CH", "value": "0085-001206-BV"}, {"type": "UIC8", "value": "85001206"}, {"type": "external_code", "value": "OCE85001206"}], "name": "Court\u00e9telle", "links": [], "coord": {"lat": "47.34292", "lon": "7.317955"}, "label": "Court\u00e9telle (Court\u00e9telle)", "administrative_regions": [{"insee": "", "name": "Court\u00e9telle", "level": 8, "coord": {"lat": "47.3309470657452", "lon": "7.31763769356176"}, "label": "Court\u00e9telle (2852)", "id": "admin:osm:relation:1685594", "zip_code": "2852"}], "timezone": "Europe/Paris", "id": "stop_area:OCE:SA:85001206"}, {"codes": [{"type": "CR-CI-CH", "value": "0087-394221-00"}, {"type": "CR-CI-CH", "value": "0087-394221-00"}, {"type": "UIC8", "value": "87394221"}, {"type": "external_code", "value": "OCE87394221"}], "name": "Courville-sur-Eure", "links": [], "coord": {"lat": "48.451359", "lon": "1.234934"}, "label": "Courville-sur-Eure (Courville-sur-Eure)", "administrative_regions": [{"insee": "28116", "name": "Courville-sur-Eure", "level": 8, "coord": {"lat": "48.4502626", "lon": "1.2387543"}, "label": "Courville-sur-Eure (28190)", "id": "admin:fr:28116", "zip_code": "28190"}], "timezone": "Europe/Paris", "id": "stop_area:OCE:SA:87394221"}, {"codes": [{"type": "CR-CI-CH", "value": "0087-718270-00"}, {"type": "CR-CI-CH", "value": "0087-718270-00"}, {"type": "UIC8", "value": "87718270"}, {"type": "external_code", "value": "OCE87718270"}], "name": "Cousance", "links": [], "coord": {"lat": "46.535157", "lon": "5.38705"}, "label": "Cousance (Cousance)", "administrative_regions": [{"insee": "39173", "name": "Cousance", "level": 8, "coord": {"lat": "46.5314", "lon": "5.39096"}, "label": "Cousance (39190)", "id": "admin:fr:39173", "zip_code": "39190"}], "timezone": "Europe/Paris", "id": "stop_area:OCE:SA:87718270"}, {"codes": [{"type": "CR-CI-CH", "value": "0087-592840-00"}, {"type": "CR-CI-CH", "value": "0087-592840-00"}, {"type": "UIC8", "value": "87592840"}, {"type": "external_code", "value": "OCE87592840"}], "name": "Coussac-Bonneval", "links": [], "coord": {"lat": "45.507726", "lon": "1.310995"}, "label": "Coussac-Bonneval (Coussac-Bonneval)", "administrative_regions": [{"insee": "87049", "name": "Coussac-Bonneval", "level": 8, "coord": {"lat": "45.5114111", "lon": "1.3240533"}, "label": "Coussac-Bonneval (87500)", "id": "admin:fr:87049", "zip_code": "87500"}], "timezone": "Europe/Paris", "id": "stop_area:OCE:SA:87592840"}, {"codes": [{"type": "CR-CI-CH", "value": "0087-447110-00"}, {"type": "CR-CI-CH", "value": "0087-447110-00"}, {"type": "UIC8", "value": "87447110"}, {"type": "external_code", "value": "OCE87447110"}], "name": "Coutances", "links": [], "coord": {"lat": "49.042797", "lon": "-1.441267"}, "label": "Coutances (Coutances)", "administrative_regions": [{"insee": "50147", "name": "Coutances", "level": 8, "coord": {"lat": "49.047792", "lon": "-1.4454857"}, "label": "Coutances (50200)", "id": "admin:fr:50147", "zip_code": "50200"}], "timezone": "Europe/Paris", "id": "stop_area:OCE:SA:87447110"}, {"codes": [{"type": "CR-CI-CH", "value": "0087-584516-BV"}, {"type": "CR-CI-CH", "value": "0087-584516-BV"}, {"type": "UIC8", "value": "87584516"}, {"type": "external_code", "value": "OCE87584516"}], "name": "Coutras", "links": [], "coord": {"lat": "45.036654", "lon": "-0.131429"}, "label": "Coutras (Coutras)", "administrative_regions": [{"insee": "33138", "name": "Coutras", "level": 8, "coord": {"lat": "45.0409876", "lon": "-0.1286261"}, "label": "Coutras (33230)", "id": "admin:fr:33138", "zip_code": "33230"}], "timezone": "Europe/Paris", "id": "stop_area:OCE:SA:87584516"}, {"codes": [{"type": "CR-CI-CH", "value": "0087-337006-00"}, {"type": "CR-CI-CH", "value": "0087-337006-00"}, {"type": "UIC8", "value": "87337006"}, {"type": "external_code", "value": "OCE87337006"}], "name": "Coux-centre", "links": [], "coord": {"lat": "44.736036", "lon": "4.623787"}, "label": "Coux-centre (Coux)", "administrative_regions": [{"insee": "7072", "name": "Coux", "level": 8, "coord": {"lat": "44.7358", "lon": "4.62254"}, "label": "Coux (07000)", "id": "admin:fr:7072", "zip_code": "07000"}], "timezone": "Europe/Paris", "id": "stop_area:OCE:SA:87337006"}, {"codes": [{"type": "CR-CI-CH", "value": "0087-584425-00"}, {"type": "CR-CI-CH", "value": "0087-584425-00"}, {"type": "UIC8", "value": "87584425"}, {"type": "external_code", "value": "OCE87584425"}], "name": "Couze", "links": [], "coord": {"lat": "44.836633", "lon": "0.702884"}, "label": "Couze (Lalinde)", "administrative_regions": [{"insee": "24223", "name": "Lalinde", "level": 8, "coord": {"lat": "44.8371855", "lon": "0.7387986"}, "label": "Lalinde (24150)", "id": "admin:fr:24223", "zip_code": "24150"}], "timezone": "Europe/Paris", "id": "stop_area:OCE:SA:87584425"}, {"codes": [{"type": "CR-CI-CH", "value": "0087-697037-HR"}, {"type": "UIC8", "value": "87697037"}, {"type": "external_code", "value": "OCE87697037"}], "name": "Couzon-Au-Mont-D'or-Arr", "links": [], "coord": {"lat": "45.848951", "lon": "4.83204"}, "label": "Couzon-Au-Mont-D'or-Arr (Couzon-au-Mont-d'Or)", "administrative_regions": [{"insee": "69068", "name": "Couzon-au-Mont-d'Or", "level": 8, "coord": {"lat": "45.8435075", "lon": "4.8252704"}, "label": "Couzon-au-Mont-d'Or (69270)", "id": "admin:fr:69068", "zip_code": "69270"}], "timezone": "Europe/Paris", "id": "stop_area:OCE:SA:87697037"}, {"codes": [{"type": "CR-CI-CH", "value": "0087-721241-00"}, {"type": "CR-CI-CH", "value": "0087-721241-00"}, {"type": "UIC8", "value": "87721241"}, {"type": "external_code", "value": "OCE87721241"}], "name": "Couzon-au-Mont-d'Or", "links": [], "coord": {"lat": "45.848701", "lon": "4.829517"}, "label": "Couzon-au-Mont-d'Or (Couzon-au-Mont-d'Or)", "administrative_regions": [{"insee": "69068", "name": "Couzon-au-Mont-d'Or", "level": 8, "coord": {"lat": "45.8435075", "lon": "4.8252704"}, "label": "Couzon-au-Mont-d'Or (69270)", "id": "admin:fr:69068", "zip_code": "69270"}], "timezone": "Europe/Paris", "id": "stop_area:OCE:SA:87721241"}]}