{"pagination": {"start_page": 81, "items_on_page": 25, "items_per_page": 25, "total_result": 4343}, "links": [{"href": "https://api.sncf.com/v1/coverage/sncf/stop_areas/{stop_areas.id}", "type": "stop_areas", "rel": "stop_areas", "templated": true}, {"href": "https://api.sncf.com/v1/coverage/sncf/stop_areas/{stop_areas.id}/route_schedules", "type": "route_schedules", "rel": "route_schedules", "templated": true}, {"href": "https://api.sncf.com/v1/coverage/sncf/stop_areas/{stop_areas.id}/stop_schedules", "type": "stop_schedules", "rel": "stop_schedules", "templated": true}, {"href": "https://api.sncf.com/v1/coverage/sncf/stop_areas/{stop_areas.id}/arrivals", "type": "arrivals", "rel": "arrivals", "templated": true}, {"href": "https://api.sncf.com/v1/coverage/sncf/stop_areas/{stop_areas.id}/departures", "type": "departures", "rel": "departures", "templated": true}, {"href": "https://api.sncf.com/v1/coverage/sncf/stop_areas/{stop_areas.id}/places_nearby", "type": "places_nearby", "rel": "places_nearby", "templated": true}, {"href": "https://api.sncf.com/v1/coverage/sncf/stop_areas/{stop_areas.id}/journeys", "type": "journey", "rel": "journeys", "templated": true}, {"href": "https://api.sncf.com/v1/coverage/sncf/stop_areas/{stop_areas.id}/traffic_reports", "type": "disruption", "rel": "disruptions", "templated": true}, {"href": "https://api.sncf.com/v1/coverage/sncf/stop_areas?start_page=80", "type": "previous", "templated": false}, {"href": "https://api.sncf.com/v1/coverage/sncf/stop_areas?start_page=82", "type": "next", "templated": false}, {"href": "https://api.sncf.com/v1/coverage/sncf/stop_areas?start_page=173", "type": "last", "templated": false}, {"href": "https://api.sncf.com/v1/coverage/sncf/stop_areas", "type": "first", "templated": false}], "disruptions": [], "feed_publishers": [], "context": {"timezone": "Europe/Paris", "current_datetime": "20200210T135438"}, "stop_areas": [{"codes": [{"type": "CR-CI-CH", "value": "0087-478743-BV"}, {"type": "CR-CI-CH", "value": "0087-478743-BV"}, {"type": "UIC8", "value": "87478743"}, {"type": "external_code", "value": "OCE87478743"}], "name": "Le Genest", "links": [], "coord": {"lat": "48.096774", "lon": "-0.885341"}, "label": "Le Genest (Le Genest-Saint-Isle)", "administrative_regions": [{"insee": "53103", "name": "Le Genest-Saint-Isle", "level": 8, "coord": {"lat": "48.0989921", "lon": "-0.8867728"}, "label": "Le Genest-Saint-Isle (53940)", "id": "admin:fr:53103", "zip_code": "53940"}], "timezone": "Europe/Paris", "id": "stop_area:OCE:SA:87478743"}, {"codes": [{"type": "CR-CI-CH", "value": "0087-444323-00"}, {"type": "CR-CI-CH", "value": "0087-444323-00"}, {"type": "UIC8", "value": "87444323"}, {"type": "external_code", "value": "OCE87444323"}], "name": "Le Grand-Jardin", "links": [], "coord": {"lat": "49.150305", "lon": "0.227203"}, "label": "Le Grand-Jardin (Lisieux)", "administrative_regions": [{"insee": "14366", "name": "Lisieux", "level": 8, "coord": {"lat": "49.1460831", "lon": "0.2255168"}, "label": "Lisieux (14100)", "id": "admin:fr:14366", "zip_code": "14100"}], "timezone": "Europe/Paris", "id": "stop_area:OCE:SA:87444323"}, {"codes": [{"type": "CR-CI-CH", "value": "0087-747220-00"}, {"type": "CR-CI-CH", "value": "0087-747220-00"}, {"type": "UIC8", "value": "87747220"}, {"type": "external_code", "value": "OCE87747220"}], "name": "Le Grand-Lemps", "links": [], "coord": {"lat": "45.396678", "lon": "5.423061"}, "label": "Le Grand-Lemps (Le Grand-Lemps)", "administrative_regions": [{"insee": "38182", "name": "Le Grand-Lemps", "level": 8, "coord": {"lat": "45.3985674", "lon": "5.4193506"}, "label": "Le Grand-Lemps (38690)", "id": "admin:fr:38182", "zip_code": "38690"}], "timezone": "Europe/Paris", "id": "stop_area:OCE:SA:87747220"}, {"codes": [{"type": "CR-CI-CH", "value": "0087-775866-00"}, {"type": "CR-CI-CH", "value": "0087-775866-00"}, {"type": "UIC8", "value": "87775866"}, {"type": "external_code", "value": "OCE87775866"}], "name": "Le Grau-du-Roi", "links": [], "coord": {"lat": "43.536582", "lon": "4.140867"}, "label": "Le Grau-du-Roi (Le Grau-du-Roi)", "administrative_regions": [{"insee": "30133", "name": "Le Grau-du-Roi", "level": 8, "coord": {"lat": "43.5361048", "lon": "4.1360255"}, "label": "Le Grau-du-Roi (30240)", "id": "admin:fr:30133", "zip_code": "30240"}], "timezone": "Europe/Paris", "id": "stop_area:OCE:SA:87775866"}, {"codes": [{"type": "CR-CI-CH", "value": "0087-758839-00"}, {"type": "CR-CI-CH", "value": "0087-758839-00"}, {"type": "UIC8", "value": "87758839"}, {"type": "external_code", "value": "OCE87758839"}], "name": "Le Guichet", "links": [], "coord": {"lat": "48.704912", "lon": "2.191361"}, "label": "Le Guichet (Orsay)", "administrative_regions": [{"insee": "91471", "name": "Orsay", "level": 8, "coord": {"lat": "48.699184", "lon": "2.187457"}, "label": "Orsay (91400)", "id": "admin:fr:91471", "zip_code": "91400"}], "timezone": "Europe/Paris", "id": "stop_area:OCE:SA:87758839"}, {"codes": [{"type": "CR-CI-CH", "value": "0087-316687-00"}, {"type": "CR-CI-CH", "value": "0087-316687-00"}, {"type": "UIC8", "value": "87316687"}, {"type": "external_code", "value": "OCE87316687"}], "name": "Le Haut-Banc", "links": [], "coord": {"lat": "50.816414", "lon": "1.772302"}, "label": "Le Haut-Banc (Ferques)", "administrative_regions": [{"insee": "62329", "name": "Ferques", "level": 8, "coord": {"lat": "50.8310488", "lon": "1.7677496"}, "label": "Ferques (62250)", "id": "admin:fr:62329", "zip_code": "62250"}], "timezone": "Europe/Paris", "id": "stop_area:OCE:SA:87316687"}, {"codes": [{"type": "CR-CI-CH", "value": "0087-413013-BV"}, {"type": "CR-CI-CH", "value": "0087-413013-BV"}, {"type": "UIC8", "value": "87413013"}, {"type": "external_code", "value": "OCE87413013"}], "name": "Le Havre", "links": [], "coord": {"lat": "49.492653", "lon": "0.124835"}, "label": "Le Havre (Le Havre)", "administrative_regions": [{"insee": "76351", "name": "Le Havre", "level": 8, "coord": {"lat": "49.4938975", "lon": "0.1079732"}, "label": "Le Havre (76600-76620)", "id": "admin:fr:76351", "zip_code": "76600;76620"}], "timezone": "Europe/Paris", "id": "stop_area:OCE:SA:87413013"}, {"codes": [{"type": "CR-CI-CH", "value": "0087-413203-00"}, {"type": "CR-CI-CH", "value": "0087-413203-00"}, {"type": "UIC8", "value": "87413203"}, {"type": "external_code", "value": "OCE87413203"}], "name": "Le Havre-Graville", "links": [], "coord": {"lat": "49.499874", "lon": "0.160698"}, "label": "Le Havre-Graville (Le Havre)", "administrative_regions": [{"insee": "76351", "name": "Le Havre", "level": 8, "coord": {"lat": "49.4938975", "lon": "0.1079732"}, "label": "Le Havre (76600-76620)", "id": "admin:fr:76351", "zip_code": "76600;76620"}], "timezone": "Europe/Paris", "id": "stop_area:OCE:SA:87413203"}, {"codes": [{"type": "CR-CI-CH", "value": "0087-645473-00"}, {"type": "CR-CI-CH", "value": "0087-645473-00"}, {"type": "UIC8", "value": "87645473"}, {"type": "external_code", "value": "OCE87645473"}], "name": "Le Lioran", "links": [], "coord": {"lat": "45.09075", "lon": "2.753267"}, "label": "Le Lioran (Laveissi\u00e8re)", "administrative_regions": [{"insee": "15101", "name": "Laveissi\u00e8re", "level": 8, "coord": {"lat": "45.1153617", "lon": "2.8079656"}, "label": "Laveissi\u00e8re (15300)", "id": "admin:fr:15101", "zip_code": "15300"}], "timezone": "Europe/Paris", "id": "stop_area:OCE:SA:87645473"}, {"codes": [{"type": "CR-CI-CH", "value": "0085-043166-BV"}, {"type": "CR-CI-CH", "value": "0085-043166-BV"}, {"type": "UIC8", "value": "85043166"}, {"type": "external_code", "value": "OCE85043166"}], "name": "Le Locle", "links": [], "coord": {"lat": "47.05788", "lon": "6.746129"}, "label": "Le Locle (Le Locle)", "administrative_regions": [{"insee": "", "name": "Le Locle", "level": 8, "coord": {"lat": "47.0531744622108", "lon": "6.74819061153577"}, "label": "Le Locle (2400)", "id": "admin:osm:relation:1685506", "zip_code": "2400"}], "timezone": "Europe/Paris", "id": "stop_area:OCE:SA:85043166"}, {"codes": [{"type": "CR-CI-CH", "value": "0087-598219-WS"}, {"type": "CR-CI-CH", "value": "0087-598219-WS"}, {"type": "UIC8", "value": "87598219"}, {"type": "external_code", "value": "OCE87598219"}], "name": "Le Locle-Col-des-Roches", "links": [], "coord": {"lat": "47.04989", "lon": "6.725831"}, "label": "Le Locle-Col-des-Roches (Le Locle)", "administrative_regions": [{"insee": "", "name": "Le Locle", "level": 8, "coord": {"lat": "47.0531744622108", "lon": "6.74819061153577"}, "label": "Le Locle (2400)", "id": "admin:osm:relation:1685506", "zip_code": "2400"}], "timezone": "Europe/Paris", "id": "stop_area:OCE:SA:87598219"}, {"codes": [{"type": "CR-CI-CH", "value": "0087-598227-WS"}, {"type": "CR-CI-CH", "value": "0087-598227-WS"}, {"type": "UIC8", "value": "87598227"}, {"type": "external_code", "value": "OCE87598227"}], "name": "Le Locle.", "links": [], "coord": {"lat": "47.057708", "lon": "6.746141"}, "label": "Le Locle. (Le Locle)", "administrative_regions": [{"insee": "", "name": "Le Locle", "level": 8, "coord": {"lat": "47.0531744622108", "lon": "6.74819061153577"}, "label": "Le Locle (2400)", "id": "admin:osm:relation:1685506", "zip_code": "2400"}], "timezone": "Europe/Paris", "id": "stop_area:OCE:SA:87598227"}, {"codes": [{"type": "CR-CI-CH", "value": "0087-755405-00"}, {"type": "CR-CI-CH", "value": "0087-755405-00"}, {"type": "UIC8", "value": "87755405"}, {"type": "external_code", "value": "OCE87755405"}], "name": "Le Luc-et-le-Cannet", "links": [], "coord": {"lat": "43.390301", "lon": "6.343011"}, "label": "Le Luc-et-le-Cannet (Le Cannet-des-Maures)", "administrative_regions": [{"insee": "83031", "name": "Le Cannet-des-Maures", "level": 8, "coord": {"lat": "43.3902105", "lon": "6.341972"}, "label": "Le Cannet-des-Maures (83340)", "id": "admin:fr:83031", "zip_code": "83340"}], "timezone": "Europe/Paris", "id": "stop_area:OCE:SA:87755405"}, {"codes": [{"type": "CR-CI-CH", "value": "0087-396002-BV"}, {"type": "CR-CI-CH", "value": "0087-396002-BV"}, {"type": "UIC8", "value": "87396002"}, {"type": "external_code", "value": "OCE87396002"}], "name": "Le Mans", "links": [], "coord": {"lat": "47.995584", "lon": "0.192143"}, "label": "Le Mans (Le Mans)", "administrative_regions": [{"insee": "72181", "name": "Le Mans", "level": 8, "coord": {"lat": "48.0073498", "lon": "0.1967379"}, "label": "Le Mans (72000-72100)", "id": "admin:fr:72181", "zip_code": "72000;72100"}], "timezone": "Europe/Paris", "id": "stop_area:OCE:SA:87396002"}, {"codes": [{"type": "CR-CI-CH", "value": "0087-391698-00"}, {"type": "CR-CI-CH", "value": "0087-391698-00"}, {"type": "UIC8", "value": "87391698"}, {"type": "external_code", "value": "OCE87391698"}], "name": "Le Merlerault-Centre", "links": [], "coord": {"lat": "48.700273", "lon": "0.283877"}, "label": "Le Merlerault-Centre (Le Merlerault)", "administrative_regions": [{"insee": "61275", "name": "Le Merlerault", "level": 8, "coord": {"lat": "48.7010865", "lon": "0.2860804"}, "label": "Le Merlerault (61240)", "id": "admin:fr:61275", "zip_code": "61240"}], "timezone": "Europe/Paris", "id": "stop_area:OCE:SA:87391698"}, {"codes": [{"type": "CR-CI-CH", "value": "0087-276733-00"}, {"type": "CR-CI-CH", "value": "0087-276733-00"}, {"type": "UIC8", "value": "87276733"}, {"type": "external_code", "value": "OCE87276733"}], "name": "Le Meux-Croix-St-Ouen", "links": [], "coord": {"lat": "49.359339", "lon": "2.753271"}, "label": "Le Meux-Croix-St-Ouen (Le Meux)", "administrative_regions": [{"insee": "60402", "name": "Le Meux", "level": 8, "coord": {"lat": "49.3669433", "lon": "2.7439069"}, "label": "Le Meux (60880)", "id": "admin:fr:60402", "zip_code": "60880"}], "timezone": "Europe/Paris", "id": "stop_area:OCE:SA:87276733"}, {"codes": [{"type": "CR-CI-CH", "value": "0087-444083-00"}, {"type": "CR-CI-CH", "value": "0087-444083-00"}, {"type": "UIC8", "value": "87444083"}, {"type": "external_code", "value": "OCE87444083"}], "name": "Le Molay-Littry", "links": [], "coord": {"lat": "49.24892", "lon": "-0.883239"}, "label": "Le Molay-Littry (Le Molay-Littry)", "administrative_regions": [{"insee": "14370", "name": "Le Molay-Littry", "level": 8, "coord": {"lat": "49.2426447", "lon": "-0.8711322"}, "label": "Le Molay-Littry (14330)", "id": "admin:fr:14370", "zip_code": "14330"}], "timezone": "Europe/Paris", "id": "stop_area:OCE:SA:87444083"}, {"codes": [{"type": "CR-CI-CH", "value": "0087-783308-00"}, {"type": "CR-CI-CH", "value": "0087-783308-00"}, {"type": "UIC8", "value": "87783308"}, {"type": "external_code", "value": "OCE87783308"}], "name": "Le Monastier", "links": [], "coord": {"lat": "44.509002", "lon": "3.252196"}, "label": "Le Monastier (Bourgs sur Colagne)", "administrative_regions": [{"insee": "48099", "name": "Bourgs sur Colagne", "level": 8, "coord": {"lat": "44.5154938", "lon": "3.2555421"}, "label": "Bourgs sur Colagne (48100)", "id": "admin:fr:48099", "zip_code": "48100"}], "timezone": "Europe/Paris", "id": "stop_area:OCE:SA:87783308"}, {"codes": [{"type": "CR-CI-CH", "value": "0087-693291-HR"}, {"type": "UIC8", "value": "87693291"}, {"type": "external_code", "value": "OCE87693291"}], "name": "Le Mont Dore Ski", "links": [], "coord": {"lat": "45.542113", "lon": "2.816725"}, "label": "Le Mont Dore Ski (Mont-Dore)", "administrative_regions": [{"insee": "63236", "name": "Mont-Dore", "level": 8, "coord": {"lat": "45.5749966", "lon": "2.8094117"}, "label": "Mont-Dore (63240)", "id": "admin:fr:63236", "zip_code": "63240"}], "timezone": "Europe/Paris", "id": "stop_area:OCE:SA:87693291"}, {"codes": [{"type": "CR-CI-CH", "value": "0087-321992-00"}, {"type": "CR-CI-CH", "value": "0087-321992-00"}, {"type": "UIC8", "value": "87321992"}, {"type": "external_code", "value": "OCE87321992"}], "name": "Le Mont St Michel", "links": [], "coord": {"lat": "48.612065", "lon": "-1.509941"}, "label": "Le Mont St Michel (Beauvoir)", "administrative_regions": [{"insee": "50042", "name": "Beauvoir", "level": 8, "coord": {"lat": "48.5980448", "lon": "-1.5042851"}, "label": "Beauvoir (50170)", "id": "admin:fr:50042", "zip_code": "50170"}], "timezone": "Europe/Paris", "id": "stop_area:OCE:SA:87321992"}, {"codes": [{"type": "CR-CI-CH", "value": "0087-682179-00"}, {"type": "CR-CI-CH", "value": "0087-682179-00"}, {"type": "UIC8", "value": "87682179"}, {"type": "external_code", "value": "OCE87682179"}], "name": "Le M\u00e9e", "links": [], "coord": {"lat": "48.539939", "lon": "2.624046"}, "label": "Le M\u00e9e (Le M\u00e9e-sur-Seine)", "administrative_regions": [{"insee": "77285", "name": "Le M\u00e9e-sur-Seine", "level": 8, "coord": {"lat": "48.5381859", "lon": "2.6335912"}, "label": "Le M\u00e9e-sur-Seine (77350)", "id": "admin:fr:77285", "zip_code": "77350"}], "timezone": "Europe/Paris", "id": "stop_area:OCE:SA:87682179"}, {"codes": [{"type": "CR-CI-CH", "value": "0087-214940-00"}, {"type": "CR-CI-CH", "value": "0087-214940-00"}, {"type": "UIC8", "value": "87214940"}, {"type": "external_code", "value": "OCE87214940"}], "name": "Le M\u00e9nilot", "links": [], "coord": {"lat": "48.239166", "lon": "4.298606"}, "label": "Le M\u00e9nilot (Monti\u00e9ramey)", "administrative_regions": [{"insee": "10249", "name": "Monti\u00e9ramey", "level": 8, "coord": {"lat": "48.2298363", "lon": "4.3053619"}, "label": "Monti\u00e9ramey (10270)", "id": "admin:fr:10249", "zip_code": "10270"}], "timezone": "Europe/Paris", "id": "stop_area:OCE:SA:87214940"}, {"codes": [{"type": "CR-CI-CH", "value": "0087-721522-00"}, {"type": "CR-CI-CH", "value": "0087-721522-00"}, {"type": "UIC8", "value": "87721522"}, {"type": "external_code", "value": "OCE87721522"}], "name": "Le M\u00e9ridien", "links": [], "coord": {"lat": "45.768833", "lon": "4.748303"}, "label": "Le M\u00e9ridien (Charbonni\u00e8res-les-Bains)", "administrative_regions": [{"insee": "69044", "name": "Charbonni\u00e8res-les-Bains", "level": 8, "coord": {"lat": "45.7787", "lon": "4.7459"}, "label": "Charbonni\u00e8res-les-Bains (69260)", "id": "admin:fr:69044", "zip_code": "69260"}], "timezone": "Europe/Paris", "id": "stop_area:OCE:SA:87721522"}, {"codes": [{"type": "CR-CI-CH", "value": "0087-481424-00"}, {"type": "CR-CI-CH", "value": "0087-481424-00"}, {"type": "UIC8", "value": "87481424"}, {"type": "external_code", "value": "OCE87481424"}], "name": "Le Pallet", "links": [], "coord": {"lat": "47.143826", "lon": "-1.346852"}, "label": "Le Pallet (Le Pallet)", "administrative_regions": [{"insee": "44117", "name": "Le Pallet", "level": 8, "coord": {"lat": "47.139588", "lon": "-1.3375978"}, "label": "Le Pallet (44330)", "id": "admin:fr:44117", "zip_code": "44330"}], "timezone": "Europe/Paris", "id": "stop_area:OCE:SA:87481424"}, {"codes": [{"type": "CR-CI-CH", "value": "0087-758169-00"}, {"type": "CR-CI-CH", "value": "0087-758169-00"}, {"type": "UIC8", "value": "87758169"}, {"type": "external_code", "value": "OCE87758169"}], "name": "Le Parc-de-St-Maur", "links": [], "coord": {"lat": "48.805145", "lon": "2.485621"}, "label": "Le Parc-de-St-Maur (Saint-Maur-des-Foss\u00e9s)", "administrative_regions": [{"insee": "94068", "name": "Saint-Maur-des-Foss\u00e9s", "level": 8, "coord": {"lat": "48.8033057", "lon": "2.4853015"}, "label": "Saint-Maur-des-Foss\u00e9s (94100-94210)", "id": "admin:fr:94068", "zip_code": "94100;94210"}], "timezone": "Europe/Paris", "id": "stop_area:OCE:SA:87758169"}]}