{"pagination": {"start_page": 129, "items_on_page": 25, "items_per_page": 25, "total_result": 4343}, "links": [{"href": "https://api.sncf.com/v1/coverage/sncf/stop_areas/{stop_areas.id}", "type": "stop_areas", "rel": "stop_areas", "templated": true}, {"href": "https://api.sncf.com/v1/coverage/sncf/stop_areas/{stop_areas.id}/route_schedules", "type": "route_schedules", "rel": "route_schedules", "templated": true}, {"href": "https://api.sncf.com/v1/coverage/sncf/stop_areas/{stop_areas.id}/stop_schedules", "type": "stop_schedules", "rel": "stop_schedules", "templated": true}, {"href": "https://api.sncf.com/v1/coverage/sncf/stop_areas/{stop_areas.id}/arrivals", "type": "arrivals", "rel": "arrivals", "templated": true}, {"href": "https://api.sncf.com/v1/coverage/sncf/stop_areas/{stop_areas.id}/departures", "type": "departures", "rel": "departures", "templated": true}, {"href": "https://api.sncf.com/v1/coverage/sncf/stop_areas/{stop_areas.id}/places_nearby", "type": "places_nearby", "rel": "places_nearby", "templated": true}, {"href": "https://api.sncf.com/v1/coverage/sncf/stop_areas/{stop_areas.id}/journeys", "type": "journey", "rel": "journeys", "templated": true}, {"href": "https://api.sncf.com/v1/coverage/sncf/stop_areas/{stop_areas.id}/traffic_reports", "type": "disruption", "rel": "disruptions", "templated": true}, {"href": "https://api.sncf.com/v1/coverage/sncf/stop_areas?start_page=128", "type": "previous", "templated": false}, {"href": "https://api.sncf.com/v1/coverage/sncf/stop_areas?start_page=130", "type": "next", "templated": false}, {"href": "https://api.sncf.com/v1/coverage/sncf/stop_areas?start_page=173", "type": "last", "templated": false}, {"href": "https://api.sncf.com/v1/coverage/sncf/stop_areas", "type": "first", "templated": false}], "disruptions": [], "feed_publishers": [], "context": {"timezone": "Europe/Paris", "current_datetime": "20200210T135445"}, "stop_areas": [{"codes": [{"type": "CR-CI-CH", "value": "0087-681338-BV"}, {"type": "CR-CI-CH", "value": "0087-681338-BV"}, {"type": "UIC8", "value": "87681338"}, {"type": "external_code", "value": "OCE87681338"}], "name": "Ris-Orangis", "links": [], "coord": {"lat": "48.659386", "lon": "2.414405"}, "label": "Ris-Orangis (Ris-Orangis)", "administrative_regions": [{"insee": "91521", "name": "Ris-Orangis", "level": 8, "coord": {"lat": "48.6538754", "lon": "2.4151151"}, "label": "Ris-Orangis (91130)", "id": "admin:fr:91521", "zip_code": "91130"}], "timezone": "Europe/Paris", "id": "stop_area:OCE:SA:87681338"}, {"codes": [{"type": "CR-CI-CH", "value": "0087-571653-00"}, {"type": "CR-CI-CH", "value": "0087-571653-00"}, {"type": "UIC8", "value": "87571653"}, {"type": "external_code", "value": "OCE87571653"}], "name": "Rivarennes", "links": [], "coord": {"lat": "47.267661", "lon": "0.361921"}, "label": "Rivarennes (Rivarennes)", "administrative_regions": [{"insee": "37200", "name": "Rivarennes", "level": 8, "coord": {"lat": "47.2671145", "lon": "0.3557458"}, "label": "Rivarennes (37190)", "id": "admin:fr:37200", "zip_code": "37190"}], "timezone": "Europe/Paris", "id": "stop_area:OCE:SA:87571653"}, {"codes": [{"type": "CR-CI-CH", "value": "0087-726331-00"}, {"type": "CR-CI-CH", "value": "0087-726331-00"}, {"type": "UIC8", "value": "87726331"}, {"type": "external_code", "value": "OCE87726331"}], "name": "Rive-de-Gier", "links": [], "coord": {"lat": "45.524337", "lon": "4.606362"}, "label": "Rive-de-Gier (Rive-de-Gier)", "administrative_regions": [{"insee": "42186", "name": "Rive-de-Gier", "level": 8, "coord": {"lat": "45.5288401", "lon": "4.6187386"}, "label": "Rive-de-Gier (42800)", "id": "admin:fr:42186", "zip_code": "42800"}], "timezone": "Europe/Paris", "id": "stop_area:OCE:SA:87726331"}, {"codes": [{"type": "CR-CI-CH", "value": "0087-747246-00"}, {"type": "CR-CI-CH", "value": "0087-747246-00"}, {"type": "UIC8", "value": "87747246"}, {"type": "external_code", "value": "OCE87747246"}], "name": "Rives", "links": [], "coord": {"lat": "45.357595", "lon": "5.491897"}, "label": "Rives (Rives)", "administrative_regions": [{"insee": "38337", "name": "Rives", "level": 8, "coord": {"lat": "45.3501289", "lon": "5.5047411"}, "label": "Rives (38140)", "id": "admin:fr:38337", "zip_code": "38140"}], "timezone": "Europe/Paris", "id": "stop_area:OCE:SA:87747246"}, {"codes": [{"type": "CR-CI-CH", "value": "0087-784173-BV"}, {"type": "CR-CI-CH", "value": "0087-784173-BV"}, {"type": "UIC8", "value": "87784173"}, {"type": "external_code", "value": "OCE87784173"}], "name": "Rivesaltes", "links": [], "coord": {"lat": "42.76616", "lon": "2.867815"}, "label": "Rivesaltes (Rivesaltes)", "administrative_regions": [{"insee": "66164", "name": "Rivesaltes", "level": 8, "coord": {"lat": "42.7683568", "lon": "2.8709277"}, "label": "Rivesaltes (66600)", "id": "admin:fr:66164", "zip_code": "66600"}], "timezone": "Europe/Paris", "id": "stop_area:OCE:SA:87784173"}, {"codes": [{"type": "CR-CI-CH", "value": "0087-182071-BV"}, {"type": "CR-CI-CH", "value": "0087-182071-BV"}, {"type": "UIC8", "value": "87182071"}, {"type": "external_code", "value": "OCE87182071"}], "name": "Rixheim", "links": [], "coord": {"lat": "47.74872", "lon": "7.40655"}, "label": "Rixheim (Rixheim)", "administrative_regions": [{"insee": "68278", "name": "Rixheim", "level": 8, "coord": {"lat": "47.7441969", "lon": "7.3968786"}, "label": "Rixheim (68170)", "id": "admin:fr:68278", "zip_code": "68170"}], "timezone": "Europe/Paris", "id": "stop_area:OCE:SA:87182071"}, {"codes": [{"type": "CR-CI-CH", "value": "0087-659854-HR"}, {"type": "CR-CI-CH", "value": "0087-659854-HR"}, {"type": "UIC8", "value": "87659854"}, {"type": "external_code", "value": "OCE87659854"}], "name": "Rixheim-Arr\u00eat-Barri\u00e8re.", "links": [], "coord": {"lat": "47.747834", "lon": "7.409712"}, "label": "Rixheim-Arr\u00eat-Barri\u00e8re. (Rixheim)", "administrative_regions": [{"insee": "68278", "name": "Rixheim", "level": 8, "coord": {"lat": "47.7441969", "lon": "7.3968786"}, "label": "Rixheim (68170)", "id": "admin:fr:68278", "zip_code": "68170"}], "timezone": "Europe/Paris", "id": "stop_area:OCE:SA:87659854"}, {"codes": [{"type": "CR-CI-CH", "value": "0087-726802-BV"}, {"type": "CR-CI-CH", "value": "0087-726802-BV"}, {"type": "UIC8", "value": "87726802"}, {"type": "external_code", "value": "OCE87726802"}], "name": "Roanne", "links": [], "coord": {"lat": "46.040212", "lon": "4.063135"}, "label": "Roanne (Roanne)", "administrative_regions": [{"insee": "42187", "name": "Roanne", "level": 8, "coord": {"lat": "46.0345572", "lon": "4.0729178"}, "label": "Roanne (42300)", "id": "admin:fr:42187", "zip_code": "42300"}], "timezone": "Europe/Paris", "id": "stop_area:OCE:SA:87726802"}, {"codes": [{"type": "CR-CI-CH", "value": "0087-698639-HR"}, {"type": "UIC8", "value": "87698639"}, {"type": "external_code", "value": "OCE87698639"}], "name": "Roanne-Gare-Routi\u00e8re", "links": [], "coord": {"lat": "46.041211", "lon": "4.060763"}, "label": "Roanne-Gare-Routi\u00e8re (Roanne)", "administrative_regions": [{"insee": "42187", "name": "Roanne", "level": 8, "coord": {"lat": "46.0345572", "lon": "4.0729178"}, "label": "Roanne (42300)", "id": "admin:fr:42187", "zip_code": "42300"}], "timezone": "Europe/Paris", "id": "stop_area:OCE:SA:87698639"}, {"codes": [{"type": "CR-CI-CH", "value": "0087-758722-00"}, {"type": "CR-CI-CH", "value": "0087-758722-00"}, {"type": "UIC8", "value": "87758722"}, {"type": "external_code", "value": "OCE87758722"}], "name": "Robinson", "links": [], "coord": {"lat": "48.78004", "lon": "2.281549"}, "label": "Robinson (Sceaux)", "administrative_regions": [{"insee": "92071", "name": "Sceaux", "level": 8, "coord": {"lat": "48.7790592", "lon": "2.2886619"}, "label": "Sceaux (92330)", "id": "admin:fr:92071", "zip_code": "92330"}], "timezone": "Europe/Paris", "id": "stop_area:OCE:SA:87758722"}, {"codes": [{"type": "CR-CI-CH", "value": "0087-613042-BV"}, {"type": "CR-CI-CH", "value": "0087-613042-BV"}, {"type": "UIC8", "value": "87613042"}, {"type": "external_code", "value": "OCE87613042"}], "name": "Rocamadour-Padirac", "links": [], "coord": {"lat": "44.817911", "lon": "1.657445"}, "label": "Rocamadour-Padirac (Rocamadour)", "administrative_regions": [{"insee": "46240", "name": "Rocamadour", "level": 8, "coord": {"lat": "44.7991877", "lon": "1.6183521"}, "label": "Rocamadour (46500)", "id": "admin:fr:46240", "zip_code": "46500"}], "timezone": "Europe/Paris", "id": "stop_area:OCE:SA:87613042"}, {"codes": [{"type": "CR-CI-CH", "value": "0087-718403-00"}, {"type": "CR-CI-CH", "value": "0087-718403-00"}, {"type": "UIC8", "value": "87718403"}, {"type": "external_code", "value": "OCE87718403"}], "name": "Roche-lez-Beaupr\u00e9", "links": [], "coord": {"lat": "47.276417", "lon": "6.111272"}, "label": "Roche-lez-Beaupr\u00e9 (Roche-lez-Beaupr\u00e9)", "administrative_regions": [{"insee": "25495", "name": "Roche-lez-Beaupr\u00e9", "level": 8, "coord": {"lat": "47.2751161", "lon": "6.1155351"}, "label": "Roche-lez-Beaupr\u00e9 (25220)", "id": "admin:fr:25495", "zip_code": "25220"}], "timezone": "Europe/Paris", "id": "stop_area:OCE:SA:87718403"}, {"codes": [{"type": "CR-CI-CH", "value": "0087-485144-BV"}, {"type": "CR-CI-CH", "value": "0087-485144-BV"}, {"type": "UIC8", "value": "87485144"}, {"type": "external_code", "value": "OCE87485144"}], "name": "Rochefort", "links": [], "coord": {"lat": "45.947416", "lon": "-0.963788"}, "label": "Rochefort (Rochefort)", "administrative_regions": [{"insee": "17299", "name": "Rochefort", "level": 8, "coord": {"lat": "45.9442642", "lon": "-0.9690432"}, "label": "Rochefort (17300)", "id": "admin:fr:17299", "zip_code": "17300"}], "timezone": "Europe/Paris", "id": "stop_area:OCE:SA:87485144"}, {"codes": [{"type": "CR-CI-CH", "value": "0087-534073-HR"}, {"type": "CR-CI-CH", "value": "0087-534073-HR"}, {"type": "UIC8", "value": "87534073"}, {"type": "external_code", "value": "OCE87534073"}], "name": "Rochefort-Montagne", "links": [], "coord": {"lat": "45.687115", "lon": "2.805446"}, "label": "Rochefort-Montagne (Rochefort-Montagne)", "administrative_regions": [{"insee": "63305", "name": "Rochefort-Montagne", "level": 8, "coord": {"lat": "45.6838904", "lon": "2.8050875"}, "label": "Rochefort-Montagne (63210)", "id": "admin:fr:63305", "zip_code": "63210"}], "timezone": "Europe/Paris", "id": "stop_area:OCE:SA:87534073"}, {"codes": [{"type": "CR-CI-CH", "value": "0087-313601-00"}, {"type": "CR-CI-CH", "value": "0087-313601-00"}, {"type": "UIC8", "value": "87313601"}, {"type": "external_code", "value": "OCE87313601"}], "name": "Rochy-Cond\u00e9", "links": [], "coord": {"lat": "49.398663", "lon": "2.172761"}, "label": "Rochy-Cond\u00e9 (Rochy-Cond\u00e9)", "administrative_regions": [{"insee": "60542", "name": "Rochy-Cond\u00e9", "level": 8, "coord": {"lat": "49.4031119", "lon": "2.1788811"}, "label": "Rochy-Cond\u00e9 (60510)", "id": "admin:fr:60542", "zip_code": "60510"}], "timezone": "Europe/Paris", "id": "stop_area:OCE:SA:87313601"}, {"codes": [{"type": "CR-CI-CH", "value": "0082-009407-BV"}, {"type": "UIC8", "value": "82002370"}, {"type": "external_code", "value": "OCE82002370"}], "name": "Rodange", "links": [], "coord": {"lat": "49.551039", "lon": "5.839638"}, "label": "Rodange (P\u00e9tange)", "administrative_regions": [{"insee": "", "name": "P\u00e9tange", "level": 8, "coord": {"lat": "49.558174", "lon": "5.87971"}, "label": "P\u00e9tange", "id": "admin:osm:relation:407475", "zip_code": ""}], "timezone": "Europe/Paris", "id": "stop_area:OCE:SA:82002370"}, {"codes": [{"type": "CR-CI-CH", "value": "0087-613422-BV"}, {"type": "CR-CI-CH", "value": "0087-613422-BV"}, {"type": "UIC8", "value": "87613422"}, {"type": "external_code", "value": "OCE87613422"}], "name": "Rodez", "links": [], "coord": {"lat": "44.362652", "lon": "2.580253"}, "label": "Rodez (Rodez)", "administrative_regions": [{"insee": "12202", "name": "Rodez", "level": 8, "coord": {"lat": "44.3516207", "lon": "2.5728419"}, "label": "Rodez (12000)", "id": "admin:fr:12202", "zip_code": "12000"}], "timezone": "Europe/Paris", "id": "stop_area:OCE:SA:87613422"}, {"codes": [{"type": "CR-CI-CH", "value": "0087-212407-00"}, {"type": "CR-CI-CH", "value": "0087-212407-00"}, {"type": "UIC8", "value": "87212407"}, {"type": "external_code", "value": "OCE87212407"}], "name": "Roeschwoog", "links": [], "coord": {"lat": "48.833395", "lon": "8.029565"}, "label": "Roeschwoog (R\u0153schwoog)", "administrative_regions": [{"insee": "67405", "name": "R\u0153schwoog", "level": 8, "coord": {"lat": "48.8278605", "lon": "8.036349100000001"}, "label": "R\u0153schwoog (67480)", "id": "admin:fr:67405", "zip_code": "67480"}], "timezone": "Europe/Paris", "id": "stop_area:OCE:SA:87212407"}, {"codes": [{"type": "CR-CI-CH", "value": "0087-342089-00"}, {"type": "CR-CI-CH", "value": "0087-342089-00"}, {"type": "UIC8", "value": "87342089"}, {"type": "external_code", "value": "OCE87342089"}], "name": "Roeux (Pas de Calais)", "links": [], "coord": {"lat": "50.303484", "lon": "2.894725"}, "label": "Roeux (Pas de Calais) (R\u0153ux)", "administrative_regions": [{"insee": "62718", "name": "R\u0153ux", "level": 8, "coord": {"lat": "50.2949815", "lon": "2.897571"}, "label": "R\u0153ux (62118)", "id": "admin:fr:62718", "zip_code": "62118"}], "timezone": "Europe/Paris", "id": "stop_area:OCE:SA:87342089"}, {"codes": [{"type": "CR-CI-CH", "value": "0087-753251-BV"}, {"type": "CR-CI-CH", "value": "0087-753251-BV"}, {"type": "UIC8", "value": "87753251"}, {"type": "external_code", "value": "OCE87753251"}], "name": "Rognac", "links": [], "coord": {"lat": "43.48662", "lon": "5.230664"}, "label": "Rognac (Rognac)", "administrative_regions": [{"insee": "13081", "name": "Rognac", "level": 8, "coord": {"lat": "43.4872341", "lon": "5.2342903"}, "label": "Rognac (13340)", "id": "admin:fr:13081", "zip_code": "13340"}], "timezone": "Europe/Paris", "id": "stop_area:OCE:SA:87753251"}, {"codes": [{"type": "CR-CI-CH", "value": "0087-406967-00"}, {"type": "CR-CI-CH", "value": "0087-406967-00"}, {"type": "UIC8", "value": "87406967"}, {"type": "external_code", "value": "OCE87406967"}], "name": "Rohrbach R. Alli\u00e9s", "links": [], "coord": {"lat": "49.046039", "lon": "7.26521"}, "label": "Rohrbach R. Alli\u00e9s (Rohrbach-l\u00e8s-Bitche)", "administrative_regions": [{"insee": "57589", "name": "Rohrbach-l\u00e8s-Bitche", "level": 8, "coord": {"lat": "49.0460974", "lon": "7.2655417"}, "label": "Rohrbach-l\u00e8s-Bitche (57410)", "id": "admin:fr:57589", "zip_code": "57410"}], "timezone": "Europe/Paris", "id": "stop_area:OCE:SA:87406967"}, {"codes": [{"type": "CR-CI-CH", "value": "0087-193789-00"}, {"type": "CR-CI-CH", "value": "0087-193789-00"}, {"type": "UIC8", "value": "87193789"}, {"type": "external_code", "value": "OCE87193789"}], "name": "Rohrbach R. Sarreg.", "links": [], "coord": {"lat": "49.055356", "lon": "7.26436"}, "label": "Rohrbach R. Sarreg. (Rohrbach-l\u00e8s-Bitche)", "administrative_regions": [{"insee": "57589", "name": "Rohrbach-l\u00e8s-Bitche", "level": 8, "coord": {"lat": "49.0460974", "lon": "7.2655417"}, "label": "Rohrbach-l\u00e8s-Bitche (57410)", "id": "admin:fr:57589", "zip_code": "57410"}], "timezone": "Europe/Paris", "id": "stop_area:OCE:SA:87193789"}, {"codes": [{"type": "CR-CI-CH", "value": "0087-116038-00"}, {"type": "CR-CI-CH", "value": "0087-116038-00"}, {"type": "UIC8", "value": "87116038"}, {"type": "external_code", "value": "OCE87116038"}], "name": "Roissy-en-Brie", "links": [], "coord": {"lat": "48.795408", "lon": "2.649849"}, "label": "Roissy-en-Brie (Roissy-en-Brie)", "administrative_regions": [{"insee": "77390", "name": "Roissy-en-Brie", "level": 8, "coord": {"lat": "48.7903787", "lon": "2.6545195"}, "label": "Roissy-en-Brie (77680)", "id": "admin:fr:77390", "zip_code": "77680"}], "timezone": "Europe/Paris", "id": "stop_area:OCE:SA:87116038"}, {"codes": [{"type": "CR-CI-CH", "value": "0087-279976-00"}, {"type": "CR-CI-CH", "value": "0087-279976-00"}, {"type": "UIC8", "value": "87279976"}, {"type": "external_code", "value": "OCE87279976"}], "name": "Rolampont-Mairie", "links": [], "coord": {"lat": "47.951942", "lon": "5.284996"}, "label": "Rolampont-Mairie (Rolampont)", "administrative_regions": [{"insee": "52432", "name": "Rolampont", "level": 8, "coord": {"lat": "47.9493239", "lon": "5.2865474"}, "label": "Rolampont (52260)", "id": "admin:fr:52432", "zip_code": "52260"}], "timezone": "Europe/Paris", "id": "stop_area:OCE:SA:87279976"}, {"codes": [{"type": "CR-CI-CH", "value": "0087-413740-00"}, {"type": "CR-CI-CH", "value": "0087-413740-00"}, {"type": "UIC8", "value": "87413740"}, {"type": "external_code", "value": "OCE87413740"}], "name": "Rolleville", "links": [], "coord": {"lat": "49.581857", "lon": "0.215865"}, "label": "Rolleville (Rolleville)", "administrative_regions": [{"insee": "76534", "name": "Rolleville", "level": 8, "coord": {"lat": "49.5822525", "lon": "0.2124761"}, "label": "Rolleville (76133)", "id": "admin:fr:76534", "zip_code": "76133"}], "timezone": "Europe/Paris", "id": "stop_area:OCE:SA:87413740"}]}