{"pagination": {"start_page": 112, "items_on_page": 25, "items_per_page": 25, "total_result": 4343}, "links": [{"href": "https://api.sncf.com/v1/coverage/sncf/stop_areas/{stop_areas.id}", "type": "stop_areas", "rel": "stop_areas", "templated": true}, {"href": "https://api.sncf.com/v1/coverage/sncf/stop_areas/{stop_areas.id}/route_schedules", "type": "route_schedules", "rel": "route_schedules", "templated": true}, {"href": "https://api.sncf.com/v1/coverage/sncf/stop_areas/{stop_areas.id}/stop_schedules", "type": "stop_schedules", "rel": "stop_schedules", "templated": true}, {"href": "https://api.sncf.com/v1/coverage/sncf/stop_areas/{stop_areas.id}/arrivals", "type": "arrivals", "rel": "arrivals", "templated": true}, {"href": "https://api.sncf.com/v1/coverage/sncf/stop_areas/{stop_areas.id}/departures", "type": "departures", "rel": "departures", "templated": true}, {"href": "https://api.sncf.com/v1/coverage/sncf/stop_areas/{stop_areas.id}/places_nearby", "type": "places_nearby", "rel": "places_nearby", "templated": true}, {"href": "https://api.sncf.com/v1/coverage/sncf/stop_areas/{stop_areas.id}/journeys", "type": "journey", "rel": "journeys", "templated": true}, {"href": "https://api.sncf.com/v1/coverage/sncf/stop_areas/{stop_areas.id}/traffic_reports", "type": "disruption", "rel": "disruptions", "templated": true}, {"href": "https://api.sncf.com/v1/coverage/sncf/stop_areas?start_page=111", "type": "previous", "templated": false}, {"href": "https://api.sncf.com/v1/coverage/sncf/stop_areas?start_page=113", "type": "next", "templated": false}, {"href": "https://api.sncf.com/v1/coverage/sncf/stop_areas?start_page=173", "type": "last", "templated": false}, {"href": "https://api.sncf.com/v1/coverage/sncf/stop_areas", "type": "first", "templated": false}], "disruptions": [], "feed_publishers": [], "context": {"timezone": "Europe/Paris", "current_datetime": "20200210T135443"}, "stop_areas": [{"codes": [{"type": "CR-CI-CH", "value": "0087-592725-00"}, {"type": "CR-CI-CH", "value": "0087-592725-00"}, {"type": "UIC8", "value": "87592725"}, {"type": "external_code", "value": "OCE87592725"}], "name": "Nexon", "links": [], "coord": {"lat": "45.691534", "lon": "1.178428"}, "label": "Nexon (Nexon)", "administrative_regions": [{"insee": "87106", "name": "Nexon", "level": 8, "coord": {"lat": "45.6781476", "lon": "1.1867578"}, "label": "Nexon (87800)", "id": "admin:fr:87106", "zip_code": "87800"}], "timezone": "Europe/Paris", "id": "stop_area:OCE:SA:87592725"}, {"codes": [{"type": "CR-CI-CH", "value": "0087-381731-00"}, {"type": "CR-CI-CH", "value": "0087-381731-00"}, {"type": "UIC8", "value": "87381731"}, {"type": "external_code", "value": "OCE87381731"}], "name": "Nezel-Aulnay", "links": [], "coord": {"lat": "48.938618", "lon": "1.840517"}, "label": "Nezel-Aulnay (N\u00e9zel)", "administrative_regions": [{"insee": "78451", "name": "N\u00e9zel", "level": 8, "coord": {"lat": "48.9450665", "lon": "1.8360467"}, "label": "N\u00e9zel (78410)", "id": "admin:fr:78451", "zip_code": "78410"}], "timezone": "Europe/Paris", "id": "stop_area:OCE:SA:87381731"}, {"codes": [{"type": "CR-CI-CH", "value": "0087-590299-00"}, {"type": "CR-CI-CH", "value": "0087-590299-00"}, {"type": "UIC8", "value": "87590299"}, {"type": "external_code", "value": "OCE87590299"}], "name": "Nice-Pont-Michel", "links": [], "coord": {"lat": "43.722792", "lon": "7.291653"}, "label": "Nice-Pont-Michel (Nice)", "administrative_regions": [{"insee": "6088", "name": "Nice", "level": 8, "coord": {"lat": "43.7009358", "lon": "7.2683912"}, "label": "Nice (06000-06300)", "id": "admin:fr:6088", "zip_code": "06000;06300"}], "timezone": "Europe/Paris", "id": "stop_area:OCE:SA:87590299"}, {"codes": [{"type": "CR-CI-CH", "value": "0087-756353-00"}, {"type": "CR-CI-CH", "value": "0087-756353-00"}, {"type": "UIC8", "value": "87756353"}, {"type": "external_code", "value": "OCE87756353"}], "name": "Nice-Riquier", "links": [], "coord": {"lat": "43.705702", "lon": "7.290389"}, "label": "Nice-Riquier (Nice)", "administrative_regions": [{"insee": "6088", "name": "Nice", "level": 8, "coord": {"lat": "43.7009358", "lon": "7.2683912"}, "label": "Nice (06000-06300)", "id": "admin:fr:6088", "zip_code": "06000;06300"}], "timezone": "Europe/Paris", "id": "stop_area:OCE:SA:87756353"}, {"codes": [{"type": "CR-CI-CH", "value": "0087-756254-00"}, {"type": "CR-CI-CH", "value": "0087-756254-00"}, {"type": "UIC8", "value": "87756254"}, {"type": "external_code", "value": "OCE87756254"}], "name": "Nice-St-Augustin", "links": [], "coord": {"lat": "43.671043", "lon": "7.216941"}, "label": "Nice-St-Augustin (Nice)", "administrative_regions": [{"insee": "6088", "name": "Nice", "level": 8, "coord": {"lat": "43.7009358", "lon": "7.2683912"}, "label": "Nice (06000-06300)", "id": "admin:fr:6088", "zip_code": "06000;06300"}], "timezone": "Europe/Paris", "id": "stop_area:OCE:SA:87756254"}, {"codes": [{"type": "CR-CI-CH", "value": "0087-756056-00"}, {"type": "CR-CI-CH", "value": "0087-756056-00"}, {"type": "UIC8", "value": "87756056"}, {"type": "external_code", "value": "OCE87756056"}], "name": "Nice-Ville", "links": [], "coord": {"lat": "43.704711", "lon": "7.261786"}, "label": "Nice-Ville (Nice)", "administrative_regions": [{"insee": "6088", "name": "Nice", "level": 8, "coord": {"lat": "43.7009358", "lon": "7.2683912"}, "label": "Nice (06000-06300)", "id": "admin:fr:6088", "zip_code": "06000;06300"}], "timezone": "Europe/Paris", "id": "stop_area:OCE:SA:87756056"}, {"codes": [{"type": "CR-CI-CH", "value": "0087-213256-BV"}, {"type": "CR-CI-CH", "value": "0087-213256-BV"}, {"type": "UIC8", "value": "87213256"}, {"type": "external_code", "value": "OCE87213256"}], "name": "Niederbronn", "links": [], "coord": {"lat": "48.952354", "lon": "7.633796"}, "label": "Niederbronn (Niederbronn-les-Bains)", "administrative_regions": [{"insee": "67324", "name": "Niederbronn-les-Bains", "level": 8, "coord": {"lat": "48.9510314", "lon": "7.6421767"}, "label": "Niederbronn-les-Bains (67110)", "id": "admin:fr:67324", "zip_code": "67110"}], "timezone": "Europe/Paris", "id": "stop_area:OCE:SA:87213256"}, {"codes": [{"type": "CR-CI-CH", "value": "0087-407270-00"}, {"type": "CR-CI-CH", "value": "0087-407270-00"}, {"type": "UIC8", "value": "87407270"}, {"type": "external_code", "value": "OCE87407270"}], "name": "Niederbronn (Arch\u00e9o)", "links": [], "coord": {"lat": "48.947893", "lon": "7.650638"}, "label": "Niederbronn (Arch\u00e9o) (Niederbronn-les-Bains)", "administrative_regions": [{"insee": "67324", "name": "Niederbronn-les-Bains", "level": 8, "coord": {"lat": "48.9510314", "lon": "7.6421767"}, "label": "Niederbronn-les-Bains (67110)", "id": "admin:fr:67324", "zip_code": "67110"}], "timezone": "Europe/Paris", "id": "stop_area:OCE:SA:87407270"}, {"codes": [{"type": "CR-CI-CH", "value": "0087-407296-00"}, {"type": "CR-CI-CH", "value": "0087-407296-00"}, {"type": "UIC8", "value": "87407296"}, {"type": "external_code", "value": "OCE87407296"}], "name": "Niederbronn (Usine)", "links": [], "coord": {"lat": "48.956997", "lon": "7.630661"}, "label": "Niederbronn (Usine) (Niederbronn-les-Bains)", "administrative_regions": [{"insee": "67324", "name": "Niederbronn-les-Bains", "level": 8, "coord": {"lat": "48.9510314", "lon": "7.6421767"}, "label": "Niederbronn-les-Bains (67110)", "id": "admin:fr:67324", "zip_code": "67110"}], "timezone": "Europe/Paris", "id": "stop_area:OCE:SA:87407296"}, {"codes": [{"type": "CR-CI-CH", "value": "0087-678524-HR"}, {"type": "CR-CI-CH", "value": "0087-678524-HR"}, {"type": "UIC8", "value": "87678524"}, {"type": "external_code", "value": "OCE87678524"}], "name": "Niederbronn-H.-de-Ville", "links": [], "coord": {"lat": "48.950819", "lon": "7.642391"}, "label": "Niederbronn-H.-de-Ville (Niederbronn-les-Bains)", "administrative_regions": [{"insee": "67324", "name": "Niederbronn-les-Bains", "level": 8, "coord": {"lat": "48.9510314", "lon": "7.6421767"}, "label": "Niederbronn-les-Bains (67110)", "id": "admin:fr:67324", "zip_code": "67110"}], "timezone": "Europe/Paris", "id": "stop_area:OCE:SA:87678524"}, {"codes": [{"type": "CR-CI-CH", "value": "0087-642058-HR"}, {"type": "CR-CI-CH", "value": "0087-642058-HR"}, {"type": "UIC8", "value": "87642058"}, {"type": "external_code", "value": "OCE87642058"}], "name": "Niederbruck-Centre", "links": [], "coord": {"lat": "47.784176", "lon": "6.968344"}, "label": "Niederbruck-Centre (Masevaux-Niederbruck)", "administrative_regions": [{"insee": "68201", "name": "Masevaux-Niederbruck", "level": 8, "coord": {"lat": "47.7749471", "lon": "6.9958272"}, "label": "Masevaux-Niederbruck", "id": "admin:fr:68201", "zip_code": ""}], "timezone": "Europe/Paris", "id": "stop_area:OCE:SA:87642058"}, {"codes": [{"type": "CR-CI-CH", "value": "0087-213884-00"}, {"type": "CR-CI-CH", "value": "0087-213884-00"}, {"type": "UIC8", "value": "87213884"}, {"type": "external_code", "value": "OCE87213884"}], "name": "Niedermodern/Uberach", "links": [], "coord": {"lat": "48.846527", "lon": "7.627873"}, "label": "Niedermodern/Uberach (Niedermodern)", "administrative_regions": [{"insee": "67328", "name": "Niedermodern", "level": 8, "coord": {"lat": "48.846175", "lon": "7.6269596"}, "label": "Niedermodern (67350)", "id": "admin:fr:67328", "zip_code": "67350"}], "timezone": "Europe/Paris", "id": "stop_area:OCE:SA:87213884"}, {"codes": [{"type": "CR-CI-CH", "value": "0087-703553-HR"}, {"type": "UIC8", "value": "87703553"}, {"type": "external_code", "value": "OCE87703553"}], "name": "Niederstinzel-Princi", "links": [], "coord": {"lat": "48.863236", "lon": "7.031504"}, "label": "Niederstinzel-Princi (Niederstinzel)", "administrative_regions": [{"insee": "57506", "name": "Niederstinzel", "level": 8, "coord": {"lat": "48.8628479", "lon": "7.0303281"}, "label": "Niederstinzel (57930)", "id": "admin:fr:57506", "zip_code": "57930"}], "timezone": "Europe/Paris", "id": "stop_area:OCE:SA:87703553"}, {"codes": [{"type": "CR-CI-CH", "value": "0087-287151-00"}, {"type": "CR-CI-CH", "value": "0087-287151-00"}, {"type": "UIC8", "value": "87287151"}, {"type": "external_code", "value": "OCE87287151"}], "name": "Nieppe", "links": [], "coord": {"lat": "50.69688", "lon": "2.828747"}, "label": "Nieppe (Nieppe)", "administrative_regions": [{"insee": "59431", "name": "Nieppe", "level": 8, "coord": {"lat": "50.703612", "lon": "2.8403065"}, "label": "Nieppe (59850)", "id": "admin:fr:59431", "zip_code": "59850"}], "timezone": "Europe/Paris", "id": "stop_area:OCE:SA:87287151"}, {"codes": [{"type": "CR-CI-CH", "value": "0087-592410-BV"}, {"type": "CR-CI-CH", "value": "0087-592410-BV"}, {"type": "UIC8", "value": "87592410"}, {"type": "external_code", "value": "OCE87592410"}], "name": "Nieul", "links": [], "coord": {"lat": "45.927436", "lon": "1.172244"}, "label": "Nieul (Nieul)", "administrative_regions": [{"insee": "87107", "name": "Nieul", "level": 8, "coord": {"lat": "45.9245595", "lon": "1.1713295"}, "label": "Nieul (87510)", "id": "admin:fr:87107", "zip_code": "87510"}], "timezone": "Europe/Paris", "id": "stop_area:OCE:SA:87592410"}, {"codes": [{"type": "CR-CI-CH", "value": "0087-689695-HR"}, {"type": "UIC8", "value": "87689695"}, {"type": "external_code", "value": "OCE87689695"}], "name": "Niherne Les Roches", "links": [], "coord": {"lat": "46.827428", "lon": "1.546408"}, "label": "Niherne Les Roches (Niherne)", "administrative_regions": [{"insee": "36142", "name": "Niherne", "level": 8, "coord": {"lat": "46.8288841", "lon": "1.5640575"}, "label": "Niherne (36250)", "id": "admin:fr:36142", "zip_code": "36250"}], "timezone": "Europe/Paris", "id": "stop_area:OCE:SA:87689695"}, {"codes": [{"type": "CR-CI-CH", "value": "0087-644211-HR"}, {"type": "CR-CI-CH", "value": "0087-644211-HR"}, {"type": "UIC8", "value": "87644211"}, {"type": "external_code", "value": "OCE87644211"}], "name": "Niherne-Centre", "links": [], "coord": {"lat": "46.829108", "lon": "1.564395"}, "label": "Niherne-Centre (Niherne)", "administrative_regions": [{"insee": "36142", "name": "Niherne", "level": 8, "coord": {"lat": "46.8288841", "lon": "1.5640575"}, "label": "Niherne (36250)", "id": "admin:fr:36142", "zip_code": "36250"}], "timezone": "Europe/Paris", "id": "stop_area:OCE:SA:87644211"}, {"codes": [{"type": "CR-CI-CH", "value": "0087-753582-00"}, {"type": "CR-CI-CH", "value": "0087-753582-00"}, {"type": "UIC8", "value": "87753582"}, {"type": "external_code", "value": "OCE87753582"}], "name": "Niolon", "links": [], "coord": {"lat": "43.340195", "lon": "5.256909"}, "label": "Niolon (Le Rove)", "administrative_regions": [{"insee": "13088", "name": "Le Rove", "level": 8, "coord": {"lat": "43.3690901", "lon": "5.2496375"}, "label": "Le Rove (13740)", "id": "admin:fr:13088", "zip_code": "13740"}], "timezone": "Europe/Paris", "id": "stop_area:OCE:SA:87753582"}, {"codes": [{"type": "CR-CI-CH", "value": "0087-485300-BV"}, {"type": "CR-CI-CH", "value": "0087-485300-BV"}, {"type": "UIC8", "value": "87485300"}, {"type": "external_code", "value": "OCE87485300"}], "name": "Niort", "links": [], "coord": {"lat": "46.319345", "lon": "-0.454391"}, "label": "Niort (Niort)", "administrative_regions": [{"insee": "79191", "name": "Niort", "level": 8, "coord": {"lat": "46.3239455", "lon": "-0.4645212"}, "label": "Niort (79000)", "id": "admin:fr:79191", "zip_code": "79000"}], "timezone": "Europe/Paris", "id": "stop_area:OCE:SA:87485300"}, {"codes": [{"type": "CR-CI-CH", "value": "0087-595512-00"}, {"type": "CR-CI-CH", "value": "0087-595512-00"}, {"type": "UIC8", "value": "87595512"}, {"type": "external_code", "value": "OCE87595512"}], "name": "Niversac", "links": [], "coord": {"lat": "45.138187", "lon": "0.808127"}, "label": "Niversac (Boulazac Isle Manoire) (Saint-Pierre-de-Chignac)", "administrative_regions": [{"insee": "24053", "name": "Boulazac Isle Manoire", "level": 8, "coord": {"lat": "45.1801801", "lon": "0.7691334"}, "label": "Boulazac Isle Manoire (24330)", "id": "admin:fr:24053", "zip_code": "24330"}, {"insee": "24484", "name": "Saint-Pierre-de-Chignac", "level": 8, "coord": {"lat": "45.1242", "lon": "0.85664"}, "label": "Saint-Pierre-de-Chignac", "id": "admin:fr:24484", "zip_code": ""}], "timezone": "Europe/Paris", "id": "stop_area:OCE:SA:87595512"}, {"codes": [{"type": "CR-CI-CH", "value": "0087-342139-00"}, {"type": "CR-CI-CH", "value": "0087-342139-00"}, {"type": "UIC8", "value": "87342139"}, {"type": "external_code", "value": "OCE87342139"}], "name": "Noeux", "links": [], "coord": {"lat": "50.482893", "lon": "2.674208"}, "label": "Noeux (N\u0153ux-les-Mines)", "administrative_regions": [{"insee": "62617", "name": "N\u0153ux-les-Mines", "level": 8, "coord": {"lat": "50.4754", "lon": "2.6621899"}, "label": "N\u0153ux-les-Mines (62290)", "id": "admin:fr:62617", "zip_code": "62290"}], "timezone": "Europe/Paris", "id": "stop_area:OCE:SA:87342139"}, {"codes": [{"type": "CR-CI-CH", "value": "0087-216150-00"}, {"type": "CR-CI-CH", "value": "0087-216150-00"}, {"type": "UIC8", "value": "87216150"}, {"type": "external_code", "value": "OCE87216150"}], "name": "Nogent-S/S De Gaulle", "links": [], "coord": {"lat": "48.492216", "lon": "3.509437"}, "label": "Nogent-S/S De Gaulle (Nogent-sur-Seine)", "administrative_regions": [{"insee": "10268", "name": "Nogent-sur-Seine", "level": 8, "coord": {"lat": "48.492439", "lon": "3.4978181"}, "label": "Nogent-sur-Seine (10400)", "id": "admin:fr:10268", "zip_code": "10400"}], "timezone": "Europe/Paris", "id": "stop_area:OCE:SA:87216150"}, {"codes": [{"type": "CR-CI-CH", "value": "0087-116566-BV"}, {"type": "CR-CI-CH", "value": "0087-116566-BV"}, {"type": "UIC8", "value": "87116566"}, {"type": "external_code", "value": "OCE87116566"}], "name": "Nogent-l'Artaud-Charly", "links": [], "coord": {"lat": "48.968771", "lon": "3.322933"}, "label": "Nogent-l'Artaud-Charly (Nogent-l'Artaud)", "administrative_regions": [{"insee": "2555", "name": "Nogent-l'Artaud", "level": 8, "coord": {"lat": "48.9649223", "lon": "3.3185557"}, "label": "Nogent-l'Artaud (02310)", "id": "admin:fr:2555", "zip_code": "02310"}], "timezone": "Europe/Paris", "id": "stop_area:OCE:SA:87116566"}, {"codes": [{"type": "CR-CI-CH", "value": "0087-113746-BV"}, {"type": "CR-CI-CH", "value": "0087-113746-BV"}, {"type": "UIC8", "value": "87113746"}, {"type": "external_code", "value": "OCE87113746"}], "name": "Nogent-le-Perreux", "links": [], "coord": {"lat": "48.838721", "lon": "2.494077"}, "label": "Nogent-le-Perreux (Nogent-sur-Marne)", "administrative_regions": [{"insee": "94052", "name": "Nogent-sur-Marne", "level": 8, "coord": {"lat": "48.8388009", "lon": "2.4917292"}, "label": "Nogent-sur-Marne (94130)", "id": "admin:fr:94052", "zip_code": "94130"}], "timezone": "Europe/Paris", "id": "stop_area:OCE:SA:87113746"}, {"codes": [{"type": "CR-CI-CH", "value": "0087-394296-BV"}, {"type": "CR-CI-CH", "value": "0087-394296-BV"}, {"type": "UIC8", "value": "87394296"}, {"type": "external_code", "value": "OCE87394296"}], "name": "Nogent-le-Rotrou", "links": [], "coord": {"lat": "48.325496", "lon": "0.8100579999999999"}, "label": "Nogent-le-Rotrou (Nogent-le-Rotrou)", "administrative_regions": [{"insee": "28280", "name": "Nogent-le-Rotrou", "level": 8, "coord": {"lat": "48.321809", "lon": "0.8211488"}, "label": "Nogent-le-Rotrou (28400)", "id": "admin:fr:28280", "zip_code": "28400"}], "timezone": "Europe/Paris", "id": "stop_area:OCE:SA:87394296"}]}