{"pagination": {"start_page": 131, "items_on_page": 25, "items_per_page": 25, "total_result": 4343}, "links": [{"href": "https://api.sncf.com/v1/coverage/sncf/stop_areas/{stop_areas.id}", "type": "stop_areas", "rel": "stop_areas", "templated": true}, {"href": "https://api.sncf.com/v1/coverage/sncf/stop_areas/{stop_areas.id}/route_schedules", "type": "route_schedules", "rel": "route_schedules", "templated": true}, {"href": "https://api.sncf.com/v1/coverage/sncf/stop_areas/{stop_areas.id}/stop_schedules", "type": "stop_schedules", "rel": "stop_schedules", "templated": true}, {"href": "https://api.sncf.com/v1/coverage/sncf/stop_areas/{stop_areas.id}/arrivals", "type": "arrivals", "rel": "arrivals", "templated": true}, {"href": "https://api.sncf.com/v1/coverage/sncf/stop_areas/{stop_areas.id}/departures", "type": "departures", "rel": "departures", "templated": true}, {"href": "https://api.sncf.com/v1/coverage/sncf/stop_areas/{stop_areas.id}/places_nearby", "type": "places_nearby", "rel": "places_nearby", "templated": true}, {"href": "https://api.sncf.com/v1/coverage/sncf/stop_areas/{stop_areas.id}/journeys", "type": "journey", "rel": "journeys", "templated": true}, {"href": "https://api.sncf.com/v1/coverage/sncf/stop_areas/{stop_areas.id}/traffic_reports", "type": "disruption", "rel": "disruptions", "templated": true}, {"href": "https://api.sncf.com/v1/coverage/sncf/stop_areas?start_page=130", "type": "previous", "templated": false}, {"href": "https://api.sncf.com/v1/coverage/sncf/stop_areas?start_page=132", "type": "next", "templated": false}, {"href": "https://api.sncf.com/v1/coverage/sncf/stop_areas?start_page=173", "type": "last", "templated": false}, {"href": "https://api.sncf.com/v1/coverage/sncf/stop_areas", "type": "first", "templated": false}], "disruptions": [], "feed_publishers": [], "context": {"timezone": "Europe/Paris", "current_datetime": "20200210T135445"}, "stop_areas": [{"codes": [{"type": "CR-CI-CH", "value": "0087-660902-HR"}, {"type": "CR-CI-CH", "value": "0087-660902-HR"}, {"type": "UIC8", "value": "87660902"}, {"type": "external_code", "value": "OCE87660902"}], "name": "Rosheim-Maison-Enfance.", "links": [], "coord": {"lat": "48.498331", "lon": "7.478609"}, "label": "Rosheim-Maison-Enfance. (Rosheim)", "administrative_regions": [{"insee": "67411", "name": "Rosheim", "level": 8, "coord": {"lat": "48.496421", "lon": "7.4698832"}, "label": "Rosheim (67560)", "id": "admin:fr:67411", "zip_code": "67560"}], "timezone": "Europe/Paris", "id": "stop_area:OCE:SA:87660902"}, {"codes": [{"type": "CR-CI-CH", "value": "0087-361980-00"}, {"type": "CR-CI-CH", "value": "0087-361980-00"}, {"type": "UIC8", "value": "87361980"}, {"type": "external_code", "value": "OCE87361980"}], "name": "Rosiers-d'Egletons", "links": [], "coord": {"lat": "45.376396", "lon": "2.0081"}, "label": "Rosiers-d'Egletons (Rosiers-d'\u00c9gletons)", "administrative_regions": [{"insee": "19176", "name": "Rosiers-d'\u00c9gletons", "level": 8, "coord": {"lat": "45.3769128", "lon": "2.0070114"}, "label": "Rosiers-d'\u00c9gletons (19300)", "id": "admin:fr:19176", "zip_code": "19300"}], "timezone": "Europe/Paris", "id": "stop_area:OCE:SA:87361980"}, {"codes": [{"type": "CR-CI-CH", "value": "0087-139733-00"}, {"type": "CR-CI-CH", "value": "0087-139733-00"}, {"type": "UIC8", "value": "87139733"}, {"type": "external_code", "value": "OCE87139733"}], "name": "Rosi\u00e8res", "links": [], "coord": {"lat": "48.256665", "lon": "4.064713"}, "label": "Rosi\u00e8res (Rosi\u00e8res-pr\u00e8s-Troyes)", "administrative_regions": [{"insee": "10325", "name": "Rosi\u00e8res-pr\u00e8s-Troyes", "level": 8, "coord": {"lat": "48.2572459", "lon": "4.0643669"}, "label": "Rosi\u00e8res-pr\u00e8s-Troyes (10430)", "id": "admin:fr:10325", "zip_code": "10430"}], "timezone": "Europe/Paris", "id": "stop_area:OCE:SA:87139733"}, {"codes": [{"type": "CR-CI-CH", "value": "0087-313460-00"}, {"type": "CR-CI-CH", "value": "0087-313460-00"}, {"type": "UIC8", "value": "87313460"}, {"type": "external_code", "value": "OCE87313460"}], "name": "Rosi\u00e8res (Somme)", "links": [], "coord": {"lat": "49.822548", "lon": "2.711259"}, "label": "Rosi\u00e8res (Somme) (Rosi\u00e8res-en-Santerre)", "administrative_regions": [{"insee": "80680", "name": "Rosi\u00e8res-en-Santerre", "level": 8, "coord": {"lat": "49.8135578", "lon": "2.703013"}, "label": "Rosi\u00e8res-en-Santerre (80170)", "id": "admin:fr:80680", "zip_code": "80170"}], "timezone": "Europe/Paris", "id": "stop_area:OCE:SA:87313460"}, {"codes": [{"type": "CR-CI-CH", "value": "0087-141127-BV"}, {"type": "CR-CI-CH", "value": "0087-141127-BV"}, {"type": "UIC8", "value": "87141127"}, {"type": "external_code", "value": "OCE87141127"}], "name": "Rosi\u00e8res-aux-Salines", "links": [], "coord": {"lat": "48.605424", "lon": "6.350632"}, "label": "Rosi\u00e8res-aux-Salines (Dombasle-sur-Meurthe)", "administrative_regions": [{"insee": "54159", "name": "Dombasle-sur-Meurthe", "level": 8, "coord": {"lat": "48.6231282", "lon": "6.3493799"}, "label": "Dombasle-sur-Meurthe (54110)", "id": "admin:fr:54159", "zip_code": "54110"}], "timezone": "Europe/Paris", "id": "stop_area:OCE:SA:87141127"}, {"codes": [{"type": "CR-CI-CH", "value": "0087-113696-00"}, {"type": "CR-CI-CH", "value": "0087-113696-00"}, {"type": "UIC8", "value": "87113696"}, {"type": "external_code", "value": "OCE87113696"}], "name": "Rosny-Bois-Perrier", "links": [], "coord": {"lat": "48.882704", "lon": "2.481496"}, "label": "Rosny-Bois-Perrier (Rosny-sous-Bois)", "administrative_regions": [{"insee": "93064", "name": "Rosny-sous-Bois", "level": 8, "coord": {"lat": "48.8716626", "lon": "2.4875193"}, "label": "Rosny-sous-Bois (93110)", "id": "admin:fr:93064", "zip_code": "93110"}], "timezone": "Europe/Paris", "id": "stop_area:OCE:SA:87113696"}, {"codes": [{"type": "CR-CI-CH", "value": "0087-113704-00"}, {"type": "CR-CI-CH", "value": "0087-113704-00"}, {"type": "UIC8", "value": "87113704"}, {"type": "external_code", "value": "OCE87113704"}], "name": "Rosny-sous-Bois", "links": [], "coord": {"lat": "48.870737", "lon": "2.485591"}, "label": "Rosny-sous-Bois (Rosny-sous-Bois)", "administrative_regions": [{"insee": "93064", "name": "Rosny-sous-Bois", "level": 8, "coord": {"lat": "48.8716626", "lon": "2.4875193"}, "label": "Rosny-sous-Bois (93110)", "id": "admin:fr:93064", "zip_code": "93110"}], "timezone": "Europe/Paris", "id": "stop_area:OCE:SA:87113704"}, {"codes": [{"type": "CR-CI-CH", "value": "0087-415885-00"}, {"type": "CR-CI-CH", "value": "0087-415885-00"}, {"type": "UIC8", "value": "87415885"}, {"type": "external_code", "value": "OCE87415885"}], "name": "Rosny-sur-Seine", "links": [], "coord": {"lat": "48.99717", "lon": "1.630626"}, "label": "Rosny-sur-Seine (Rosny-sur-Seine)", "administrative_regions": [{"insee": "78531", "name": "Rosny-sur-Seine", "level": 8, "coord": {"lat": "49.001733", "lon": "1.6280317"}, "label": "Rosny-sur-Seine (78710)", "id": "admin:fr:78531", "zip_code": "78710"}], "timezone": "Europe/Paris", "id": "stop_area:OCE:SA:87415885"}, {"codes": [{"type": "CR-CI-CH", "value": "0087-474155-BV"}, {"type": "CR-CI-CH", "value": "0087-474155-BV"}, {"type": "UIC8", "value": "87474155"}, {"type": "external_code", "value": "OCE87474155"}], "name": "Rosporden", "links": [], "coord": {"lat": "47.96019", "lon": "-3.832758"}, "label": "Rosporden (Rosporden)", "administrative_regions": [{"insee": "29241", "name": "Rosporden", "level": 8, "coord": {"lat": "47.9589613", "lon": "-3.8279451"}, "label": "Rosporden (29140)", "id": "admin:fr:29241", "zip_code": "29140"}], "timezone": "Europe/Paris", "id": "stop_area:OCE:SA:87474155"}, {"codes": [{"type": "CR-CI-CH", "value": "0087-642363-HR"}, {"type": "CR-CI-CH", "value": "0087-642363-HR"}, {"type": "UIC8", "value": "87642363"}, {"type": "external_code", "value": "OCE87642363"}], "name": "Rosteig-Mon.-Aux-Morts", "links": [], "coord": {"lat": "48.932877", "lon": "7.342485"}, "label": "Rosteig-Mon.-Aux-Morts (Rosteig)", "administrative_regions": [{"insee": "67413", "name": "Rosteig", "level": 8, "coord": {"lat": "48.9336375", "lon": "7.3408575"}, "label": "Rosteig (67290)", "id": "admin:fr:67413", "zip_code": "67290"}], "timezone": "Europe/Paris", "id": "stop_area:OCE:SA:87642363"}, {"codes": [{"type": "CR-CI-CH", "value": "0087-286567-00"}, {"type": "CR-CI-CH", "value": "0087-286567-00"}, {"type": "UIC8", "value": "87286567"}, {"type": "external_code", "value": "OCE87286567"}], "name": "Rosult", "links": [], "coord": {"lat": "50.456419", "lon": "3.348858"}, "label": "Rosult (Rosult)", "administrative_regions": [{"insee": "59511", "name": "Rosult", "level": 8, "coord": {"lat": "50.4506089", "lon": "3.3648063"}, "label": "Rosult (59230)", "id": "admin:fr:59511", "zip_code": "59230"}], "timezone": "Europe/Paris", "id": "stop_area:OCE:SA:87286567"}, {"codes": [{"type": "CR-CI-CH", "value": "0087-214726-00"}, {"type": "CR-CI-CH", "value": "0087-214726-00"}, {"type": "UIC8", "value": "87214726"}, {"type": "external_code", "value": "OCE87214726"}], "name": "Rothau", "links": [], "coord": {"lat": "48.45899", "lon": "7.207337"}, "label": "Rothau (Rothau)", "administrative_regions": [{"insee": "67414", "name": "Rothau", "level": 8, "coord": {"lat": "48.4553525", "lon": "7.2068703"}, "label": "Rothau (67570)", "id": "admin:fr:67414", "zip_code": "67570"}], "timezone": "Europe/Paris", "id": "stop_area:OCE:SA:87214726"}, {"codes": [{"type": "CR-CI-CH", "value": "0084-005306-BV"}, {"type": "CR-CI-CH", "value": "0084-005306-BV"}, {"type": "UIC8", "value": "84005306"}, {"type": "external_code", "value": "OCE84005306"}], "name": "Rotterdam-Centraal", "links": [], "coord": {"lat": "52.524993", "lon": "5.205636"}, "label": "Rotterdam-Centraal (Lelystad)", "administrative_regions": [{"insee": "", "name": "Lelystad", "level": 8, "coord": {"lat": "52.5150949", "lon": "5.4768915"}, "label": "Lelystad", "id": "admin:osm:relation:409806", "zip_code": ""}], "timezone": "Europe/Paris", "id": "stop_area:OCE:SA:84005306"}, {"codes": [{"type": "CR-CI-CH", "value": "0087-286732-BV"}, {"type": "CR-CI-CH", "value": "0087-286732-BV"}, {"type": "UIC8", "value": "87286732"}, {"type": "external_code", "value": "OCE87286732"}], "name": "Roubaix", "links": [], "coord": {"lat": "50.695352", "lon": "3.163021"}, "label": "Roubaix (Roubaix)", "administrative_regions": [{"insee": "59512", "name": "Roubaix", "level": 8, "coord": {"lat": "50.6915893", "lon": "3.1741734"}, "label": "Roubaix (59100)", "id": "admin:fr:59512", "zip_code": "59100"}], "timezone": "Europe/Paris", "id": "stop_area:OCE:SA:87286732"}, {"codes": [{"type": "CR-CI-CH", "value": "0087-712901-HR"}, {"type": "UIC8", "value": "87712901"}, {"type": "external_code", "value": "OCE87712901"}], "name": "Rouen Saint-Sever", "links": [], "coord": {"lat": "49.430494", "lon": "1.086077"}, "label": "Rouen Saint-Sever (Rouen)", "administrative_regions": [{"insee": "76540", "name": "Rouen", "level": 8, "coord": {"lat": "49.4404591", "lon": "1.0939658"}, "label": "Rouen (76000-76100)", "id": "admin:fr:76540", "zip_code": "76000;76100"}], "timezone": "Europe/Paris", "id": "stop_area:OCE:SA:87712901"}, {"codes": [{"type": "CR-CI-CH", "value": "0087-401893-00"}, {"type": "CR-CI-CH", "value": "0087-401893-00"}, {"type": "UIC8", "value": "87401893"}, {"type": "external_code", "value": "OCE87401893"}], "name": "Rouen-Gare-Routi\u00e8re", "links": [], "coord": {"lat": "49.439901", "lon": "1.0879"}, "label": "Rouen-Gare-Routi\u00e8re (Rouen)", "administrative_regions": [{"insee": "76540", "name": "Rouen", "level": 8, "coord": {"lat": "49.4404591", "lon": "1.0939658"}, "label": "Rouen (76000-76100)", "id": "admin:fr:76540", "zip_code": "76000;76100"}], "timezone": "Europe/Paris", "id": "stop_area:OCE:SA:87401893"}, {"codes": [{"type": "CR-CI-CH", "value": "0087-411017-00"}, {"type": "CR-CI-CH", "value": "0087-411017-00"}, {"type": "UIC8", "value": "87411017"}, {"type": "external_code", "value": "OCE87411017"}], "name": "Rouen-Rive-Droite", "links": [], "coord": {"lat": "49.44903", "lon": "1.094154"}, "label": "Rouen-Rive-Droite (Rouen)", "administrative_regions": [{"insee": "76540", "name": "Rouen", "level": 8, "coord": {"lat": "49.4404591", "lon": "1.0939658"}, "label": "Rouen (76000-76100)", "id": "admin:fr:76540", "zip_code": "76000;76100"}], "timezone": "Europe/Paris", "id": "stop_area:OCE:SA:87411017"}, {"codes": [{"type": "CR-CI-CH", "value": "0087-396259-00"}, {"type": "CR-CI-CH", "value": "0087-396259-00"}, {"type": "UIC8", "value": "87396259"}, {"type": "external_code", "value": "OCE87396259"}], "name": "Rouess\u00e9-Vass\u00e9", "links": [], "coord": {"lat": "48.1601", "lon": "-0.199774"}, "label": "Rouess\u00e9-Vass\u00e9 (Rouess\u00e9-Vass\u00e9)", "administrative_regions": [{"insee": "72255", "name": "Rouess\u00e9-Vass\u00e9", "level": 8, "coord": {"lat": "48.1598422", "lon": "-0.1984355"}, "label": "Rouess\u00e9-Vass\u00e9 (72140)", "id": "admin:fr:72255", "zip_code": "72140"}], "timezone": "Europe/Paris", "id": "stop_area:OCE:SA:87396259"}, {"codes": [{"type": "CR-CI-CH", "value": "0087-408948-00"}, {"type": "CR-CI-CH", "value": "0087-408948-00"}, {"type": "UIC8", "value": "87408948"}, {"type": "external_code", "value": "OCE87408948"}], "name": "Roueyre", "links": [], "coord": {"lat": "45.048738", "lon": "3.080915"}, "label": "Roueyre (Saint-Flour)", "administrative_regions": [{"insee": "15187", "name": "Saint-Flour", "level": 8, "coord": {"lat": "45.0334949", "lon": "3.0931009"}, "label": "Saint-Flour (15100)", "id": "admin:fr:15187", "zip_code": "15100"}], "timezone": "Europe/Paris", "id": "stop_area:OCE:SA:87408948"}, {"codes": [{"type": "CR-CI-CH", "value": "0087-182337-BV"}, {"type": "CR-CI-CH", "value": "0087-182337-BV"}, {"type": "UIC8", "value": "87182337"}, {"type": "external_code", "value": "OCE87182337"}], "name": "Rouffach", "links": [], "coord": {"lat": "47.960089", "lon": "7.312419"}, "label": "Rouffach (Rouffach)", "administrative_regions": [{"insee": "68287", "name": "Rouffach", "level": 8, "coord": {"lat": "47.9569146", "lon": "7.2994054"}, "label": "Rouffach (68250)", "id": "admin:fr:68287", "zip_code": "68250"}], "timezone": "Europe/Paris", "id": "stop_area:OCE:SA:87182337"}, {"codes": [{"type": "CR-CI-CH", "value": "0087-654475-HR"}, {"type": "CR-CI-CH", "value": "0087-654475-HR"}, {"type": "UIC8", "value": "87654475"}, {"type": "external_code", "value": "OCE87654475"}], "name": "Rouffach-(CHS)", "links": [], "coord": {"lat": "47.950568", "lon": "7.29112"}, "label": "Rouffach-(CHS) (Rouffach)", "administrative_regions": [{"insee": "68287", "name": "Rouffach", "level": 8, "coord": {"lat": "47.9569146", "lon": "7.2994054"}, "label": "Rouffach (68250)", "id": "admin:fr:68287", "zip_code": "68250"}], "timezone": "Europe/Paris", "id": "stop_area:OCE:SA:87654475"}, {"codes": [{"type": "CR-CI-CH", "value": "0087-705871-HR"}, {"type": "UIC8", "value": "87705871"}, {"type": "external_code", "value": "OCE87705871"}], "name": "Rougemontie-RD144", "links": [], "coord": {"lat": "49.364469", "lon": "0.710425"}, "label": "Rougemontie-RD144 (Rougemontiers)", "administrative_regions": [{"insee": "27497", "name": "Rougemontiers", "level": 8, "coord": {"lat": "49.3588268", "lon": "0.7205423"}, "label": "Rougemontiers (27350)", "id": "admin:fr:27497", "zip_code": "27350"}], "timezone": "Europe/Paris", "id": "stop_area:OCE:SA:87705871"}, {"codes": [{"type": "CR-CI-CH", "value": "0087-216010-00"}, {"type": "CR-CI-CH", "value": "0087-216010-00"}, {"type": "UIC8", "value": "87216010"}, {"type": "external_code", "value": "OCE87216010"}], "name": "Rouilly-St-Loup-D21", "links": [], "coord": {"lat": "48.262776", "lon": "4.151105"}, "label": "Rouilly-St-Loup-D21 (Rouilly-Saint-Loup)", "administrative_regions": [{"insee": "10329", "name": "Rouilly-Saint-Loup", "level": 8, "coord": {"lat": "48.2632089", "lon": "4.1485934"}, "label": "Rouilly-Saint-Loup (10800)", "id": "admin:fr:10329", "zip_code": "10800"}], "timezone": "Europe/Paris", "id": "stop_area:OCE:SA:87216010"}, {"codes": [{"type": "CR-CI-CH", "value": "0087-280016-00"}, {"type": "CR-CI-CH", "value": "0087-280016-00"}, {"type": "UIC8", "value": "87280016"}, {"type": "external_code", "value": "OCE87280016"}], "name": "Rouilly-St-Loup-Gu\u00e9rade", "links": [], "coord": {"lat": "48.268331", "lon": "4.136654"}, "label": "Rouilly-St-Loup-Gu\u00e9rade (Rouilly-Saint-Loup)", "administrative_regions": [{"insee": "10329", "name": "Rouilly-Saint-Loup", "level": 8, "coord": {"lat": "48.2632089", "lon": "4.1485934"}, "label": "Rouilly-Saint-Loup (10800)", "id": "admin:fr:10329", "zip_code": "10800"}], "timezone": "Europe/Paris", "id": "stop_area:OCE:SA:87280016"}, {"codes": [{"type": "CR-CI-CH", "value": "0087-485532-00"}, {"type": "CR-CI-CH", "value": "0087-485532-00"}, {"type": "UIC8", "value": "87485532"}, {"type": "external_code", "value": "OCE87485532"}], "name": "Rouill\u00e9", "links": [], "coord": {"lat": "46.418799", "lon": "0.041859"}, "label": "Rouill\u00e9 (Rouill\u00e9)", "administrative_regions": [{"insee": "86213", "name": "Rouill\u00e9", "level": 8, "coord": {"lat": "46.4204444", "lon": "0.040646"}, "label": "Rouill\u00e9 (86480)", "id": "admin:fr:86213", "zip_code": "86480"}], "timezone": "Europe/Paris", "id": "stop_area:OCE:SA:87485532"}]}