{"pagination": {"start_page": 72, "items_on_page": 25, "items_per_page": 25, "total_result": 4343}, "links": [{"href": "https://api.sncf.com/v1/coverage/sncf/stop_areas/{stop_areas.id}", "type": "stop_areas", "rel": "stop_areas", "templated": true}, {"href": "https://api.sncf.com/v1/coverage/sncf/stop_areas/{stop_areas.id}/route_schedules", "type": "route_schedules", "rel": "route_schedules", "templated": true}, {"href": "https://api.sncf.com/v1/coverage/sncf/stop_areas/{stop_areas.id}/stop_schedules", "type": "stop_schedules", "rel": "stop_schedules", "templated": true}, {"href": "https://api.sncf.com/v1/coverage/sncf/stop_areas/{stop_areas.id}/arrivals", "type": "arrivals", "rel": "arrivals", "templated": true}, {"href": "https://api.sncf.com/v1/coverage/sncf/stop_areas/{stop_areas.id}/departures", "type": "departures", "rel": "departures", "templated": true}, {"href": "https://api.sncf.com/v1/coverage/sncf/stop_areas/{stop_areas.id}/places_nearby", "type": "places_nearby", "rel": "places_nearby", "templated": true}, {"href": "https://api.sncf.com/v1/coverage/sncf/stop_areas/{stop_areas.id}/journeys", "type": "journey", "rel": "journeys", "templated": true}, {"href": "https://api.sncf.com/v1/coverage/sncf/stop_areas/{stop_areas.id}/traffic_reports", "type": "disruption", "rel": "disruptions", "templated": true}, {"href": "https://api.sncf.com/v1/coverage/sncf/stop_areas?start_page=71", "type": "previous", "templated": false}, {"href": "https://api.sncf.com/v1/coverage/sncf/stop_areas?start_page=73", "type": "next", "templated": false}, {"href": "https://api.sncf.com/v1/coverage/sncf/stop_areas?start_page=173", "type": "last", "templated": false}, {"href": "https://api.sncf.com/v1/coverage/sncf/stop_areas", "type": "first", "templated": false}], "disruptions": [], "feed_publishers": [], "context": {"timezone": "Europe/Paris", "current_datetime": "20200210T135437"}, "stop_areas": [{"codes": [{"type": "CR-CI-CH", "value": "0087-313239-00"}, {"type": "CR-CI-CH", "value": "0087-313239-00"}, {"type": "UIC8", "value": "87313239"}, {"type": "external_code", "value": "OCE87313239"}], "name": "La Faloise", "links": [], "coord": {"lat": "49.69651", "lon": "2.348704"}, "label": "La Faloise (La Faloise)", "administrative_regions": [{"insee": "80299", "name": "La Faloise", "level": 8, "coord": {"lat": "49.69856", "lon": "2.3406"}, "label": "La Faloise (80250)", "id": "admin:fr:80299", "zip_code": "80250"}], "timezone": "Europe/Paris", "id": "stop_area:OCE:SA:87313239"}, {"codes": [{"type": "CR-CI-CH", "value": "0087-681452-00"}, {"type": "CR-CI-CH", "value": "0087-681452-00"}, {"type": "UIC8", "value": "87681452"}, {"type": "external_code", "value": "OCE87681452"}], "name": "La Fert\u00e9-Alais", "links": [], "coord": {"lat": "48.485142", "lon": "2.352009"}, "label": "La Fert\u00e9-Alais (Baulne)", "administrative_regions": [{"insee": "91047", "name": "Baulne", "level": 8, "coord": {"lat": "48.4931951", "lon": "2.3598564"}, "label": "Baulne (91590)", "id": "admin:fr:91047", "zip_code": "91590"}], "timezone": "Europe/Paris", "id": "stop_area:OCE:SA:87681452"}, {"codes": [{"type": "CR-CI-CH", "value": "0087-396325-BV"}, {"type": "CR-CI-CH", "value": "0087-396325-BV"}, {"type": "UIC8", "value": "87396325"}, {"type": "external_code", "value": "OCE87396325"}], "name": "La Fert\u00e9-Bernard", "links": [], "coord": {"lat": "48.186487", "lon": "0.639325"}, "label": "La Fert\u00e9-Bernard (La Fert\u00e9-Bernard)", "administrative_regions": [{"insee": "72132", "name": "La Fert\u00e9-Bernard", "level": 8, "coord": {"lat": "48.1860576", "lon": "0.6554511"}, "label": "La Fert\u00e9-Bernard (72400)", "id": "admin:fr:72132", "zip_code": "72400"}], "timezone": "Europe/Paris", "id": "stop_area:OCE:SA:87396325"}, {"codes": [{"type": "CR-CI-CH", "value": "0087-576082-00"}, {"type": "CR-CI-CH", "value": "0087-576082-00"}, {"type": "UIC8", "value": "87576082"}, {"type": "external_code", "value": "OCE87576082"}], "name": "La Fert\u00e9-Imbault", "links": [], "coord": {"lat": "47.383746", "lon": "1.958033"}, "label": "La Fert\u00e9-Imbault (La Fert\u00e9-Imbault)", "administrative_regions": [{"insee": "41084", "name": "La Fert\u00e9-Imbault", "level": 8, "coord": {"lat": "47.385694", "lon": "1.9548619"}, "label": "La Fert\u00e9-Imbault (41300)", "id": "admin:fr:41084", "zip_code": "41300"}], "timezone": "Europe/Paris", "id": "stop_area:OCE:SA:87576082"}, {"codes": [{"type": "CR-CI-CH", "value": "0087-448464-BV"}, {"type": "CR-CI-CH", "value": "0087-448464-BV"}, {"type": "UIC8", "value": "87448464"}, {"type": "external_code", "value": "OCE87448464"}], "name": "La Fert\u00e9-Mac\u00e9", "links": [], "coord": {"lat": "48.59472", "lon": "-0.356398"}, "label": "La Fert\u00e9-Mac\u00e9 (La Fert\u00e9-Mac\u00e9)", "administrative_regions": [{"insee": "61168", "name": "La Fert\u00e9-Mac\u00e9", "level": 8, "coord": {"lat": "48.5895488", "lon": "-0.3584924"}, "label": "La Fert\u00e9-Mac\u00e9", "id": "admin:fr:61168", "zip_code": ""}], "timezone": "Europe/Paris", "id": "stop_area:OCE:SA:87448464"}, {"codes": [{"type": "CR-CI-CH", "value": "0087-391680-00"}, {"type": "CR-CI-CH", "value": "0087-391680-00"}, {"type": "UIC8", "value": "87391680"}, {"type": "external_code", "value": "OCE87391680"}], "name": "La Fert\u00e9-Mac\u00e9 Pl. Neust", "links": [], "coord": {"lat": "48.590271", "lon": "-0.355842"}, "label": "La Fert\u00e9-Mac\u00e9 Pl. Neust (La Fert\u00e9-Mac\u00e9)", "administrative_regions": [{"insee": "61168", "name": "La Fert\u00e9-Mac\u00e9", "level": 8, "coord": {"lat": "48.5895488", "lon": "-0.3584924"}, "label": "La Fert\u00e9-Mac\u00e9", "id": "admin:fr:61168", "zip_code": ""}], "timezone": "Europe/Paris", "id": "stop_area:OCE:SA:87391680"}, {"codes": [{"type": "CR-CI-CH", "value": "0087-116673-00"}, {"type": "CR-CI-CH", "value": "0087-116673-00"}, {"type": "UIC8", "value": "87116673"}, {"type": "external_code", "value": "OCE87116673"}], "name": "La Fert\u00e9-Milon", "links": [], "coord": {"lat": "49.179556", "lon": "3.121028"}, "label": "La Fert\u00e9-Milon (La Fert\u00e9-Milon)", "administrative_regions": [{"insee": "2307", "name": "La Fert\u00e9-Milon", "level": 8, "coord": {"lat": "49.1776527", "lon": "3.1247707"}, "label": "La Fert\u00e9-Milon (02460)", "id": "admin:fr:2307", "zip_code": "02460"}], "timezone": "Europe/Paris", "id": "stop_area:OCE:SA:87116673"}, {"codes": [{"type": "CR-CI-CH", "value": "0087-543124-BV"}, {"type": "CR-CI-CH", "value": "0087-543124-BV"}, {"type": "UIC8", "value": "87543124"}, {"type": "external_code", "value": "OCE87543124"}], "name": "La Fert\u00e9-St-Aubin", "links": [], "coord": {"lat": "47.720968", "lon": "1.932337"}, "label": "La Fert\u00e9-St-Aubin (La Fert\u00e9-Saint-Aubin)", "administrative_regions": [{"insee": "45146", "name": "La Fert\u00e9-Saint-Aubin", "level": 8, "coord": {"lat": "47.7169399", "lon": "1.9442053"}, "label": "La Fert\u00e9-Saint-Aubin (45240)", "id": "admin:fr:45146", "zip_code": "45240"}], "timezone": "Europe/Paris", "id": "stop_area:OCE:SA:87543124"}, {"codes": [{"type": "CR-CI-CH", "value": "0087-116517-BV"}, {"type": "CR-CI-CH", "value": "0087-116517-BV"}, {"type": "UIC8", "value": "87116517"}, {"type": "external_code", "value": "OCE87116517"}], "name": "La Fert\u00e9-sous-Jouarre", "links": [], "coord": {"lat": "48.950772", "lon": "3.12541"}, "label": "La Fert\u00e9-sous-Jouarre (La Fert\u00e9-sous-Jouarre)", "administrative_regions": [{"insee": "77183", "name": "La Fert\u00e9-sous-Jouarre", "level": 8, "coord": {"lat": "48.9500674", "lon": "3.1294221"}, "label": "La Fert\u00e9-sous-Jouarre (77260)", "id": "admin:fr:77183", "zip_code": "77260"}], "timezone": "Europe/Paris", "id": "stop_area:OCE:SA:87116517"}, {"codes": [{"type": "CR-CI-CH", "value": "0087-173401-00"}, {"type": "CR-CI-CH", "value": "0087-173401-00"}, {"type": "UIC8", "value": "87173401"}, {"type": "external_code", "value": "OCE87173401"}], "name": "La Fert\u00e9-sur-Chiers", "links": [], "coord": {"lat": "49.57555", "lon": "5.239708"}, "label": "La Fert\u00e9-sur-Chiers (La Fert\u00e9-sur-Chiers)", "administrative_regions": [{"insee": "8168", "name": "La Fert\u00e9-sur-Chiers", "level": 8, "coord": {"lat": "49.57452", "lon": "5.2418"}, "label": "La Fert\u00e9-sur-Chiers (08370)", "id": "admin:fr:8168", "zip_code": "08370"}], "timezone": "Europe/Paris", "id": "stop_area:OCE:SA:87173401"}, {"codes": [{"type": "CR-CI-CH", "value": "0087-286427-00"}, {"type": "CR-CI-CH", "value": "0087-286427-00"}, {"type": "UIC8", "value": "87286427"}, {"type": "external_code", "value": "OCE87286427"}], "name": "La Fontaine (Nord)", "links": [], "coord": {"lat": "50.566208", "lon": "2.926074"}, "label": "La Fontaine (Nord) (Wavrin)", "administrative_regions": [{"insee": "59653", "name": "Wavrin", "level": 8, "coord": {"lat": "50.570559", "lon": "2.932545"}, "label": "Wavrin (59136)", "id": "admin:fr:59653", "zip_code": "59136"}], "timezone": "Europe/Paris", "id": "stop_area:OCE:SA:87286427"}, {"codes": [{"type": "CR-CI-CH", "value": "0087-474221-00"}, {"type": "CR-CI-CH", "value": "0087-474221-00"}, {"type": "UIC8", "value": "87474221"}, {"type": "external_code", "value": "OCE87474221"}], "name": "La Forest", "links": [], "coord": {"lat": "48.426187", "lon": "-4.307496"}, "label": "La Forest (La Forest-Landerneau)", "administrative_regions": [{"insee": "29056", "name": "La Forest-Landerneau", "level": 8, "coord": {"lat": "48.4278084", "lon": "-4.3182625"}, "label": "La Forest-Landerneau (29800)", "id": "admin:fr:29056", "zip_code": "29800"}], "timezone": "Europe/Paris", "id": "stop_area:OCE:SA:87474221"}, {"codes": [{"type": "CR-CI-CH", "value": "0087-726232-BV"}, {"type": "CR-CI-CH", "value": "0087-726232-BV"}, {"type": "UIC8", "value": "87726232"}, {"type": "external_code", "value": "OCE87726232"}], "name": "La Fouillouse", "links": [], "coord": {"lat": "45.497927", "lon": "4.31691"}, "label": "La Fouillouse (La Fouillouse)", "administrative_regions": [{"insee": "42097", "name": "La Fouillouse", "level": 8, "coord": {"lat": "45.5002145", "lon": "4.3203978"}, "label": "La Fouillouse (42480)", "id": "admin:fr:42097", "zip_code": "42480"}], "timezone": "Europe/Paris", "id": "stop_area:OCE:SA:87726232"}, {"codes": [{"type": "CR-CI-CH", "value": "0087-478081-00"}, {"type": "CR-CI-CH", "value": "0087-478081-00"}, {"type": "UIC8", "value": "87478081"}, {"type": "external_code", "value": "OCE87478081"}], "name": "La Fresnais", "links": [], "coord": {"lat": "48.593623", "lon": "-1.843152"}, "label": "La Fresnais (La Fresnais)", "administrative_regions": [{"insee": "35116", "name": "La Fresnais", "level": 8, "coord": {"lat": "48.5952811", "lon": "-1.8437735"}, "label": "La Fresnais (35111)", "id": "admin:fr:35116", "zip_code": "35111"}], "timezone": "Europe/Paris", "id": "stop_area:OCE:SA:87478081"}, {"codes": [{"type": "CR-CI-CH", "value": "0087-381871-00"}, {"type": "CR-CI-CH", "value": "0087-381871-00"}, {"type": "UIC8", "value": "87381871"}, {"type": "external_code", "value": "OCE87381871"}], "name": "La Frette-Montigny", "links": [], "coord": {"lat": "48.980168", "lon": "2.180167"}, "label": "La Frette-Montigny (La Frette-sur-Seine)", "administrative_regions": [{"insee": "95257", "name": "La Frette-sur-Seine", "level": 8, "coord": {"lat": "48.9740461", "lon": "2.178345"}, "label": "La Frette-sur-Seine (95530)", "id": "admin:fr:95257", "zip_code": "95530"}], "timezone": "Europe/Paris", "id": "stop_area:OCE:SA:87381871"}, {"codes": [{"type": "CR-CI-CH", "value": "0087-296632-00"}, {"type": "CR-CI-CH", "value": "0087-296632-00"}, {"type": "UIC8", "value": "87296632"}, {"type": "external_code", "value": "OCE87296632"}], "name": "La F\u00e8re", "links": [], "coord": {"lat": "49.658027", "lon": "3.369753"}, "label": "La F\u00e8re (La F\u00e8re)", "administrative_regions": [{"insee": "2304", "name": "La F\u00e8re", "level": 8, "coord": {"lat": "49.6632869", "lon": "3.3661672"}, "label": "La F\u00e8re (02800)", "id": "admin:fr:2304", "zip_code": "02800"}], "timezone": "Europe/Paris", "id": "stop_area:OCE:SA:87296632"}, {"codes": [{"type": "CR-CI-CH", "value": "0087-755306-BV"}, {"type": "CR-CI-CH", "value": "0087-755306-BV"}, {"type": "UIC8", "value": "87755306"}, {"type": "external_code", "value": "OCE87755306"}], "name": "La Garde", "links": [], "coord": {"lat": "43.118753", "lon": "6.009977"}, "label": "La Garde (La Garde)", "administrative_regions": [{"insee": "83062", "name": "La Garde", "level": 8, "coord": {"lat": "43.1249185", "lon": "6.0128532"}, "label": "La Garde (83130)", "id": "admin:fr:83062", "zip_code": "83130"}], "timezone": "Europe/Paris", "id": "stop_area:OCE:SA:87755306"}, {"codes": [{"type": "CR-CI-CH", "value": "0087-386003-BV"}, {"type": "CR-CI-CH", "value": "0087-386003-BV"}, {"type": "UIC8", "value": "87386003"}, {"type": "external_code", "value": "OCE87386003"}], "name": "La Garenne-Colombes", "links": [], "coord": {"lat": "48.909434", "lon": "2.239922"}, "label": "La Garenne-Colombes (La Garenne-Colombes)", "administrative_regions": [{"insee": "92035", "name": "La Garenne-Colombes", "level": 8, "coord": {"lat": "48.9069349", "lon": "2.2465748"}, "label": "La Garenne-Colombes (92250)", "id": "admin:fr:92035", "zip_code": "92250"}], "timezone": "Europe/Paris", "id": "stop_area:OCE:SA:87386003"}, {"codes": [{"type": "CR-CI-CH", "value": "0087-576355-00"}, {"type": "CR-CI-CH", "value": "0087-576355-00"}, {"type": "UIC8", "value": "87576355"}, {"type": "external_code", "value": "OCE87576355"}], "name": "La Gauterie", "links": [], "coord": {"lat": "47.140132", "lon": "1.491708"}, "label": "La Gauterie (Veuil)", "administrative_regions": [{"insee": "36235", "name": "Veuil", "level": 8, "coord": {"lat": "47.1206958", "lon": "1.5253393"}, "label": "Veuil (36600)", "id": "admin:fr:36235", "zip_code": "36600"}], "timezone": "Europe/Paris", "id": "stop_area:OCE:SA:87576355"}, {"codes": [{"type": "CR-CI-CH", "value": "0087-584755-00"}, {"type": "CR-CI-CH", "value": "0087-584755-00"}, {"type": "UIC8", "value": "87584755"}, {"type": "external_code", "value": "OCE87584755"}], "name": "La Gorp", "links": [], "coord": {"lat": "44.9287", "lon": "-0.496669"}, "label": "La Gorp (Ambar\u00e8s-et-Lagrave)", "administrative_regions": [{"insee": "33003", "name": "Ambar\u00e8s-et-Lagrave", "level": 8, "coord": {"lat": "44.9259011", "lon": "-0.4881846"}, "label": "Ambar\u00e8s-et-Lagrave (33440)", "id": "admin:fr:33003", "zip_code": "33440"}], "timezone": "Europe/Paris", "id": "stop_area:OCE:SA:87584755"}, {"codes": [{"type": "CR-CI-CH", "value": "0087-478099-00"}, {"type": "CR-CI-CH", "value": "0087-478099-00"}, {"type": "UIC8", "value": "87478099"}, {"type": "external_code", "value": "OCE87478099"}], "name": "La Gouesni\u00e8re-Cancale", "links": [], "coord": {"lat": "48.614362", "lon": "-1.905965"}, "label": "La Gouesni\u00e8re-Cancale (Saint-M\u00e9loir-des-Ondes)", "administrative_regions": [{"insee": "35299", "name": "Saint-M\u00e9loir-des-Ondes", "level": 8, "coord": {"lat": "48.6380887", "lon": "-1.9051339"}, "label": "Saint-M\u00e9loir-des-Ondes (35350)", "id": "admin:fr:35299", "zip_code": "35350"}], "timezone": "Europe/Paris", "id": "stop_area:OCE:SA:87478099"}, {"codes": [{"type": "CR-CI-CH", "value": "0087-682476-00"}, {"type": "CR-CI-CH", "value": "0087-682476-00"}, {"type": "UIC8", "value": "87682476"}, {"type": "external_code", "value": "OCE87682476"}], "name": "La Grande-Paroisse", "links": [], "coord": {"lat": "48.378645", "lon": "2.897441"}, "label": "La Grande-Paroisse (La Grande-Paroisse)", "administrative_regions": [{"insee": "77210", "name": "La Grande-Paroisse", "level": 8, "coord": {"lat": "48.3860553", "lon": "2.9009239"}, "label": "La Grande-Paroisse (77130)", "id": "admin:fr:77210", "zip_code": "77130"}], "timezone": "Europe/Paris", "id": "stop_area:OCE:SA:87682476"}, {"codes": [{"type": "CR-CI-CH", "value": "0087-407726-00"}, {"type": "CR-CI-CH", "value": "0087-407726-00"}, {"type": "UIC8", "value": "87407726"}, {"type": "external_code", "value": "OCE87407726"}], "name": "La Grave-Carrefour", "links": [], "coord": {"lat": "46.53344", "lon": "2.619822"}, "label": "La Grave-Carrefour (Vallon-en-Sully)", "administrative_regions": [{"insee": "3297", "name": "Vallon-en-Sully", "level": 8, "coord": {"lat": "46.5375", "lon": "2.60656"}, "label": "Vallon-en-Sully (03190)", "id": "admin:fr:3297", "zip_code": "03190"}], "timezone": "Europe/Paris", "id": "stop_area:OCE:SA:87407726"}, {"codes": [{"type": "CR-CI-CH", "value": "0087-491274-BV"}, {"type": "CR-CI-CH", "value": "0087-491274-BV"}, {"type": "UIC8", "value": "87491274"}, {"type": "external_code", "value": "OCE87491274"}], "name": "La Grave-d'Ambar\u00e8s-G-i", "links": [], "coord": {"lat": "44.935655", "lon": "-0.477014"}, "label": "La Grave-d'Ambar\u00e8s-G-i (Ambar\u00e8s-et-Lagrave)", "administrative_regions": [{"insee": "33003", "name": "Ambar\u00e8s-et-Lagrave", "level": 8, "coord": {"lat": "44.9259011", "lon": "-0.4881846"}, "label": "Ambar\u00e8s-et-Lagrave (33440)", "id": "admin:fr:33003", "zip_code": "33440"}], "timezone": "Europe/Paris", "id": "stop_area:OCE:SA:87491274"}, {"codes": [{"type": "CR-CI-CH", "value": "0087-576470-00"}, {"type": "CR-CI-CH", "value": "0087-576470-00"}, {"type": "UIC8", "value": "87576470"}, {"type": "external_code", "value": "OCE87576470"}], "name": "La Guerche-sur-l'Aubois", "links": [], "coord": {"lat": "46.94785", "lon": "2.948455"}, "label": "La Guerche-sur-l'Aubois (La Guerche-sur-l'Aubois)", "administrative_regions": [{"insee": "18108", "name": "La Guerche-sur-l'Aubois", "level": 8, "coord": {"lat": "46.9536", "lon": "2.94465"}, "label": "La Guerche-sur-l'Aubois (18150)", "id": "admin:fr:18108", "zip_code": "18150"}], "timezone": "Europe/Paris", "id": "stop_area:OCE:SA:87576470"}]}